Name,Full Address,Street,City,Postcode,State,Country,Amenity,Healthcare,Phone,Website,Opening Hours,Latitude,Longitude
Unknown,Unknown,Unknown,Unknown,Unknown,Unknown,Unknown,pharmacy,Unknown,Unknown,Unknown,Unknown,14.5220183,120.9966663
Bentaub Drugstore [small],Unknown,Unknown,Unknown,Unknown,Unknown,Unknown,pharmacy,Unknown,Unknown,Unknown,Unknown,14.5384325,120.9941861
Protacio Hospital,Unknown,Unknown,Unknown,Unknown,Unknown,Unknown,hospital,Unknown,Unknown,Unknown,Unknown,14.5241939,120.9965839
Farmacia Baclaran,Unknown,Unknown,Unknown,Unknown,Unknown,Unknown,pharmacy,Unknown,Unknown,Unknown,Unknown,14.5323175,120.9936415
Mercury Drug,Unknown,Senator Gil Puyat Avenue,Makati,1235,Unknown,Unknown,pharmacy,pharmacy,Unknown,Unknown,Unknown,14.5562011,121.0038035
Mercury Drug,Unknown,Unknown,Unknown,Unknown,Unknown,Unknown,pharmacy,Unknown,Unknown,Unknown,Unknown,13.148774,123.7167402
Life Extension Medical Clinic and Pharmacy,Unknown,Unknown,Unknown,Unknown,Unknown,Unknown,Unknown,laboratory,Unknown,Unknown,Unknown,11.7056627,122.3667368
Ibajay District Hospital,Unknown,Unknown,Unknown,Unknown,Unknown,Unknown,hospital,Unknown,Unknown,Unknown,Unknown,11.8116154,122.1537662
Unknown,Unknown,Unknown,Unknown,Unknown,Unknown,Unknown,pharmacy,pharmacy,Unknown,Unknown,Unknown,11.9633295,121.9262176
Mercury Drug,Unknown,Unknown,Unknown,Unknown,Unknown,Unknown,pharmacy,Unknown,Unknown,Unknown,Unknown,14.5779169,120.9788535
Watsons,Unknown,Lopez Avenue,Los Baños,4031,Unknown,Unknown,pharmacy,pharmacy,Unknown,Unknown,Unknown,14.1680371,121.2435152
Ronn Carmel Hospital,Unknown,Unknown,Unknown,Unknown,Unknown,Unknown,hospital,hospital,Unknown,Unknown,Unknown,14.6579206,120.9919955
Mercury Drug,Unknown,Aurora Boulevard,Quezon City,Unknown,Unknown,Unknown,pharmacy,pharmacy,Unknown,Unknown,24/7,14.6211192,121.0498626
Metro Drug,Unknown,Unknown,Pasig,1600,Unknown,Unknown,pharmacy,pharmacy,Unknown,Unknown,Unknown,14.596071,121.080688
UST Hospital Clinical Division,Unknown,Unknown,Manila,1015,Unknown,Unknown,hospital,hospital,Unknown,Unknown,Unknown,14.6122477,120.9898193
Sgm Drugstore,Unknown,Unknown,Quezon City,1100,Unknown,Unknown,pharmacy,Unknown,Unknown,Unknown,Unknown,14.6445715,121.0222188
Mercury Drug,Unknown,Mayon Street,Quezon City,Unknown,Unknown,Unknown,pharmacy,pharmacy,Unknown,Unknown,Unknown,14.6232875,120.9991911
Miraculous Medal Hospital,Unknown,Unknown,Unknown,Unknown,Unknown,Unknown,Unknown,hospital,Unknown,Unknown,Unknown,14.553641,120.992988
Mercury Drug,Unknown,Jupiter Street,Makati,1200,Unknown,Unknown,pharmacy,Unknown,Unknown,Unknown,Unknown,14.5623488,121.0279034
Napindan Health Center,Unknown,Unknown,Unknown,Unknown,Unknown,Unknown,health_post,yes,Unknown,Unknown,Unknown,14.5391887,121.0970519
Lady Of  Lourdes Hospital Of Kaybiga,Unknown,Unknown,Unknown,Unknown,Unknown,Unknown,hospital,Unknown,Unknown,Unknown,Unknown,14.719531,121.007156
Our Lady Of Mercy Hospital,Unknown,Unknown,Quezon City,1100,Unknown,Unknown,hospital,Unknown,Unknown,Unknown,Unknown,14.721521,121.0397952
Lizardo Childrens Clinic,Unknown,Stella Maris,Pasig,Unknown,Unknown,Unknown,clinic,Unknown,Unknown,Unknown,Unknown,14.5778748,121.0825092
Valdez-Padron Clinic,Unknown,Marianito,Quezon City,1100,Unknown,Unknown,doctors,doctor,Unknown,Unknown,Unknown,14.708323,121.039645
A. R. Bautista Children And General Hospital,Unknown,Unknown,Kalookan,1400,NCR,Unknown,hospital,hospital,Unknown,Unknown,Unknown,14.7303,121.043441
Mercury Drug,Unknown,Amorsolo Street,Makati,1200,Unknown,Unknown,pharmacy,pharmacy,Unknown,Unknown,24/7,14.560069,121.0148561
St. John Hospital,Unknown,Unknown,Unknown,Unknown,Unknown,Unknown,hospital,Unknown,Unknown,Unknown,Unknown,14.6931601,120.9656248
John-paul Hospital,Unknown,Unknown,Unknown,Unknown,Unknown,Unknown,hospital,Unknown,Unknown,Unknown,Unknown,14.659791,120.991958
Joson Medical Clinic,Unknown,Dr. Sixto Antonio Avenue,Pasig,Unknown,Unknown,Unknown,clinic,clinic,Unknown,Unknown,Unknown,14.5787595,121.081881
Mercury Drug,Unknown,Urban Avenue corner Senator Gil Puyat Avenue,Makati,1200,Unknown,Unknown,pharmacy,pharmacy,Unknown,Unknown,24/7,14.5606487,121.0139671
Casual General Hospital,Unknown,Quirino Highway,Quezon City,1118,Unknown,Unknown,hospital,Unknown,Unknown,Unknown,Unknown,14.7370013,121.070637
Watsons,Unknown,Unknown,Pasig,Unknown,Unknown,Unknown,pharmacy,pharmacy,Unknown,Unknown,Unknown,14.5727958,121.0639868
Mercury Drug,Unknown,E. Rodriguez Sr. Avenue,Quezon City,1100,NCR,Unknown,pharmacy,pharmacy,Unknown,Unknown,Mo-Su 07:00-23:00,14.6185863,121.0096947
Mercury Drug,Unknown,Sierra Madre Street,Mandaluyong,1550,Unknown,Unknown,pharmacy,pharmacy,Unknown,Unknown,24/7,14.578589,121.0512446
J. P. Sioson General Hospital And Colleges,Unknown,Unknown,Quezon City,1100,Unknown,Unknown,hospital,Unknown,Unknown,Unknown,Unknown,14.6599034,121.0250945
Hernandez General Hospital,Unknown,Unknown,Unknown,Unknown,Unknown,Unknown,hospital,hospital,Unknown,Unknown,Unknown,14.646813,120.9838197
Morales Childrens Clinic,Unknown,Stella Maris,Pasig,Unknown,Unknown,Unknown,clinic,Unknown,Unknown,Unknown,Unknown,14.5780048,121.0823562
Roads and Bridges to Recovery,Unknown,Dr. Sixto Antonio Avenue,Pasig,Unknown,Unknown,Unknown,Unknown,psychotherapist,6436006 | 6436056 | 6408395 | 6435788,http://www.metropsych.net,24/7,14.58231,121.08403
Sacred Angel,Unknown,Quirino Highway,Quezon City,1118,Unknown,Unknown,clinic,clinic,Unknown,Unknown,Unknown,14.7353252,121.0686784
Mercury Drug,Unknown,Unknown,Makati,1231,Unknown,Unknown,pharmacy,Unknown,Unknown,Unknown,Unknown,14.5527569,121.0135794
Mercury Drug,Unknown,Shaw Boulevard,Mandaluyong,Unknown,Unknown,Unknown,pharmacy,pharmacy,+63 2 8531 9439,https://www.mercurydrug.com/,06:00-23:00,14.5879978,121.0445019
Mercury Drug,Unknown,Lacson Avenue,Manila,Unknown,Unknown,Unknown,pharmacy,pharmacy,Unknown,Unknown,Unknown,14.61399,120.989051
Mt. Carmel Maternity And Children's Clinic,Unknown,Unknown,Manila,Unknown,Unknown,Unknown,clinic,clinic,Unknown,Unknown,Unknown,14.62762,120.984481
Mercury Drug,Unknown,Unknown,Quezon City,1100,Unknown,Unknown,pharmacy,pharmacy,Unknown,Unknown,Unknown,14.6581438,121.0195292
FamilyDOC,Unknown,Villa Cristina Avenue,Las Piñas,Unknown,Unknown,Unknown,Unknown,clinic,Unknown,Unknown,Unknown,14.451308,120.9796043
Fairview Polymedic Hospital,Unknown,Quirino Highway,Kalookan,1400,NCR,Unknown,hospital,hospital,Unknown,Unknown,Unknown,14.729371,121.04251
Hernandez General Hospital,Unknown,Unknown,Unknown,Unknown,Unknown,Unknown,hospital,hospital,Unknown,Unknown,Unknown,14.653471,120.989372
Mother Regina,Unknown,Unknown,Pasig,Unknown,Unknown,Unknown,hospital,hospital,Unknown,Unknown,Unknown,14.58352,121.085128
Calle-piramide Medical Clinic,Unknown,C. Suarez Street,Pasig,Unknown,Unknown,Unknown,doctors,doctor,Unknown,Unknown,Unknown,14.5817269,121.0844031
Dr. Montano G. Ramos General Hospital,Unknown,Unknown,Quezon City,1100,Unknown,Unknown,hospital,hospital,+63 289276628,https://web.facebook.com/dmgrgh,Unknown,14.6595215,121.0235618
Bagbaguin Family Hospital,Unknown,Unknown,Unknown,Unknown,Unknown,Unknown,hospital,Unknown,Unknown,Unknown,Unknown,14.7187774,121.005167
Yanchos Drugstore,Unknown,Unknown,Quezon City,1100,NCR,Unknown,pharmacy,Unknown,Unknown,Unknown,Unknown,14.6425311,121.0264988
"Mary's Infant General Hospital, Inc.",Unknown,Unknown,Pasig,Unknown,Unknown,Unknown,hospital,Unknown,Unknown,Unknown,Unknown,14.55577,121.076271
Mercury Drug,Unknown,General Kalentong Street,Mandaluyong,Unknown,Unknown,Unknown,pharmacy,pharmacy,Unknown,Unknown,24/7,14.5924667,121.0263831
Baesa Advent Polyclinic,Unknown,Unknown,Unknown,Unknown,Unknown,Unknown,doctors,hospital,Unknown,Unknown,Unknown,14.6767411,121.0052375
Mercury Drug,Unknown,Quirino Avenue,Parañaque,Unknown,Unknown,Unknown,pharmacy,pharmacy,Unknown,Unknown,Unknown,14.5305464,120.9968751
Pagamutang Bayan Ng Malabon,Unknown,Unknown,Unknown,Unknown,Unknown,Unknown,hospital,hospital,Unknown,Unknown,Unknown,14.6552043,120.9627243
Mercury Drug,Unknown,Senator Gil Puyat Avenue,Unknown,Unknown,Unknown,Unknown,pharmacy,Unknown,Unknown,Unknown,Unknown,14.5529213,120.9924312
Tanchoco Clinic,Unknown,Unknown,Unknown,Unknown,Unknown,Unknown,hospital,Unknown,Unknown,Unknown,Unknown,14.67563,120.943161
Our Lady Of Grace Hospital,Unknown,Unknown,Unknown,Unknown,Unknown,Unknown,hospital,hospital,Unknown,Unknown,Unknown,14.64872,120.981758
Rosario Specialist Clinic,Unknown,Unknown,Pasig,Unknown,Unknown,Unknown,clinic,clinic,Unknown,Unknown,Unknown,14.59005,121.084831
Sanctissimo Rosario General Hospital,Unknown,Unknown,Unknown,Unknown,Unknown,Unknown,hospital,Unknown,Unknown,Unknown,Unknown,14.6751115,120.9843523
Mercury Drug,Unknown,EDSA,Pasay,Unknown,Unknown,Unknown,pharmacy,pharmacy,Unknown,Unknown,24/7,14.538514,121.0110455
Mercury Drug,Unknown,Regidor Street,San Pablo,4000,Unknown,Unknown,pharmacy,pharmacy,+63 49 562 1579,Unknown,Mo-Su 08:00-20:00,14.0682755,121.3248061
Mercury Drug,Unknown,Quezon Boulevard,Manila,1001,Unknown,Unknown,pharmacy,pharmacy,Unknown,Unknown,Unknown,14.5979214,120.9837583
Mercury Drug,Unknown,José Rizal Avenue,San Pablo,4000,Unknown,Unknown,pharmacy,pharmacy,+63 49 536 2986; +63 960 576 0260,Unknown,24/7,14.0708863,121.3239553
Mercury Drug,Unknown,Tara Street,Masbate,Unknown,Unknown,Unknown,pharmacy,pharmacy,Unknown,Unknown,Unknown,12.3669108,123.621471
Belarmino Hospital,Unknown,Unknown,Unknown,Unknown,Unknown,Unknown,hospital,Unknown,Unknown,Unknown,Unknown,12.1930854,123.8582351
Dimasalang Main Health Center,Unknown,Unknown,Unknown,Unknown,Unknown,Unknown,doctors,doctor,Unknown,Unknown,Unknown,12.1923077,123.856684
Asklepios,Unknown,A. Flores Street,San Pablo,4000,Unknown,Unknown,pharmacy,pharmacy,Unknown,Unknown,Unknown,14.0688942,121.3255055
Ace Midtown,Unknown,Jose Burgos Street,San Pablo,4000,Unknown,Unknown,pharmacy,pharmacy,Unknown,Unknown,Unknown,14.0691789,121.3249511
Mercury Drug,Unknown,Unknown,Unknown,Unknown,Unknown,Unknown,pharmacy,pharmacy,Unknown,https://www.mercurydrug.com,Unknown,7.1153776,125.6529903
CGH Pharmacy,Unknown,Cipriano B. Colago Avenue,San Pablo,4000,Unknown,Unknown,pharmacy,pharmacy,Unknown,Unknown,Unknown,14.0729951,121.3132081
Amesco,Unknown,E. Quirino Avenue,Davao City,8000,Unknown,Unknown,pharmacy,pharmacy,Unknown,Unknown,Unknown,7.0703963,125.6051437
Mercury Drug,Unknown,Sampaguita,Makati,Unknown,Unknown,Unknown,pharmacy,pharmacy,Unknown,Unknown,24/7,14.5485412,121.0636418
Mercury Drug,Unknown,Unknown,Unknown,Unknown,Unknown,Unknown,pharmacy,pharmacy,Unknown,Unknown,Unknown,7.0674393,125.6109545
Mercury Drug,Unknown,Unknown,Marikina,Unknown,Unknown,Unknown,pharmacy,pharmacy,Unknown,Unknown,Unknown,14.6338678,121.0974124
Mercury Drug,Unknown,W. C. Paz,Marikina,1800,Unknown,Unknown,pharmacy,pharmacy,Unknown,Unknown,Unknown,14.6325782,121.0962448
South Star Drug,Unknown,Katipunan Avenue,Quezon City,1110,Unknown,Unknown,pharmacy,pharmacy,Unknown,Unknown,Unknown,14.6117937,121.0708307
San Marcelino District Hospital,Unknown,"Olongapo - Bugallon Rd,",Unknown,Unknown,Unknown,Unknown,hospital,Unknown,Unknown,Unknown,Unknown,14.9598564,120.1681459
Mercury Drug,Unknown,Manuel Quezon Avenue,Lucena,4301,Unknown,Unknown,pharmacy,pharmacy,Unknown,Unknown,Unknown,13.9369703,121.6132149
Carlos Superdrug,Unknown,Unknown,Unknown,Unknown,Unknown,Unknown,pharmacy,pharmacy,Unknown,Unknown,Unknown,13.9369692,121.6133791
Mercury Drug,Unknown,Quezon Avenue,Lucena,4301,Unknown,Unknown,pharmacy,Unknown,Unknown,Unknown,Unknown,13.9332487,121.6129016
Jesus the Saviour Hospital,Unknown,Unknown,Unknown,Unknown,Unknown,Unknown,hospital,Unknown,Unknown,Unknown,Unknown,14.2853056,121.4115081
Rose Pharmacy,Unknown,G. Y. Dela Serna Street,Lapu-lapu,Unknown,Unknown,Unknown,pharmacy,pharmacy,Unknown,Unknown,6:00-22:00,10.3101461,123.9498262
La Joela Pharmacy,Unknown,Unknown,Unknown,Unknown,Unknown,Unknown,pharmacy,pharmacy,Unknown,Unknown,Unknown,10.3261427,123.9524605
Rose Pharmacy,Unknown,M.C. Briones Street,Unknown,Unknown,Unknown,Unknown,pharmacy,pharmacy,Unknown,Unknown,24/7,10.332531,123.9364194
Mercury Drug,Unknown,San Francisco,Mandaluyong,1550,Unknown,Unknown,pharmacy,Unknown,+63 2 535 8019,Unknown,24/7,14.5765544,121.0331948
Mercury Drug,Unknown,General Luna Street,Unknown,Unknown,Unknown,Unknown,pharmacy,pharmacy,Unknown,Unknown,Unknown,14.6819089,121.1153007
Watsons,Unknown,P. Gomez Street,Lucena,4301,Unknown,Unknown,pharmacy,Unknown,Unknown,Unknown,24/7,13.9378298,121.6132589
Weng-Weng Pharmacy,Unknown,A. Soriano Avenue,Unknown,Unknown,Unknown,Unknown,pharmacy,Unknown,Unknown,Unknown,Unknown,10.3250276,123.9407102
Mercury Drug,Unknown,J.P. Laurel,Nasugbu,Unknown,Unknown,Unknown,pharmacy,pharmacy,Unknown,Unknown,Unknown,14.0711196,120.6325975
Mercury Drug,Unknown,Unknown,Unknown,Unknown,Unknown,Unknown,pharmacy,pharmacy,Unknown,Unknown,Unknown,10.309934,123.893984
Rose Pharmacy,Unknown,Unknown,Unknown,Unknown,Unknown,Unknown,pharmacy,Unknown,Unknown,Unknown,Unknown,10.3011691,123.9622257
LH Prime Medical Clinic,Unknown,Unknown,Unknown,Unknown,Unknown,Unknown,clinic,clinic,Unknown,Unknown,Unknown,10.3385699,123.9277883
Mercury Drug,Unknown,Pablo Ocampo Street,Unknown,Unknown,Unknown,Unknown,pharmacy,pharmacy,Unknown,Unknown,07:00-20:00,14.5669514,121.0118384
Mercury Drug,Unknown,Unknown,Unknown,Unknown,Unknown,Unknown,pharmacy,pharmacy,Unknown,Unknown,Unknown,7.0777718,125.6135258
Mercury Drug,Unknown,Unknown,Unknown,Unknown,Unknown,Unknown,pharmacy,pharmacy,Unknown,Unknown,Unknown,14.3462357,121.0633795
Rose Pharmacy,Unknown,M. Cuenco Avenue,Unknown,Unknown,Unknown,Unknown,pharmacy,pharmacy,Unknown,Unknown,Unknown,10.3387503,123.9117042
Mercury Drug,Unknown,Unknown,Unknown,Unknown,Unknown,Unknown,pharmacy,Unknown,Unknown,Unknown,Unknown,14.5481732,121.0010144
Mercury Drug,Unknown,Butuan – Cagayan de Oro – Iligan Road,Unknown,Unknown,Unknown,Unknown,pharmacy,pharmacy,Unknown,Unknown,Unknown,8.4743373,124.6856903
Mercury Drug,Unknown,Alabang-Zapote Road,Las Piñas,Unknown,Unknown,Unknown,pharmacy,Unknown,Unknown,Unknown,Unknown,14.4388433,121.0049223
Mercury Drug,Unknown,Aguirre Avenue,Parañaque,1700,Unknown,Unknown,pharmacy,pharmacy,Unknown,Unknown,Unknown,14.4564168,121.0076296
Mercury Drug,Unknown,Unknown,Muntinlupa,Unknown,Unknown,Unknown,pharmacy,pharmacy,Unknown,Unknown,Unknown,14.4227116,121.030061
Mercury Drug,Unknown,Aguirre Avenue,Parañaque,Unknown,Unknown,Unknown,pharmacy,pharmacy,Unknown,Unknown,Unknown,14.4448756,121.0277144
Mercury Drug,Unknown,San Pedro Street,Davao City,8000,Unknown,Unknown,pharmacy,pharmacy,Unknown,Unknown,24/7,7.0658082,125.6076608
Mercury Drug,Unknown,Unknown,Unknown,Unknown,Unknown,Unknown,pharmacy,Unknown,Unknown,Unknown,Unknown,7.0547213,125.545324
Health Center,Unknown,Unknown,Unknown,Unknown,Unknown,Unknown,clinic,Unknown,Unknown,Unknown,Unknown,10.485568,123.403897
Community Health Care,Unknown,Unknown,Unknown,Unknown,Unknown,Unknown,clinic,Unknown,Unknown,Unknown,Unknown,10.4800081,123.4218352
Health Center,Unknown,Unknown,Unknown,Unknown,Unknown,Unknown,clinic,Unknown,Unknown,Unknown,Unknown,10.437026,123.257043
Health Center,Unknown,Unknown,Unknown,Unknown,Unknown,Unknown,clinic,Unknown,Unknown,Unknown,Unknown,10.550372,123.408666
Health Center,Unknown,Unknown,Unknown,Unknown,Unknown,Unknown,clinic,Unknown,Unknown,Unknown,Unknown,10.4449812,123.4186806
Health Center,Unknown,Unknown,Unknown,Unknown,Unknown,Unknown,clinic,Unknown,Unknown,Unknown,Unknown,10.523262,123.394339
Mercury Drug,Unknown,Santa Rosa - Tagaytay Road,Santa Rosa,Unknown,Unknown,Unknown,pharmacy,Unknown,Unknown,Unknown,Unknown,14.2492847,121.0640342
TGP,Unknown,East Bank Road,Cainta,1900,Unknown,Unknown,pharmacy,pharmacy,Unknown,Unknown,Unknown,14.5695024,121.1064379
Babag Health Center,Unknown,Unknown,Unknown,Unknown,Unknown,Unknown,clinic,Unknown,Unknown,Unknown,Unknown,10.286527,123.944808
"NRMJ Quality Drug ,Inc.",Unknown,Unknown,Unknown,Unknown,Unknown,Unknown,pharmacy,pharmacy,Unknown,Unknown,Unknown,10.2979613,123.8849901
Watsons,Unknown,Unknown,Unknown,Unknown,Unknown,Unknown,pharmacy,pharmacy,Unknown,Unknown,Unknown,10.2983911,123.8953011
Visayas Community Medical Center,Unknown,Osmeña Boulevard,Cebu,6000,Unknown,Unknown,hospital,hospital,Unknown,Unknown,Unknown,10.3063546,123.8950452
Olga,Unknown,M. H. del Pilar Street,Marikina,Unknown,Unknown,Unknown,dentist,dentist,Unknown,Unknown,Unknown,14.6220895,121.092368
Pandatung Health Center,Unknown,Unknown,Unknown,Unknown,Unknown,Unknown,clinic,Unknown,Unknown,Unknown,Unknown,14.8246351,120.4690955
St Therese Hospital,Unknown,Unknown,San Nicolas,Unknown,Unknown,Unknown,hospital,hospital,Unknown,Unknown,Unknown,18.1428831,120.5840089
Santo Niño Hospital,Unknown,Unknown,Unknown,Unknown,Unknown,Unknown,hospital,Unknown,Unknown,Unknown,Unknown,17.37301,120.481009
Mercury Drug,Unknown,Unknown,Unknown,Unknown,Unknown,Unknown,pharmacy,pharmacy,Unknown,Unknown,Unknown,14.205891,121.1553374
Southstar Drug,Unknown,Unknown,Unknown,Unknown,Unknown,Unknown,pharmacy,pharmacy,Unknown,Unknown,Unknown,14.2063059,121.1547277
Mercury Drug,Unknown,Valero Street,Makati,1227,Unknown,Unknown,pharmacy,pharmacy,Unknown,Unknown,07:00-20:00,14.5587634,121.0241749
Mercury Drug,Unknown,Unknown,Unknown,Unknown,Unknown,Unknown,pharmacy,Unknown,Unknown,Unknown,Unknown,14.743931,120.9713343
Mercury Drug,Unknown,Dela Rosa Access Road 2,Makati,1229,Unknown,Unknown,pharmacy,pharmacy,Unknown,Unknown,Unknown,14.5564228,121.0199127
Amesco Drug,Unknown,San Pedro Street,Davao City,8000,Unknown,Unknown,pharmacy,pharmacy,Unknown,Unknown,Unknown,7.0662008,125.6071669
Save On,Unknown,C. Bangoy Street,Davao City,8000,Unknown,Unknown,pharmacy,pharmacy,Unknown,Unknown,Unknown,7.0682028,125.6096075
Generika,Unknown,A. Bonifacio Street,Davao City,8000,Unknown,Unknown,pharmacy,pharmacy,Unknown,Unknown,Unknown,7.0678557,125.6105518
South Star Drug,Unknown,Maharlika Highway,Unknown,Unknown,Unknown,Unknown,pharmacy,Unknown,Unknown,Unknown,Unknown,15.7931359,120.9911662
Mercury Drug,Unknown,Maharlika Highway,Unknown,Unknown,Unknown,Unknown,pharmacy,pharmacy,Unknown,Unknown,Unknown,15.7922539,120.9905578
Manson Drug,Unknown,A. Bonifacio Street,San Jose,3121,Unknown,Unknown,pharmacy,Unknown,Unknown,Unknown,Unknown,15.7923629,120.9899965
Mercury Drug,Unknown,Maharlika Highway,Unknown,Unknown,Unknown,Unknown,pharmacy,pharmacy,Unknown,Unknown,Unknown,15.7943314,120.9921465
Rose Pharmacy,Unknown,Unknown,Unknown,Unknown,Unknown,Unknown,pharmacy,pharmacy,Unknown,Unknown,Unknown,7.0691015,125.6016354
Mercury Drug,Unknown,Antonio S. Arnaiz Avenue,Makati,Unknown,Unknown,Unknown,pharmacy,pharmacy,Unknown,Unknown,Unknown,14.5510847,121.0205304
Mercury Drug,Unknown,Dela Rosa Street,Makati,1231,Unknown,Unknown,pharmacy,pharmacy,Unknown,Unknown,Unknown,14.5583748,121.012341
Mercury Drug,Unknown,Unknown,Unknown,Unknown,Unknown,Unknown,pharmacy,Unknown,Unknown,Unknown,Unknown,7.1055398,125.6000622
Mercury Drug,Unknown,L. P. Leviste Street,Makati,1227,Unknown,Unknown,pharmacy,pharmacy,Unknown,Unknown,07:00-20:00,14.5602045,121.0200093
Catalunan Grande Health Center,Unknown,Unknown,Davao City,8000,Unknown,Unknown,clinic,Unknown,Unknown,Unknown,Unknown,7.0809862,125.5430643
Mercury Drug,Unknown,MacArthur Highway,Tarlac,2300,Unknown,Unknown,pharmacy,pharmacy,Unknown,Unknown,Unknown,15.4870776,120.5961279
Mercury Drug,Unknown,Unknown,Unknown,Unknown,Unknown,Unknown,pharmacy,pharmacy,Unknown,Unknown,Unknown,7.069129,125.6016699
Southstar Drug,Unknown,MacArthur Highway,Unknown,Unknown,Unknown,Unknown,pharmacy,pharmacy,Unknown,Unknown,Unknown,14.9502964,120.7589359
Rose Pharmacy,Unknown,Unknown,Unknown,Unknown,Unknown,Unknown,pharmacy,pharmacy,Unknown,Unknown,24/7,7.097036,125.6190277
Botica Concepcion,Unknown,Unknown,Unknown,Unknown,Unknown,Unknown,pharmacy,pharmacy,Unknown,Unknown,Unknown,7.097529,125.620651
Mercury Drug,Unknown,Makati Avenue,Makati,1210,Unknown,Unknown,pharmacy,pharmacy,Unknown,Unknown,24/7,14.5651964,121.0296042
TGP,Unknown,Unknown,Unknown,Unknown,Unknown,Unknown,pharmacy,pharmacy,Unknown,Unknown,Unknown,14.5625166,121.0287235
Watsons,Unknown,Jupiter Street,Makati,Unknown,Unknown,Unknown,pharmacy,pharmacy,Unknown,Unknown,Unknown,14.5621262,121.0283667
Mercury Drug,Unknown,McKinley Parkway,Taguig,Unknown,Unknown,Unknown,pharmacy,pharmacy,Unknown,Unknown,Unknown,14.55083,121.0556388
Chong Hua Medical Mall,Unknown,J. Llorente Street,Cebu City,6000,Unknown,Unknown,clinic,clinic,Unknown,Unknown,Unknown,10.3099489,123.8892616
Mercury Drug,Unknown,MacArthur Highway,Unknown,Unknown,Unknown,Unknown,pharmacy,pharmacy,Unknown,Unknown,Unknown,15.0396913,120.680342
Fabula Pharmacy,Unknown,Diego Silang Avenue,Unknown,Unknown,Unknown,Unknown,pharmacy,pharmacy,Unknown,Unknown,Unknown,14.5256062,121.0428233
J. Santos Pharmacy,Unknown,Unknown,Unknown,Unknown,Unknown,Unknown,pharmacy,pharmacy,Unknown,Unknown,Unknown,14.9518906,120.7589272
Mercury Drug,Unknown,Unknown,Nagcarlan,4002,Unknown,Unknown,pharmacy,pharmacy,Unknown,Unknown,Unknown,14.1362697,121.4157572
Mercury Drug,Unknown,Rizal Avenue,Puerto Princesa,Unknown,Unknown,Unknown,pharmacy,pharmacy,Unknown,Unknown,Unknown,9.7405467,118.7368062
St. Anne Drug Store,Unknown,Unknown,Unknown,Unknown,Unknown,Unknown,pharmacy,pharmacy,Unknown,Unknown,Unknown,15.0440571,120.6740937
TGP,Unknown,Unknown,Unknown,Unknown,Unknown,Unknown,pharmacy,pharmacy,Unknown,Unknown,Unknown,10.2976659,123.8953114
TGP,Unknown,Cebu South Road,Unknown,6047,Unknown,Unknown,pharmacy,pharmacy,Unknown,Unknown,Mo-Su 06:00-22:00,10.245305,123.7982314
Mercury Drug,Unknown,Andres Bonifacio Street,San Pablo,4000,Unknown,Unknown,pharmacy,pharmacy,+63 49 5625030,Unknown,Unknown,14.0695781,121.32479
Generika Drugstore,Unknown,Lopez Avenue,Los Baños,4031,Unknown,Unknown,pharmacy,pharmacy,Unknown,Unknown,Unknown,14.1725362,121.2431612
Apung Tony,Unknown,Unknown,Unknown,Unknown,Unknown,Unknown,Unknown,alternative,Unknown,Unknown,Unknown,15.2731832,120.6580346
Cabantian Health center,Unknown,Unknown,Unknown,Unknown,Unknown,Unknown,clinic,Unknown,Unknown,Unknown,Unknown,7.1294711,125.6204542
Mercury Drug,Unknown,Unknown,Unknown,Unknown,Unknown,Unknown,pharmacy,Unknown,Unknown,Unknown,Unknown,14.5372905,121.0014182
Mercury Drug,Unknown,Short Horn Street,Unknown,Unknown,Unknown,Unknown,pharmacy,pharmacy,Unknown,Unknown,Mo-Su 07:00-22:00,14.6684002,121.0200764
Pharmax Drug Store,Unknown,Unknown,Unknown,Unknown,Unknown,Unknown,pharmacy,Unknown,Unknown,Unknown,Unknown,10.329973,123.943387
Mercury Drug,Unknown,Raxabago Street,Manila,Unknown,Unknown,Unknown,pharmacy,pharmacy,Unknown,Unknown,Unknown,14.6199093,120.976329
Mercury Drug,Unknown,Unknown,Unknown,Unknown,Unknown,Unknown,pharmacy,pharmacy,Unknown,Unknown,Unknown,15.0287999,120.6942076
Southstar Drug,Unknown,Unknown,Unknown,Unknown,Unknown,Unknown,pharmacy,pharmacy,Unknown,Unknown,Unknown,15.1452354,120.5956026
K2 Pharmacy,Unknown,Unknown,Unknown,Unknown,Unknown,Unknown,pharmacy,pharmacy,Unknown,Unknown,Unknown,15.1451234,120.5956407
Keir's,Unknown,Unknown,Unknown,Unknown,Unknown,Unknown,pharmacy,Unknown,Unknown,Unknown,Unknown,9.6931335,123.8634714
Mercury Drug,Unknown,MacArthur Highway,Unknown,Unknown,Unknown,Unknown,pharmacy,pharmacy,Unknown,Unknown,Unknown,15.0780595,120.6406958
Quezon Dog Bite and Cat Bite Treatment Center,Unknown,Cipriano B. Colago Avenue Extension,San Pablo,4000,Unknown,Unknown,doctors,doctor,Unknown,Unknown,Mo-Sa 08:00-15:00,14.0729139,121.3126946
Farmacia Fatima,Unknown,Taft Avenue,Manila,1000,Unknown,Unknown,pharmacy,Unknown,Unknown,Unknown,Unknown,14.5780032,120.9874612
AdCare,Unknown,Taft Avenue,Manila,1000,Unknown,Unknown,pharmacy,Unknown,Unknown,Unknown,Unknown,14.5778465,120.9875508
Generika Pharmacy,Unknown,Unknown,Unknown,Unknown,Unknown,Unknown,pharmacy,Unknown,Unknown,Unknown,Unknown,14.836052,121.077339
Klinika Tomasino,Unknown,Unknown,Unknown,Unknown,Unknown,Unknown,hospital,Unknown,Unknown,Unknown,Unknown,14.844028,121.093099
Botika ng Bayan,Unknown,Unknown,Unknown,Unknown,Unknown,Unknown,pharmacy,Unknown,Unknown,Unknown,Unknown,14.837539,121.08761
Grotto Drug,Unknown,Unknown,Unknown,Unknown,Unknown,Unknown,pharmacy,Unknown,Unknown,Unknown,Unknown,14.836197,121.077423
Mercury Drug,Unknown,Centennial Lane,Muntinlupa,1781,Unknown,Unknown,pharmacy,pharmacy,Unknown,Unknown,Unknown,14.4140393,121.043374
Obando Health Center,Unknown,J. P. Rizal Street,Unknown,Unknown,Unknown,Unknown,doctors,doctor,Unknown,Unknown,Unknown,14.7114641,120.9355203
Mercury Drug,Unknown,Unknown,Unknown,Unknown,Unknown,Unknown,pharmacy,Unknown,Unknown,Unknown,Unknown,14.6871413,120.957463
Farmacia ni Dok,Unknown,Unknown,Unknown,Unknown,Unknown,Unknown,pharmacy,Unknown,Unknown,Unknown,Unknown,14.7938533,120.879465
B A Hospital,Unknown,Unknown,Unknown,Unknown,Unknown,Unknown,hospital,Unknown,Unknown,Unknown,Unknown,14.7384585,120.9580669
Mercury Drug,Unknown,Aurora Boulevard,Quezon City,Unknown,Unknown,Unknown,pharmacy,pharmacy,Unknown,Unknown,Mo-Su 07:00-23:00,14.623899,121.055596
Mercury Drug,Unknown,MacArthur Highway,Unknown,Unknown,Unknown,Unknown,pharmacy,pharmacy,Unknown,Unknown,Unknown,14.6929733,120.9666214
TGP,Unknown,MacArthur Highway,Unknown,Unknown,Unknown,Unknown,pharmacy,pharmacy,Unknown,Unknown,Unknown,14.677244,120.9800779
Medcare Diagnostic Center,Unknown,Unknown,Unknown,Unknown,Unknown,Unknown,Unknown,laboratory,Unknown,Unknown,Unknown,14.6568811,120.9870083
Mercury Drug,Unknown,Unknown,Unknown,Unknown,Unknown,Unknown,pharmacy,pharmacy,Unknown,Unknown,Unknown,14.654759,121.0302322
Mercury Drug,Unknown,J. P. Rizal Avenue,Unknown,Unknown,Unknown,Unknown,pharmacy,pharmacy,Unknown,Unknown,Unknown,14.7288437,121.1442923
Abi Drug,Unknown,Unknown,Unknown,Unknown,Unknown,Unknown,pharmacy,pharmacy,Unknown,Unknown,Unknown,14.6927352,121.0299188
Mercury Drug,Unknown,Quirino Highway,Unknown,Unknown,Unknown,Unknown,pharmacy,pharmacy,Unknown,Unknown,Mo-Su 06:00-23:00,14.6932112,121.0304033
Ann Francis Mother & Child Hospital,Unknown,Quirino Highway,Unknown,Unknown,Unknown,Unknown,hospital,hospital,Unknown,Unknown,Unknown,14.6943711,121.0312571
Mercury Drug,Unknown,Unknown,Unknown,Unknown,Unknown,Unknown,pharmacy,pharmacy,Unknown,Unknown,Unknown,14.8191729,120.9051298
F M Cruz Ortopedic,Unknown,Unknown,Unknown,Unknown,Unknown,Unknown,hospital,hospital,Unknown,Unknown,Unknown,14.906521,120.8695972
Tawiran Public Clinic,Unknown,Tawiran Road,Unknown,Unknown,Unknown,Unknown,hospital,Unknown,Unknown,Unknown,Unknown,14.7445042,120.9110293
Mercury Drug,Unknown,MacArthur Highway,Unknown,Unknown,Unknown,Unknown,pharmacy,pharmacy,Unknown,Unknown,Unknown,14.6901891,120.9739928
Saint Joseph Drugstore,Unknown,Session Road,Baguio,2600,Unknown,Unknown,pharmacy,pharmacy,Unknown,Unknown,Unknown,16.4131413,120.5968787
Rizal Provincial Hospital,Unknown,T. Claudio Street,Unknown,Unknown,Unknown,Unknown,hospital,hospital,Unknown,Unknown,Unknown,14.5165631,121.2391653
T. M. Reyes Pharmacy,Unknown,J. P. Rizal,Marikina,Unknown,Unknown,Unknown,pharmacy,pharmacy,Unknown,Unknown,Unknown,14.6229157,121.0928435
Santos Clinic and Pharmacy,Unknown,Jose P. Rizal Street,Marikina,Unknown,Unknown,Unknown,pharmacy,pharmacy,Unknown,Unknown,Unknown,14.6345072,121.0946759
St. Isabel Polyclinic and Laboratory,Unknown,Jose P. Rizal Street,Marikina,Unknown,Unknown,Unknown,doctors,doctor,Unknown,Unknown,Unknown,14.6355093,121.0942779
CRJS Generics Pharmacy,Unknown,Jose P. Rizal Street,Marikina,Unknown,Unknown,Unknown,pharmacy,pharmacy,Unknown,Unknown,Unknown,14.6355585,121.0942891
Biliran Provincial Hospital,Unknown,Castin Street,Unknown,6560,Unknown,Unknown,hospital,Unknown,Unknown,Unknown,Unknown,11.5568373,124.3966029
Mercury Drug,Unknown,Unknown,Unknown,Unknown,Unknown,Unknown,pharmacy,pharmacy,Unknown,Unknown,Unknown,14.6351773,121.1023997
Watsons,Unknown,Unknown,Unknown,Unknown,Unknown,Unknown,pharmacy,clinic,Unknown,Unknown,Unknown,14.6357671,121.1012237
Unknown,Unknown,Unknown,Unknown,Unknown,Unknown,Unknown,pharmacy,Unknown,Unknown,Unknown,Unknown,14.5164385,121.2391706
John F. Cotton Corporate Wellness Center,Unknown,A. Montelibano Road,Pasig,1604,Unknown,Unknown,doctors,doctor,Unknown,Unknown,Unknown,14.5900136,121.0647938
Mercury Drug,Unknown,Unknown,Unknown,Unknown,Unknown,Unknown,pharmacy,pharmacy,Unknown,Unknown,Unknown,15.0320431,120.6892806
Mercury Drug,Unknown,Ayala Highway,Lipa,4217,Unknown,Unknown,pharmacy,pharmacy,Unknown,Unknown,Unknown,13.942342,121.1527537
Health Center,Unknown,Unknown,Unknown,Unknown,Unknown,Unknown,clinic,Unknown,Unknown,Unknown,Unknown,10.4621861,123.4399918
Mercury Drug,Unknown,Unknown,Unknown,Unknown,Unknown,Unknown,pharmacy,Unknown,Unknown,Unknown,Unknown,14.3984094,120.9766455
Mercury Drug,Unknown,Unknown,Unknown,Unknown,Unknown,Unknown,pharmacy,pharmacy,Unknown,Unknown,Unknown,14.8523239,120.8166706
Main Ave. Drugstore,Unknown,Main Avenue,Parañaque,1700,Unknown,Unknown,pharmacy,pharmacy,Unknown,Unknown,Mo-Su 08:00-21:00,14.5028565,121.0286656
South Star Drug,Unknown,Elias Angeles Street,Unknown,4400,Unknown,Unknown,pharmacy,Unknown,Unknown,Unknown,24/7,13.6240834,123.1855918
Mercury Drug,Unknown,Panganiban Drive,Naga,4400,Unknown,Unknown,pharmacy,pharmacy,Unknown,Unknown,Unknown,13.6232163,123.186007
Mercury Drug,Unknown,Elias Angeles Street,Unknown,Unknown,Unknown,Unknown,pharmacy,pharmacy,Unknown,Unknown,Unknown,13.6228487,123.1851868
Mercury Drug,Unknown,Magsaysay Avenue,Unknown,Unknown,Unknown,Unknown,pharmacy,pharmacy,Unknown,Unknown,Unknown,13.6323183,123.1961091
South Star,Unknown,Unknown,Unknown,Unknown,Unknown,Unknown,pharmacy,pharmacy,Unknown,Unknown,Unknown,13.6332925,123.1945106
"Commcare, Inc.",Unknown,Montclair,Parañaque,Unknown,Unknown,Unknown,hospital,Unknown,Unknown,Unknown,Unknown,14.501349,121.023788
Supreme Pharmacy,Unknown,Saint Hannibal,Parañaque,1700,Unknown,Unknown,pharmacy,Unknown,Unknown,Unknown,Unknown,14.5013537,121.0240915
Albasan Barangay Health Center,Unknown,Unknown,Unknown,Unknown,Unknown,Unknown,health_post,community_health_worker,Unknown,Unknown,Unknown,11.7271753,122.3370928
Mercury Drug,Unknown,CAA Avenue,Las Piñas,1740,Unknown,Unknown,pharmacy,Unknown,Unknown,Unknown,Unknown,14.4449152,120.9941399
San Jose Clinic,Unknown,Unknown,Unknown,Unknown,Unknown,Unknown,clinic,Unknown,Unknown,Unknown,Unknown,14.474295,120.9983457
Parmacia Sarayba,Unknown,Unknown,General Trias,Unknown,Unknown,Unknown,pharmacy,Unknown,Unknown,Unknown,Unknown,14.3860057,120.8797844
South Star,Unknown,Unknown,Unknown,Unknown,Unknown,Unknown,pharmacy,Unknown,Unknown,Unknown,Unknown,13.6213126,123.184277
Mercury Drug,Unknown,Olivarez Plaza,Parañaque,1700,Unknown,Unknown,pharmacy,Unknown,Unknown,Unknown,Unknown,14.4946045,120.9932492
Mercury Drug,Unknown,Angelina Canaynay Avenue,Parañaque,1700,Unknown,Unknown,pharmacy,pharmacy,Unknown,Unknown,Unknown,14.4746716,121.0008304
Mercury Drug,Unknown,Doctor A. Santos Avenue,Parañaque,1700,Unknown,Unknown,pharmacy,pharmacy,Unknown,Unknown,24/7,14.465861,121.0179451
Unknown,Unknown,Governor Luis Ferrer Avenue,General Trias,4107,Unknown,Unknown,pharmacy,Unknown,Unknown,Unknown,Unknown,14.3814953,120.8790218
Escuadro Clinic,Unknown,Unknown,General Trias,Unknown,Unknown,Unknown,clinic,Unknown,Unknown,Unknown,Unknown,14.3830698,120.8787383
Onifur Pharmacy,Unknown,A. Bonifacio,General Trias,4107,Unknown,Unknown,pharmacy,Unknown,Unknown,Unknown,Unknown,14.3816677,120.879008
Mercury Drug,Unknown,Aurora Boulevard,Unknown,Unknown,Unknown,Unknown,pharmacy,pharmacy,Unknown,Unknown,Mo-Su 07:00-22:00,14.6120301,121.0318998
Mercury Drug,Unknown,Unknown,Manila,Unknown,Unknown,Unknown,pharmacy,Unknown,Unknown,Unknown,Unknown,14.622933,120.9709347
Mercury Drug,Unknown,Alabang-Zapote Road,Las Piñas,Unknown,Unknown,Unknown,pharmacy,Unknown,Unknown,Unknown,24/7,14.4293456,121.0163003
TGP,Unknown,Unknown,Unknown,Unknown,Unknown,Unknown,pharmacy,pharmacy,Unknown,Unknown,Unknown,14.2922732,120.9112413
Southstar Drug,Unknown,Illustre Avenue,Lemery,Unknown,Unknown,Unknown,pharmacy,Unknown,Unknown,Unknown,Unknown,13.8798686,120.9160099
Mercury Drug,Unknown,Illustre Avenue,Lemery,Unknown,Unknown,Unknown,pharmacy,Unknown,Unknown,Unknown,Unknown,13.8799916,120.9162493
Contreras Medical Clinic and Hospital,Unknown,Unknown,Unknown,Unknown,Unknown,Unknown,hospital,Unknown,Unknown,Unknown,Unknown,14.4132944,120.8574984
Mace Drugstore,Unknown,A. Bonifacio,General Trias,4107,Unknown,Unknown,pharmacy,pharmacy,Unknown,Unknown,Unknown,14.3956767,120.8630846
TGP,Unknown,Antero Soriano Highway,General Trias,Unknown,Unknown,Unknown,pharmacy,pharmacy,Unknown,Unknown,Unknown,14.3958981,120.863354
Unknown,Unknown,Unknown,Unknown,Unknown,Unknown,Unknown,pharmacy,pharmacy,Unknown,Unknown,Unknown,14.3954488,120.860631
Laguna Health Services Cooperative,Unknown,Jose Burgos Street,San Pablo,4000,Unknown,Unknown,pharmacy,pharmacy,Unknown,Unknown,Unknown,14.069848,121.3239497
Unknown,Unknown,Jose Burgos Street,San Pablo,4000,Unknown,Unknown,pharmacy,pharmacy,Unknown,Unknown,Unknown,14.0696136,121.3239642
Salazar Hospital,Unknown,Unknown,Unknown,Unknown,Unknown,Unknown,hospital,Unknown,Unknown,Unknown,Unknown,13.8850442,120.9137511
All Doctors' Clinic,Unknown,Unknown,Unknown,Unknown,Unknown,Unknown,clinic,Unknown,Unknown,Unknown,Unknown,13.8814948,120.9149197
Botica Celerina,Unknown,Illustre Avenue,Lemery,Unknown,Unknown,Unknown,pharmacy,Unknown,Unknown,Unknown,Unknown,13.8815013,120.9151892
Cav-Medz Pharmacy,Unknown,"Governor Juanito R. Remulla, Sr. Road",General Trias,4107,Unknown,Unknown,pharmacy,Unknown,Unknown,Unknown,Unknown,14.2918918,120.9107691
Custodio Clinic,Unknown,Unknown,Unknown,Unknown,Unknown,Unknown,clinic,Unknown,Unknown,Unknown,Unknown,14.3834491,120.8791085
Cabagan Rural Health Unit,Unknown,Unknown,Unknown,Unknown,Unknown,Unknown,doctors,doctor,Unknown,Unknown,Unknown,17.42732,121.785232
TGP,Unknown,San Antonio Avenue,Parañaque,Unknown,Unknown,Unknown,pharmacy,pharmacy,Unknown,Unknown,Unknown,14.4667563,121.0206815
Watsons,Unknown,Unknown,Unknown,Unknown,Unknown,Unknown,pharmacy,pharmacy,Unknown,Unknown,Unknown,14.6215117,121.019319
Watsons,Unknown,Broadway Avenue,Unknown,Unknown,Unknown,Unknown,pharmacy,pharmacy,Unknown,Unknown,Unknown,14.6121426,121.0325028
TGP,Unknown,Aurora Boulevard,Unknown,Unknown,Unknown,Unknown,pharmacy,pharmacy,Unknown,Unknown,Unknown,14.6122037,121.0322508
Rose Pharmacy,Unknown,Pedro Acharon Boulevard,General Santos,9500,Unknown,PH,pharmacy,Unknown,Unknown,Unknown,Unknown,6.1074373,125.1774034
L.P. CAndelaria Pharmacy,Unknown,MacArthur Highway,Mabalacat City,2010,Unknown,Unknown,pharmacy,pharmacy,Unknown,Unknown,Unknown,15.2229161,120.5743489
Mercury Drug,Unknown,Taft Avenue,Manila,1000,Unknown,Unknown,pharmacy,pharmacy,Unknown,Unknown,Unknown,14.5797213,120.986511
Korea-Philippines Friendship Clinic,Unknown,Antero Soriano Highway,General Trias,4104,Unknown,Unknown,clinic,Unknown,+63 (46) 4377990,Unknown,Unknown,14.4077568,120.878607
Mabalacat District Hospital,Unknown,Unknown,Unknown,Unknown,Unknown,Unknown,hospital,hospital,Unknown,Unknown,Unknown,15.1924183,120.58039
Wambango Dental Clinic,Unknown,Gil Fernando Avenue,Marikina,Unknown,Unknown,Unknown,dentist,dentist,Unknown,Unknown,Unknown,14.6231447,121.1023207
TGP,Unknown,Lopez Avenue,Los Baños,4031,Unknown,Unknown,pharmacy,pharmacy,Unknown,Unknown,Unknown,14.1711361,121.2433252
Barangay Calumpang Health Center,Unknown,Unknown,Unknown,Unknown,Unknown,Unknown,clinic,clinic,Unknown,Unknown,Unknown,14.6218267,121.0932123
Southstar Drug,Unknown,Unknown,Unknown,Unknown,Unknown,Unknown,pharmacy,pharmacy,Unknown,Unknown,Unknown,15.1762755,120.5878558
Farmacia Dalawampu,Unknown,J.Y. Orosa Street,"bauan,batangas",4201,Unknown,Unknown,pharmacy,Unknown,Unknown,Unknown,Unknown,13.7918512,121.0094271
Grace Pharmacy,Unknown,Burgos street,Unknown,6100,Unknown,Unknown,pharmacy,Unknown,Unknown,Unknown,Unknown,10.6640132,122.967846
Mercury Drug,Unknown,Burgos Street,Bacolod,6100,Unknown,Unknown,pharmacy,pharmacy,Unknown,Unknown,Unknown,10.6714025,122.9513055
Pharmacia Caro,Unknown,Unknown,Unknown,Unknown,Unknown,Unknown,pharmacy,Unknown,Unknown,Unknown,Unknown,10.6719357,122.9515215
Grace Pharmacy,Unknown,Unknown,Unknown,Unknown,Unknown,Unknown,pharmacy,Unknown,Unknown,Unknown,Unknown,10.6694483,122.9558841
Sincere Drug Store,Unknown,Unknown,Unknown,Unknown,Unknown,Unknown,pharmacy,Unknown,Unknown,Unknown,Unknown,10.6671579,122.9460988
Grace Pharmacy,Unknown,Unknown,Unknown,Unknown,Unknown,Unknown,pharmacy,Unknown,Unknown,Unknown,Unknown,10.6955802,122.9608274
Sitio Baritan Health Center,Unknown,Unknown,"Dolores, Quezon",Unknown,Unknown,PH,clinic,Unknown,Unknown,Unknown,Unknown,13.9846728,121.3439969
Pinagdanlayan Barangay Health Center,Unknown,Unknown,Dolores,Unknown,Unknown,Unknown,health_post,yes,Unknown,Unknown,Unknown,14.0189017,121.4168369
La Botica,Unknown,Unknown,Unknown,Unknown,Unknown,Unknown,pharmacy,Unknown,Unknown,Unknown,Unknown,10.6793741,122.958898
Southstar Drug,Unknown,Unknown,Unknown,Unknown,Unknown,Unknown,pharmacy,pharmacy,Unknown,Unknown,Unknown,15.2007286,120.5810234
Fastmed,Unknown,Unknown,Unknown,Unknown,Unknown,Unknown,Unknown,laboratory,Unknown,Unknown,Unknown,15.1999055,120.5813413
Mercury Drug,Unknown,MacArthur Highway,Unknown,Unknown,Unknown,Unknown,pharmacy,pharmacy,Unknown,Unknown,Unknown,15.1812218,120.5861987
Generika,Unknown,Unknown,Unknown,Unknown,Unknown,Unknown,pharmacy,pharmacy,Unknown,Unknown,Unknown,14.6558098,121.0191061
Mercury Drug,Unknown,Roosevelt Avenue,Unknown,Unknown,Unknown,Unknown,pharmacy,pharmacy,Unknown,Unknown,Unknown,14.6400873,121.016508
Rose Pharmacy,Unknown,Unknown,Unknown,Unknown,Unknown,Unknown,pharmacy,Unknown,Unknown,Unknown,Unknown,14.6570647,121.0191798
Mercury Drug,Unknown,Carlos P. Garcia North Avenue,Unknown,6300,Unknown,Unknown,pharmacy,pharmacy,Unknown,Unknown,Unknown,9.6427681,123.8554564
Rose Pharmacy,Unknown,Carlos P. Garcia North Avenue,Unknown,6300,Unknown,Unknown,pharmacy,Unknown,Unknown,Unknown,Unknown,9.6428532,123.8556669
Unknown,Unknown,Unknown,Unknown,Unknown,Unknown,Unknown,clinic,Unknown,Unknown,Unknown,Unknown,9.5881697,123.8291107
Unknown,Unknown,Unknown,Unknown,Unknown,Unknown,Unknown,clinic,Unknown,Unknown,Unknown,Unknown,9.59322,123.846077
Kier's Pharmacy,Unknown,Unknown,Unknown,Unknown,Unknown,Unknown,pharmacy,Unknown,Unknown,Unknown,Unknown,9.6542621,123.8553236
Unknown,Unknown,Unknown,Unknown,Unknown,Unknown,Unknown,clinic,Unknown,Unknown,Unknown,Unknown,9.73925,123.90789
Unknown,Unknown,Unknown,Unknown,Unknown,Unknown,Unknown,clinic,Unknown,Unknown,Unknown,Unknown,9.719629,123.927437
Unknown,Unknown,Unknown,Unknown,Unknown,Unknown,Unknown,clinic,Unknown,Unknown,Unknown,Unknown,9.72071,123.978317
Unknown,Unknown,Unknown,Unknown,Unknown,Unknown,Unknown,clinic,Unknown,Unknown,Unknown,Unknown,9.74541,123.994606
Unknown,Unknown,Unknown,Unknown,Unknown,Unknown,Unknown,clinic,Unknown,Unknown,Unknown,Unknown,9.75603,123.971619
Unknown,Unknown,Unknown,Unknown,Unknown,Unknown,Unknown,clinic,Unknown,Unknown,Unknown,Unknown,9.79335,123.98877
Unknown,Unknown,Unknown,Unknown,Unknown,Unknown,Unknown,clinic,Unknown,Unknown,Unknown,Unknown,9.782269,124.037621
Unknown,Unknown,Unknown,Unknown,Unknown,Unknown,Unknown,clinic,Unknown,Unknown,Unknown,Unknown,9.79189,124.047676
Saint Catherine of Alexandria Medical Center,Unknown,Unknown,Unknown,Unknown,Unknown,Unknown,hospital,hospital,Unknown,Unknown,Unknown,15.1352338,120.5851673
Armando Garcia Hospital,Unknown,Rizal Street,Angeles,2009,Unknown,Unknown,hospital,hospital,(045) 322-0165,Unknown,Unknown,15.1422283,120.5892671
St. Joseph's Pharmacy,Unknown,Unknown,Unknown,Unknown,Unknown,Unknown,pharmacy,pharmacy,Unknown,Unknown,Unknown,16.4460489,120.5910554
Mercury Drug,Unknown,J. P. Rizal,Pagsanjan,4008,Unknown,Unknown,pharmacy,Unknown,Unknown,Unknown,Unknown,14.2729151,121.4552575
Go Ang Sam Anzures EENT Clinic,Unknown,Marciano Brion Street,San Pablo,4000,Unknown,Unknown,clinic,Unknown,Unknown,Unknown,Unknown,14.0713581,121.3260909
Barangka Health Center,Unknown,Unknown,Unknown,Unknown,Unknown,Unknown,clinic,Unknown,Unknown,Unknown,Unknown,14.6330533,121.0823397
Mercury Drugstore,Unknown,Imelda Avenue,Cainta,1900,Unknown,Unknown,pharmacy,pharmacy,Unknown,Unknown,Unknown,14.6191796,121.102079
Grace Pharmacy,Unknown,Unknown,Unknown,Unknown,Unknown,Unknown,pharmacy,Unknown,Unknown,Unknown,Unknown,10.6820607,122.9580836
Unknown,Unknown,Holy Rosary Street,San Pablo,4000,Unknown,Unknown,clinic,clinic,Unknown,Unknown,Unknown,14.0739114,121.3216737
Dalisay Optical,Unknown,Andres Bonifacio Street,San Pablo,4000,Unknown,Unknown,doctors,doctor,Unknown,Unknown,Unknown,14.0687989,121.3242713
Gelron Pharmacy,Unknown,Apolinario Mabini Street,San Pablo,4000,Unknown,Unknown,pharmacy,pharmacy,Unknown,Unknown,Unknown,14.0726965,121.3241887
Grace Pharmacy,Unknown,Unknown,Unknown,Unknown,Unknown,Unknown,pharmacy,Unknown,Unknown,Unknown,Unknown,10.6688316,122.9455327
Mercury Drug,Unknown,Retail Row,Pasig,Unknown,Unknown,Unknown,pharmacy,pharmacy,Unknown,Unknown,Unknown,14.5871613,121.0782258
Fun Ranch Clinic,Unknown,Unknown,Pasig,Unknown,Unknown,Unknown,clinic,clinic,Unknown,Unknown,Unknown,14.5880686,121.0782776
TGP,Unknown,Marcos Highway,Unknown,Unknown,Unknown,Unknown,pharmacy,pharmacy,Unknown,Unknown,Unknown,14.618455,121.092173
Tata Roque Generic Drugstore,Unknown,Unknown,Pasig,Unknown,Unknown,Unknown,pharmacy,pharmacy,Unknown,Unknown,Unknown,14.621681,121.092612
Clinica Kabuhat Obispado Medical Clinic,Unknown,Gil Fernando Avenue,Marikina,Unknown,Unknown,Unknown,dentist,dentist,Unknown,Unknown,Unknown,14.6211606,121.1020949
Ortho Dental Care Clinic,Unknown,Unknown,Unknown,Unknown,Unknown,Unknown,dentist,dentist,Unknown,Unknown,Unknown,14.6206216,121.1004393
Buenviaje Dental Clinic,Unknown,Unknown,Cainta,1900,Unknown,Unknown,dentist,dentist,Unknown,Unknown,Unknown,14.620596,121.102616
Eastern Marikina Dialysis Center,Unknown,Unknown,Cainta,1900,Unknown,Unknown,clinic,clinic,Unknown,Unknown,Unknown,14.6207083,121.1032412
Dr Loreta Panaligan Dental Clinic,Unknown,Unknown,Cainta,1900,Unknown,Unknown,dentist,dentist,Unknown,Unknown,Unknown,14.6212538,121.1061775
Kidney Clinic - Dr De Guzman,Unknown,Unknown,Unknown,Unknown,Unknown,Unknown,clinic,clinic,Unknown,Unknown,Unknown,14.627507,121.097097
Dr. Elmer Santos Pediatrician Clinic,Unknown,Unknown,Unknown,Unknown,Unknown,Unknown,clinic,clinic,Unknown,Unknown,Unknown,14.6289383,121.096816
Santos Dental Clinic,Unknown,Jose P. Rizal Street,Marikina,Unknown,Unknown,Unknown,dentist,dentist,Unknown,Unknown,Unknown,14.6344207,121.0947621
DNJ Pharmacy & General Merchandise,Unknown,Unknown,Unknown,Unknown,Unknown,Unknown,pharmacy,pharmacy,Unknown,Unknown,Unknown,14.6244737,121.1186775
Lirios Dental Clinic,Unknown,Unknown,Unknown,Unknown,Unknown,Unknown,dentist,dentist,Unknown,Unknown,Unknown,14.62485,121.122712
Dental Cliinic: Dr Marilou Perez,Unknown,Unknown,Unknown,Unknown,Unknown,Unknown,dentist,dentist,Unknown,Unknown,Unknown,14.6255634,121.1234533
Mercury Drug,Unknown,Alabang-Zapote Road,Las Piñas,Unknown,Unknown,Unknown,pharmacy,Unknown,Unknown,Unknown,24/7,14.4371334,121.0060326
Cuenca Medicaire,Unknown,Unknown,Unknown,Unknown,Unknown,Unknown,hospital,Unknown,Unknown,Unknown,Unknown,13.9009045,121.0535723
Clinica Tenorio,Unknown,Unknown,Unknown,Unknown,Unknown,Unknown,clinic,Unknown,Unknown,Unknown,Unknown,13.8805308,120.9223109
Clinica Dr. Lindo,Unknown,Unknown,Unknown,Unknown,Unknown,Unknown,clinic,Unknown,Unknown,Unknown,Unknown,13.8784997,120.9173006
BOIE Drug,Unknown,Alabang-Zapote Road,Las Piñas,Unknown,Unknown,Unknown,pharmacy,Unknown,Unknown,Unknown,Unknown,14.4305577,121.0152164
Mercury Drug,Unknown,P. Hernaez Street,Bacolod,6100,Unknown,Unknown,pharmacy,pharmacy,Unknown,Unknown,Unknown,10.6607554,122.9492278
The Generic Pharmacy,Unknown,Unknown,Unknown,Unknown,Unknown,Unknown,pharmacy,Unknown,Unknown,Unknown,Unknown,14.4932481,121.1804581
Zigzag Hospital,Unknown,Unknown,Unknown,Unknown,Unknown,Unknown,hospital,hospital,Unknown,Unknown,Unknown,13.7558099,120.9454306
AC,Unknown,Unknown,Unknown,Unknown,Unknown,Unknown,pharmacy,Unknown,Unknown,Unknown,Unknown,9.6485524,123.8552596
Sincere Drug,Unknown,Unknown,Unknown,Unknown,Unknown,Unknown,pharmacy,Unknown,Unknown,Unknown,Unknown,10.6602333,122.9505641
Unknown,Unknown,Unknown,Unknown,Unknown,Unknown,Unknown,pharmacy,Unknown,Unknown,Unknown,Unknown,14.5162931,121.2391706
Mercury Drugstore,Unknown,Unknown,Unknown,Unknown,Unknown,Unknown,pharmacy,Unknown,Unknown,Unknown,Unknown,14.6700103,120.9703697
Paz Pharmacy,Unknown,Unknown,Unknown,Unknown,Unknown,Unknown,pharmacy,Unknown,Unknown,Unknown,Unknown,9.6449133,123.853366
Binangonan Pharmacy,Unknown,Unknown,Unknown,Unknown,Unknown,Unknown,pharmacy,Unknown,Unknown,Unknown,Unknown,14.511993,121.1657395
Mercury Drug,Unknown,Rizal Avenue,Unknown,Unknown,Unknown,Unknown,pharmacy,pharmacy,Unknown,Unknown,Unknown,16.61693,120.3154981
TGP,Unknown,Doña Paca,Unknown,Unknown,Unknown,Unknown,pharmacy,pharmacy,Unknown,Unknown,Unknown,16.6170318,120.3137064
Mercury Drug,Unknown,P. Burgos,Unknown,Unknown,Unknown,Unknown,pharmacy,pharmacy,Unknown,Unknown,Unknown,16.6182855,120.316322
South Star Drug,Unknown,C. V. Starr Avenue,Las Piñas,Unknown,Unknown,Unknown,pharmacy,pharmacy,Unknown,Unknown,Unknown,14.4504048,120.9790726
Nephro Plus Dialysis Center,Unknown,Marciano Brion Street,San Pablo,4000,Unknown,Unknown,clinic,Unknown,Unknown,Unknown,Unknown,14.0719185,121.3261125
Mercury Drug,Unknown,Ortigas Avenue,Pasig,Unknown,Unknown,Unknown,pharmacy,pharmacy,+632 634 1728; +632 634 5887,Unknown,24/7,14.5892302,121.0689241
Farmacia Eva,Unknown,Unknown,Unknown,Unknown,Unknown,Unknown,pharmacy,pharmacy,Unknown,Unknown,Unknown,7.1931347,125.6481312
St. Patrick Pharmacy,Unknown,Unknown,Unknown,Unknown,Unknown,Unknown,pharmacy,Unknown,Unknown,Unknown,Unknown,7.1936334,125.6480679
Mercury Drug,Unknown,General B. G. Molina Street,Marikina,1810,Unknown,Unknown,pharmacy,pharmacy,Unknown,Unknown,Unknown,14.6595504,121.1135963
Saint Anthony's Drug III,Unknown,Unknown,Unknown,Unknown,Unknown,Unknown,pharmacy,pharmacy,Unknown,Unknown,Unknown,15.0759504,120.6425346
Tokyo Health Clinic Alabang,Unknown,Madrigal Avenue,Muntinlupa,Unknown,Unknown,Unknown,Unknown,clinic,Unknown,Unknown,Unknown,14.4242479,121.0272184
Mercury Drug,Unknown,V. Luna Avenue,Unknown,Unknown,Unknown,Unknown,pharmacy,pharmacy,Unknown,Unknown,Unknown,14.6375726,121.0474187
Rose Pharmacy,Unknown,M. C. Briones Street,Mandaue,6014,Unknown,Unknown,pharmacy,pharmacy,Unknown,Unknown,Unknown,10.3621282,123.9496256
Rose Pharmacy,Unknown,Cebu North Road,Unknown,6001,Unknown,Unknown,pharmacy,Unknown,Unknown,Unknown,Unknown,10.3729657,123.9547961
2003 Pharmacy,Unknown,Jose Catolico Sr. Avenue,General Santos,9500,Unknown,PH,pharmacy,Unknown,Unknown,Unknown,Unknown,6.1277941,125.1960241
Amji Drugstore,Unknown,Unknown,Unknown,Unknown,Unknown,Unknown,pharmacy,pharmacy,Unknown,Unknown,Unknown,14.1377364,121.1355621
Fast Laboratories,Unknown,Maharlika Highway,Calamba,4027,Unknown,Unknown,clinic,clinic,+63 49 5844577,Unknown,Unknown,14.1550594,121.1371558
James Ann Pharmacy,Unknown,Unknown,Unknown,Unknown,Unknown,Unknown,pharmacy,Unknown,Unknown,Unknown,Unknown,6.3735609,124.7484618
Ilaya del Norte Health Center,Unknown,Unknown,Unknown,Unknown,Unknown,Unknown,clinic,clinic,Unknown,Unknown,Unknown,14.3643098,121.4840717
Lulu Dental Clinic,Unknown,Unknown,Unknown,Unknown,Unknown,Unknown,pharmacy,Unknown,Unknown,Unknown,Unknown,14.3646642,121.4842649
J. Ramos Drug Testing Center,Unknown,Unknown,Unknown,Unknown,Unknown,Unknown,clinic,Unknown,Unknown,Unknown,Unknown,13.7641025,121.0629489
"Marius N. Moran, MD",Unknown,Lopez Avenue,Los Baños,4031,Unknown,Unknown,doctors,clinic,Unknown,Unknown,Mo-Fr 18:00-20:00; Sa 08:00-12:00; Su off,14.1722607,121.2433609
Dr. Rhoda Billate,Unknown,Lopez Avenue,Los Baños,4030,Unknown,Unknown,doctors,clinic,Unknown,Unknown,Mo-Sa 09:00-17:00,14.1766967,121.2427987
Mercury Drug,Unknown,Montillano,Muntinlupa,Unknown,Unknown,Unknown,pharmacy,pharmacy,Unknown,Unknown,24/7,14.4190525,121.044791
TGP,Unknown,Jose Abad Santos Avenue,Unknown,Unknown,Unknown,Unknown,pharmacy,pharmacy,Unknown,Unknown,Unknown,15.0394879,120.6808152
TGP,Unknown,Unknown,Unknown,Unknown,Unknown,Unknown,pharmacy,pharmacy,Unknown,Unknown,Unknown,14.7440047,120.9714198
Iba-Tunas Center,Unknown,Unknown,Unknown,Unknown,Unknown,Unknown,clinic,Unknown,Unknown,Unknown,Unknown,14.7531765,120.9773609
Quebiawan Health Center,Unknown,Unknown,Unknown,Unknown,Unknown,Unknown,clinic,clinic,Unknown,Unknown,Unknown,15.0540581,120.6663451
Tablas Doctors Hospital,Unknown,N. Aquino Street,Odiongan,5505,Unknown,Unknown,hospital,hospital,Unknown,Unknown,Unknown,12.3991874,121.9838778
Mercury Drug,Unknown,Unknown,Odiongan,Unknown,Unknown,Unknown,pharmacy,Unknown,Unknown,Unknown,Su-Sa 07:00-21:00,12.3990499,121.9818166
Isiah Multi Specialty Clinic & Diagnostic Laboratory,Unknown,Unknown,Odiongan,Unknown,Unknown,Unknown,Unknown,laboratory,Unknown,Unknown,Unknown,12.3992777,121.9835895
Mercury Drug,Unknown,Maharlika Highway,San Pablo,4000,Unknown,Unknown,pharmacy,pharmacy,+63 49 562 8002,Unknown,Mo-Su 06:00-22:00,14.0646559,121.3229
Southstar Drug,Unknown,Domingo M. Guevara Road,Mandaluyong,Unknown,Unknown,Unknown,pharmacy,pharmacy,Unknown,Unknown,Unknown,14.5793623,121.046136
Metro Lipa Medical Center,Unknown,Unknown,Unknown,Unknown,Unknown,Unknown,hospital,hospital,Unknown,Unknown,Unknown,13.968376,121.1664694
Unknown,Unknown,Unknown,Unknown,Unknown,Unknown,Unknown,pharmacy,pharmacy,Unknown,Unknown,Unknown,15.0958443,120.6245178
TGP,Unknown,Unknown,Unknown,Unknown,Unknown,Unknown,pharmacy,pharmacy,Unknown,Unknown,Unknown,14.3639318,121.4836129
Generica Drugstore,Unknown,Unknown,Unknown,Unknown,Unknown,Unknown,pharmacy,pharmacy,Unknown,Unknown,Unknown,14.9630412,120.6346098
Mercury Drug,Unknown,Panganiban Bridge,Unknown,Unknown,Unknown,Unknown,pharmacy,pharmacy,Unknown,Unknown,Unknown,13.6214422,123.1992995
Garcia Dental Clinic,Unknown,Unknown,Unknown,Unknown,Unknown,Unknown,pharmacy,Unknown,Unknown,Unknown,Unknown,14.967805,120.6218592
Espiritu Clinic,Unknown,Unknown,Unknown,Unknown,Unknown,Unknown,hospital,Unknown,Unknown,Unknown,Unknown,15.0548211,120.6611785
Mercury Drug,Unknown,Unknown,Unknown,Unknown,Unknown,Unknown,pharmacy,pharmacy,Unknown,Unknown,Unknown,13.6227284,123.1838635
Cataniag Pharmacy,Unknown,Jose Corazon de Jesus Street,Unknown,Unknown,Unknown,Unknown,pharmacy,pharmacy,Unknown,Unknown,Unknown,14.8184587,120.9607018
D' Medicine Centre,Unknown,Unknown,Unknown,Unknown,Unknown,Unknown,pharmacy,Unknown,Unknown,Unknown,Unknown,14.8607766,120.8066697
EENT Hospital,Unknown,Unknown,Unknown,Unknown,Unknown,Unknown,hospital,Unknown,Unknown,Unknown,Unknown,14.8500309,120.8226957
Santos Clinic,Unknown,Unknown,Unknown,Unknown,Unknown,Unknown,hospital,Unknown,Unknown,Unknown,Unknown,14.851879,120.8190497
Southstar Drug,Unknown,Santo Rosario Street,Unknown,Unknown,Unknown,Unknown,pharmacy,pharmacy,Unknown,Unknown,Unknown,15.1337372,120.5918428
Malolos Regional Health Unit 1,Unknown,Unknown,Unknown,Unknown,Unknown,Unknown,doctors,doctor,Unknown,Unknown,Unknown,14.8383916,120.8135951
TGP,Unknown,Unknown,Unknown,Unknown,Unknown,Unknown,pharmacy,pharmacy,Unknown,Unknown,Unknown,15.101089,120.6200293
Saint Anthony's Drug II,Unknown,Unknown,Unknown,Unknown,Unknown,Unknown,pharmacy,pharmacy,Unknown,Unknown,Unknown,15.0295225,120.6921433
Mercury Drug,Unknown,Aguinaldo Highway,Bacoor,4102,Unknown,Unknown,pharmacy,Unknown,Unknown,Unknown,Unknown,14.4622058,120.9629356
Pantinople Medical Clinic & Hospital,Unknown,Unknown,Unknown,Unknown,Unknown,Unknown,hospital,hospital,Unknown,Unknown,Unknown,9.8833316,123.6023632
S Pharmacy,Unknown,Unknown,Unknown,Unknown,Unknown,Unknown,pharmacy,Unknown,Unknown,Unknown,Unknown,9.8814608,123.6052949
Mabini Barangay Health Station,Unknown,San Juan,Unknown,Unknown,Unknown,Unknown,health_post,yes,Unknown,Unknown,Unknown,11.5668645,124.2725595
Manson Drug,Unknown,Unknown,Unknown,Unknown,Unknown,Unknown,pharmacy,pharmacy,Unknown,Unknown,Unknown,15.1379231,120.5889024
Mercury Drug,Unknown,Unknown,Unknown,Unknown,Unknown,Unknown,pharmacy,pharmacy,Unknown,Unknown,Unknown,15.1385889,120.5876442
Luz Pharmacy,Unknown,Unknown,Unknown,Unknown,Unknown,Unknown,pharmacy,Unknown,Unknown,Unknown,Unknown,11.0079613,124.6072761
Mercury Drug,Unknown,Burgos Street,Unknown,Unknown,Unknown,Unknown,pharmacy,pharmacy,Unknown,Unknown,Unknown,11.0050848,124.6081169
Serv-Well Drug,Unknown,Unknown,Unknown,Unknown,Unknown,Unknown,pharmacy,Unknown,Unknown,Unknown,Unknown,11.005317,124.607185
Serv-Well,Unknown,Unknown,Unknown,Unknown,Unknown,Unknown,pharmacy,Unknown,Unknown,Unknown,Unknown,11.0072866,124.6080376
Mercury Drug,Unknown,Unknown,Unknown,Unknown,Unknown,Unknown,pharmacy,Unknown,Unknown,Unknown,Unknown,11.0080579,124.6073303
Luz Pharmacy,Unknown,Unknown,Unknown,Unknown,Unknown,Unknown,pharmacy,Unknown,Unknown,Unknown,Unknown,11.0056614,124.6075966
South Star Drug,Unknown,Unknown,Unknown,Unknown,Unknown,Unknown,pharmacy,pharmacy,Unknown,Unknown,Unknown,13.7662135,121.0654598
Ultimart Drugstore,Unknown,Unknown,Unknown,Unknown,Unknown,Unknown,pharmacy,pharmacy,Unknown,Unknown,Unknown,14.0672029,121.3266752
Tugon Medical Clinic and Hospital,Unknown,Unknown,Unknown,Unknown,Unknown,Unknown,hospital,Unknown,Unknown,Unknown,Unknown,11.7185927,122.0934072
Community Hospital Sebaste,Unknown,Unknown,Unknown,Unknown,Unknown,Unknown,hospital,Unknown,Unknown,Unknown,Unknown,11.5880416,122.0947025
Unknown,Unknown,Silverio Cadiao Street,Unknown,Unknown,Unknown,Unknown,pharmacy,Unknown,Unknown,Unknown,Unknown,11.4254034,122.0549711
Unknown,Unknown,Silverio Cadiao Street,Unknown,Unknown,Unknown,Unknown,pharmacy,Unknown,Unknown,Unknown,Unknown,11.4255606,122.0550601
Perea's Pharmacy,Unknown,Unknown,Unknown,Unknown,Unknown,Unknown,pharmacy,Unknown,Unknown,Unknown,Unknown,14.1311053,120.9057711
TGP,Unknown,Mendez - Tagaytay Road,Unknown,Unknown,Unknown,Unknown,pharmacy,pharmacy,Unknown,Unknown,Unknown,14.1298203,120.9048538
TGP,Unknown,Unknown,Unknown,Unknown,Unknown,Unknown,pharmacy,pharmacy,Unknown,Unknown,Unknown,14.2227819,120.9719432
South Star Drug,Unknown,J. P. Rizal,Unknown,Unknown,Unknown,Unknown,pharmacy,pharmacy,Unknown,Unknown,Unknown,14.2230585,120.9738476
Mercury Drug,Unknown,J. P. Rizal,Unknown,Unknown,Unknown,Unknown,pharmacy,pharmacy,Unknown,Unknown,Unknown,14.2231781,120.9738529
Mercury Drug,Unknown,Wilson Street,Unknown,Unknown,Unknown,Unknown,pharmacy,Unknown,Unknown,Unknown,06:00-23:00,14.5975156,121.040497
Manson Drug,Unknown,Unknown,Unknown,Unknown,Unknown,Unknown,pharmacy,pharmacy,Unknown,Unknown,Unknown,15.1404536,120.58781
Mercury Drug,Unknown,Quezon Avenue,San Fernando,Unknown,Unknown,Unknown,pharmacy,pharmacy,Unknown,Unknown,24/7,16.617713,120.3172664
Indang Rural Health Unit,Unknown,Unknown,Unknown,Unknown,Unknown,Unknown,doctors,doctor,Unknown,Unknown,Unknown,14.2002534,120.8734113
Mercury Drug,Unknown,MacArthur Highway,Paniqui,2307,Unknown,Unknown,pharmacy,pharmacy,Unknown,Unknown,Unknown,15.672351,120.5852352
Mercury Drug,Unknown,Pres. Diosdado Macapagal Boulevard,Parañaque,Unknown,Unknown,Unknown,pharmacy,Unknown,Unknown,Unknown,24/7,14.5295499,120.989308
Herbal Pharmacy,Unknown,Unknown,Unknown,Unknown,Unknown,Unknown,pharmacy,pharmacy,Unknown,Unknown,Unknown,14.6649184,121.073902
TGP,Unknown,Unknown,Unknown,Unknown,Unknown,Unknown,pharmacy,pharmacy,Unknown,Unknown,Unknown,14.2870897,120.7154474
C P Rosanes Drug Store,Unknown,Unknown,Unknown,Unknown,Unknown,Unknown,pharmacy,Unknown,Unknown,Unknown,Unknown,14.286387,120.716399
Zamora Pharmacy,Unknown,Unknown,Unknown,Unknown,Unknown,Unknown,pharmacy,Unknown,Unknown,Unknown,Unknown,14.8091328,121.0577964
Rural Health Unit,Unknown,Unknown,Magallanes,Unknown,Unknown,Unknown,doctors,doctor,Unknown,Unknown,Unknown,14.1777592,120.7406693
Unknown,Unknown,Unknown,Unknown,Unknown,Unknown,Unknown,pharmacy,Unknown,Unknown,Unknown,Unknown,9.5350863,125.5584394
Silang Doctors Hospital,Unknown,Unknown,Unknown,Unknown,Unknown,Unknown,hospital,Unknown,Unknown,Unknown,Unknown,14.2279789,120.973772
Silang Drug,Unknown,Unknown,Unknown,Unknown,Unknown,Unknown,pharmacy,Unknown,Unknown,Unknown,Unknown,14.2235564,120.9717469
General Mariano Alvarez Rural Health Unit,Unknown,Unknown,Unknown,Unknown,Unknown,Unknown,doctors,doctor,Unknown,Unknown,Unknown,14.3049134,121.0128113
TGP,Unknown,Congressional Road,Unknown,Unknown,Unknown,Unknown,pharmacy,pharmacy,Unknown,Unknown,Unknown,14.3072132,121.0144597
Botika ng Barangay,Unknown,Unknown,Unknown,Unknown,Unknown,Unknown,pharmacy,Unknown,Unknown,Unknown,Unknown,14.3001484,121.0055671
Farmacia Golfo,Unknown,Unknown,Unknown,Unknown,Unknown,Unknown,pharmacy,Unknown,Unknown,Unknown,Unknown,14.1826074,120.7963548
TGP,Unknown,V. Luna Road,Unknown,Unknown,Unknown,Unknown,pharmacy,pharmacy,Unknown,Unknown,Unknown,14.6367272,121.0525647
Mercury Drug,Unknown,Mabini Avenue,Tanauan,4232,Unknown,Unknown,pharmacy,Unknown,Unknown,Unknown,Unknown,14.0844455,121.1496012
TGP,Unknown,Unknown,Manila,Unknown,Unknown,Unknown,pharmacy,pharmacy,Unknown,Unknown,Unknown,14.6145258,120.9628511
Mercury Drug,Unknown,Dr. Eduardo Roquero Avenue,Unknown,Unknown,Unknown,Unknown,pharmacy,pharmacy,Unknown,Unknown,Unknown,14.8573694,121.0554591
Cetric Drug,Unknown,Dr. Eduardo Roquero Avenue,Unknown,Unknown,Unknown,Unknown,pharmacy,Unknown,Unknown,Unknown,Unknown,14.8572107,121.0555844
Generika,Unknown,Dr. Eduardo Roquero Avenue,Unknown,Unknown,Unknown,Unknown,pharmacy,pharmacy,Unknown,Unknown,Unknown,14.8574313,121.0548139
TGP,Unknown,Unknown,Cainta,1900,Unknown,Unknown,pharmacy,Unknown,Unknown,Unknown,Unknown,14.6357828,121.1087464
Unknown,Unknown,Unknown,Cainta,1900,Unknown,Unknown,hospital,Unknown,Unknown,Unknown,Unknown,14.635583,121.10983
TGP,Unknown,Unknown,Cainta,1900,Unknown,Unknown,pharmacy,Unknown,Unknown,Unknown,Unknown,14.635557,121.1096375
San Isidro Health Center,Unknown,Unknown,Unknown,1900,Unknown,Unknown,clinic,Unknown,Unknown,Unknown,Unknown,14.6361253,121.1090576
South Star Drug,Unknown,Protacio,Pasay City,Unknown,Unknown,Unknown,pharmacy,pharmacy,Unknown,Unknown,Unknown,14.5431213,121.0060101
United Pharmacy,Unknown,Unknown,Unknown,Unknown,Unknown,Unknown,pharmacy,Unknown,Unknown,Unknown,Unknown,14.548023,121.0021262
Mercury Drug,Unknown,Unknown,Unknown,Unknown,Unknown,Unknown,pharmacy,Unknown,Unknown,Unknown,Unknown,14.5465154,120.9990697
Mercury Drug,Unknown,Taft Avenue,Unknown,Unknown,Unknown,Unknown,pharmacy,pharmacy,Unknown,Unknown,Unknown,14.5474578,120.9983723
San Fernando City Health Center,Unknown,Consunji,Unknown,Unknown,Unknown,Unknown,doctors,doctor,Unknown,Unknown,Unknown,15.0281017,120.6939852
Four Ank Drug & Convenience Store,Unknown,Unknown,Unknown,Unknown,Unknown,Unknown,pharmacy,pharmacy,Unknown,Unknown,Unknown,15.1482101,120.5896932
Calaguas Pharmacy,Unknown,Unknown,Unknown,Unknown,Unknown,Unknown,pharmacy,pharmacy,Unknown,Unknown,Unknown,15.1524858,120.5924049
Mercury Drug,Unknown,Evangelista Street,Makati,1233,Unknown,Unknown,pharmacy,pharmacy,Unknown,Unknown,24/7,14.5401993,121.0120122
Mercury Drug,Unknown,B. Morcilla Street,Pateros,Unknown,Unknown,Unknown,pharmacy,pharmacy,Unknown,Unknown,Unknown,14.5445792,121.0679731
Mercury Drug,Unknown,Unknown,Unknown,Unknown,Unknown,Unknown,pharmacy,pharmacy,Unknown,Unknown,Unknown,15.0394867,120.6819435
Health Connection,Unknown,Unknown,Pasig,1900,Unknown,Unknown,clinic,clinic,Unknown,Unknown,Unknown,14.6069641,121.1043557
Unknown,Unknown,Unknown,Unknown,Unknown,Unknown,Unknown,pharmacy,Unknown,Unknown,Unknown,Unknown,14.1624204,120.8600805
Daine 2 Botikang Barangay,Unknown,Unknown,Unknown,Unknown,Unknown,Unknown,pharmacy,Unknown,Unknown,Unknown,Unknown,14.1895342,120.8447908
Botika ng Bayan,Unknown,A. Flores Street,San Pablo,4000,Unknown,Unknown,pharmacy,pharmacy,Unknown,Unknown,Unknown,14.06852,121.325307
Mercury Drug,Unknown,El98 Street,Unknown,Unknown,Unknown,Unknown,pharmacy,pharmacy,Unknown,Unknown,Unknown,10.7233363,122.5556069
Mercury Drug,Unknown,National Highway (R3),Santa Barbara,5002,Unknown,Unknown,pharmacy,pharmacy,Unknown,Unknown,Unknown,10.8224518,122.5292219
Mercury Drug,Unknown,Unknown,Unknown,Unknown,Unknown,Unknown,pharmacy,Unknown,Unknown,Unknown,Unknown,10.1038364,123.6398205
Rose Pharmacy,Unknown,Unknown,Unknown,Unknown,Unknown,Unknown,pharmacy,Unknown,Unknown,Unknown,Unknown,10.1037809,123.6399493
South Star Drug,Unknown,Unknown,Unknown,Unknown,Unknown,Unknown,pharmacy,pharmacy,Unknown,Unknown,Unknown,14.6322979,121.0827536
Mercury Drug,Unknown,Iznart Street,Unknown,Unknown,Unknown,Unknown,pharmacy,pharmacy,Unknown,Unknown,24/7,10.6971281,122.5689621
Mercury Drug,Unknown,Delgado Street,Unknown,Unknown,Unknown,Unknown,pharmacy,pharmacy,Unknown,Unknown,08:00-23:00,10.6977935,122.5676278
Mercury Drug,Unknown,Eugenio Lopez Street,Unknown,Unknown,Unknown,Unknown,pharmacy,pharmacy,Unknown,Unknown,Unknown,10.7164333,122.5622972
DermaClinic,Unknown,Unknown,Manila,Unknown,Unknown,Unknown,clinic,Unknown,Unknown,Unknown,Unknown,14.6033182,121.0018538
TGP,Unknown,Magsaysay Boulevard,Manila,Unknown,Unknown,Unknown,pharmacy,pharmacy,Unknown,Unknown,Unknown,14.6016901,121.0028537
Mercury Drug,Unknown,NAIA Road,Parañaque,Unknown,Unknown,Unknown,pharmacy,pharmacy,Unknown,Unknown,Unknown,14.5170678,120.9943541
Mercury Drug,Unknown,Alabang-Zapote Road,Las Piñas,Unknown,Unknown,Unknown,pharmacy,Unknown,Unknown,Unknown,24/7,14.4642399,120.9684831
Savior's Pharmacy,Unknown,Unknown,Unknown,Unknown,Unknown,Unknown,pharmacy,pharmacy,Unknown,Unknown,Unknown,14.0694364,121.3208519
Eddie Yang - Acupuncture,Unknown,Don Celso Tuazon,Antipolo,Unknown,Unknown,Unknown,Unknown,alternative,Unknown,Unknown,Unknown,14.6153557,121.141587
Mercury Drug,Unknown,Don Manuel Banzon Avenue,Unknown,Unknown,Unknown,Unknown,pharmacy,pharmacy,Unknown,Unknown,Unknown,14.679999,120.541975
Mervis Drug,Unknown,A. Bonifacio Avenue,Marikina,Unknown,Unknown,Unknown,pharmacy,Unknown,Unknown,Unknown,Unknown,14.6341146,121.0859357
Botika ng Barangay,Unknown,Unknown,Unknown,Unknown,Unknown,Unknown,pharmacy,Unknown,Unknown,Unknown,Unknown,11.5634091,124.2743218
Mercury Drug,Unknown,General Romulo Avenue,Quezon City,Unknown,Unknown,Unknown,pharmacy,pharmacy,Unknown,Unknown,Mo-Su 06:00-23:00,14.6201747,121.0570041
Mercury Drug,Unknown,Aurora Boulevard,Unknown,Unknown,Unknown,Unknown,pharmacy,pharmacy,Unknown,Unknown,Mo-Su 07:00-23:00,14.6227296,121.0530969
Mercury Drug,Unknown,General Araneta Avenue,Unknown,Unknown,Unknown,Unknown,pharmacy,pharmacy,Unknown,Unknown,Mo-Su 06:00-22:00,14.6190976,121.0529942
TGP,Unknown,Laon Laan Street,Quezon City,1114,Unknown,Unknown,pharmacy,pharmacy,Unknown,Unknown,Unknown,14.6234006,120.998836
Unknown,Unknown,Unknown,Unknown,Unknown,Unknown,Unknown,pharmacy,Unknown,Unknown,Unknown,Unknown,14.6384466,120.9931375
Generic Pharmacy,Unknown,Unknown,Unknown,Unknown,Unknown,Unknown,pharmacy,pharmacy,Unknown,Unknown,Unknown,14.6531379,120.9841111
Generika,Unknown,Unknown,Unknown,Unknown,Unknown,Unknown,pharmacy,pharmacy,Unknown,Unknown,Unknown,14.4197543,121.045096
Mercury Drug,Unknown,Unknown,Unknown,Unknown,Unknown,Unknown,pharmacy,pharmacy,Unknown,Unknown,Unknown,14.6575046,120.9848275
Southstar Drug,Unknown,Visayas Avenue,Unknown,Unknown,Unknown,Unknown,pharmacy,pharmacy,Unknown,Unknown,Unknown,14.6623095,121.0443532
TGP,Unknown,Bayan-Bayanan Avenue,Marikina,Unknown,Unknown,Unknown,pharmacy,pharmacy,Unknown,Unknown,Unknown,14.650817,121.1113353
Santa Faustina Health Care,Unknown,Bayan-Bayanan Avenue,Marikina,Unknown,Unknown,Unknown,doctors,doctor,Unknown,Unknown,Unknown,14.6506263,121.1079535
QLCR Clinic,Unknown,Bayan-Bayanan Avenue,Marikina,Unknown,Unknown,Unknown,doctors,doctor,Unknown,Unknown,Unknown,14.6508843,121.1072952
Farmacia Uy,Unknown,Unknown,Unknown,Unknown,Unknown,Unknown,pharmacy,Unknown,Unknown,Unknown,Unknown,13.6238982,123.1854974
South Star,Unknown,Unknown,Unknown,Unknown,Unknown,Unknown,pharmacy,Unknown,Unknown,Unknown,Unknown,13.622749,123.18458
South Star,Unknown,Unknown,Unknown,Unknown,Unknown,Unknown,pharmacy,Unknown,Unknown,Unknown,Unknown,13.622227,123.183687
Unknown,Unknown,Unknown,Unknown,Unknown,Unknown,Unknown,pharmacy,Unknown,Unknown,Unknown,Unknown,14.3983368,120.9924439
Luz Pharmacy,Unknown,Unknown,Unknown,Unknown,Unknown,Unknown,pharmacy,Unknown,Unknown,Unknown,Unknown,11.0058766,124.6066917
Mimosa Medical Clinic and Paramedic,Unknown,Unknown,Unknown,Unknown,Unknown,Unknown,hospital,Unknown,Unknown,Unknown,Unknown,15.182634,120.5202424
Pena drug store,Unknown,Unknown,Unknown,Unknown,Unknown,Unknown,pharmacy,Unknown,Unknown,Unknown,Unknown,14.7295638,121.1445351
Dila Health Center,Unknown,Bay - Calauan Road,Bay,4033,Unknown,Unknown,doctors,doctor,Unknown,Unknown,Unknown,14.1722403,121.2946254
UP Pharmacy,Unknown,Unknown,Unknown,Unknown,Unknown,Unknown,pharmacy,pharmacy,Unknown,Unknown,Unknown,14.6599078,121.0712529
Generika Drugstore,Unknown,Makati Avenue,Makati,Unknown,Unknown,Unknown,pharmacy,Unknown,Unknown,Unknown,Unknown,14.5626572,121.0283376
Mercury Drug,Unknown,Maharlica cor Mabini Street,Cabanatuan,Unknown,Unknown,Unknown,pharmacy,pharmacy,Unknown,Unknown,Unknown,15.4864567,120.9736306
Farmacia ni Dok,Unknown,Commonwealth Avenue,Unknown,Unknown,Unknown,Unknown,pharmacy,Unknown,Unknown,Unknown,Unknown,14.7089092,121.0627153
Mercury Drug,Unknown,Aguinaldo Highway,Tagaytay,4120,Unknown,Unknown,pharmacy,pharmacy,Unknown,Unknown,07:00-21:00,14.117921,120.961436
Econo Drugstore,Unknown,Lopez Avenue,Los Baños,4031,Unknown,Unknown,pharmacy,pharmacy,Unknown,Unknown,Unknown,14.1697089,121.2440722
Southstar Drug,Unknown,Unknown,Cainta,1900,Unknown,Unknown,pharmacy,pharmacy,Unknown,Unknown,Unknown,14.5766774,121.1167458
TGP,Unknown,A. Bonifacio Avenue,Cainta,1900,Unknown,Unknown,pharmacy,pharmacy,Unknown,Unknown,Unknown,14.578325,121.1164337
Mercury Drug,Unknown,Unknown,Cainta,1900,Unknown,Unknown,pharmacy,pharmacy,Unknown,Unknown,Unknown,14.5759551,121.1213278
Mercury Drug,Unknown,Unknown,Unknown,Unknown,Unknown,Unknown,pharmacy,Unknown,Unknown,Unknown,Unknown,14.3004101,120.9539368
TGP,Unknown,Marcelo H. del Pilar Avenue,Alaminos,4001,Unknown,Unknown,pharmacy,pharmacy,Unknown,Unknown,Unknown,14.0630916,121.2455664
TGP,Unknown,Unknown,Unknown,Unknown,Unknown,Unknown,pharmacy,pharmacy,Unknown,Unknown,Unknown,14.1844902,121.1367486
Farmacia Juan Pietro,Unknown,Unknown,Tayabas,Unknown,Unknown,Unknown,pharmacy,Unknown,Unknown,Unknown,Unknown,14.0262989,121.5946291
South Star Drug,Unknown,Unknown,Lucban,Unknown,Unknown,Unknown,pharmacy,Unknown,Unknown,Unknown,24/7,14.1141669,121.5550089
Cailing Medical Clinic,Unknown,Unknown,Tayabas,Unknown,Unknown,Unknown,clinic,Unknown,Unknown,Unknown,Unknown,14.0265414,121.5941134
Mercury Drug,Unknown,Unknown,Unknown,Unknown,Unknown,Unknown,pharmacy,Unknown,Unknown,Unknown,Unknown,8.1559685,125.1270086
Rojon Pharmacy,Unknown,Unknown,Unknown,Unknown,Unknown,Unknown,pharmacy,Unknown,Unknown,Unknown,Unknown,8.1557913,125.126915
Mariner's Dental Clinic,Unknown,Cabildo,Manila,Unknown,Unknown,Unknown,dentist,dentist,Unknown,Unknown,Unknown,14.588025,120.9775861
Seamary's Pharmacy,Unknown,Cabildo,Manila,Unknown,Unknown,Unknown,pharmacy,pharmacy,Unknown,Unknown,Unknown,14.5879899,120.9776207
Mercury Drug,Unknown,Unknown,Manila,Unknown,Unknown,Unknown,pharmacy,pharmacy,Unknown,Unknown,Unknown,14.5801714,120.9784238
Mercury Drug,Unknown,Rizal Avenue Extension,Unknown,Unknown,Unknown,Unknown,pharmacy,pharmacy,Unknown,Unknown,Unknown,14.6527661,120.9840738
St Joseph Clinic,Unknown,Unknown,Unknown,Unknown,Unknown,Unknown,hospital,hospital,Unknown,Unknown,Unknown,14.6529685,120.9840561
Mercury Drug,Unknown,Unknown,Manila,Unknown,Unknown,Unknown,pharmacy,pharmacy,Unknown,Unknown,Unknown,14.5825728,120.9842678
Generika,Unknown,Padre Faura Street,Manila,1000,Unknown,Unknown,pharmacy,pharmacy,Unknown,Unknown,Unknown,14.5784828,120.983099
Mercury Drug,Unknown,Unknown,Unknown,Unknown,Unknown,Unknown,pharmacy,Unknown,Unknown,Unknown,Unknown,14.3138152,121.1126939
Southstar Drug,Unknown,Dr. Sixto Antonio Avenue,Pasig,Unknown,Unknown,Unknown,pharmacy,pharmacy,Unknown,Unknown,Unknown,14.5663864,121.0760561
Rich-B Pharmacy,Unknown,Unknown,Manila,Unknown,Unknown,Unknown,pharmacy,pharmacy,Unknown,Unknown,Unknown,14.5821875,120.9855181
Mercury Drug,Unknown,Regalado Avenue,Unknown,Unknown,Unknown,Unknown,pharmacy,pharmacy,Unknown,Unknown,Unknown,14.7062597,121.0690605
Mercury Drug,Unknown,Commonwealth Avenue,Unknown,Unknown,Unknown,Unknown,pharmacy,pharmacy,Unknown,Unknown,Unknown,14.7044965,121.0803821
Hi-Precision Diagnostics,Unknown,Emilio Aguinaldo Highway,Dasmariñas,4114,Unknown,Unknown,clinic,clinic,Unknown,Unknown,Unknown,14.3283583,120.9402225
Oro Optical Clinic,Unknown,A. Flores Street,San Pablo,4000,Unknown,Unknown,doctors,doctor,Unknown,Unknown,Unknown,14.0686645,121.3251866
Five-L Pharmacy,Unknown,A. Flores Street,San Pablo,4000,Unknown,Unknown,pharmacy,pharmacy,Unknown,Unknown,Unknown,14.0685322,121.3251199
Mercury Drug,Unknown,M. Concepcion Avenue,Pasig,Unknown,Unknown,Unknown,pharmacy,pharmacy,Unknown,Unknown,24/7,14.5519108,121.0745401
South Star Drug,Unknown,CAA Avenue,Las Piñas,Unknown,Unknown,Unknown,pharmacy,pharmacy,Unknown,Unknown,Unknown,14.4566104,120.9944495
Donsol Health Center,Unknown,Unknown,Unknown,Unknown,Unknown,Unknown,clinic,Unknown,Unknown,Unknown,Unknown,12.9044062,123.5982448
Unknown,Unknown,Unknown,Unknown,Unknown,Unknown,Unknown,pharmacy,Unknown,Unknown,Unknown,Unknown,14.2982819,120.9552318
Jlourd's Pharmacy,Unknown,Unknown,Unknown,Unknown,Unknown,Unknown,pharmacy,Unknown,Unknown,Unknown,Unknown,14.2985335,120.9566952
Pets R Us Animal Clinic,Unknown,Unknown,Unknown,Unknown,Unknown,Unknown,pharmacy,Unknown,Unknown,Unknown,Unknown,14.2983495,120.955769
Dental Nook Jr.,Unknown,Unknown,Unknown,Unknown,Unknown,Unknown,dentist,dentist,Unknown,Unknown,Unknown,14.3011588,120.9543961
Mercury Drug,Unknown,Timog Avenue,Quezon City,1103,Unknown,Unknown,pharmacy,pharmacy,Unknown,Unknown,Mo-Su 07:00-22:00,14.6344926,121.0356096
Mercury Drug,Unknown,Ortigas Avenue,Quezon City,Unknown,Unknown,Unknown,pharmacy,Unknown,Unknown,Unknown,Unknown,14.5918956,121.0604387
Watsons,Unknown,Unknown,Unknown,Unknown,Unknown,Unknown,pharmacy,pharmacy,Unknown,Unknown,Unknown,10.3387184,123.9109762
Botika ng Barangay Kamanga,Unknown,Unknown,Unknown,Unknown,Unknown,Unknown,pharmacy,Unknown,Unknown,Unknown,Unknown,5.8561561,125.0623961
Botica ng Barangay,Unknown,Unknown,Unknown,Unknown,Unknown,Unknown,pharmacy,pharmacy,Unknown,Unknown,Unknown,5.884366,124.8606436
Badjao Village Health Center,Unknown,Unknown,Unknown,Unknown,Unknown,Unknown,Unknown,centre,Unknown,Unknown,Unknown,5.9616841,125.10701
Farmacia Carmela,Unknown,Unknown,Unknown,Unknown,Unknown,Unknown,pharmacy,pharmacy,Unknown,Unknown,Unknown,5.9894993,124.6333283
Botica Ng Barangay,Unknown,Unknown,Unknown,Unknown,Unknown,Unknown,pharmacy,Unknown,Unknown,Unknown,Unknown,5.9048834,124.8098501
Katubao Barangay Health Station,Unknown,Unknown,Unknown,Unknown,Unknown,Unknown,Unknown,yes,Unknown,Unknown,Unknown,5.8934856,124.8304065
Kayupo Barangay Health Station,Unknown,Unknown,Unknown,Unknown,Unknown,Unknown,Unknown,yes,Unknown,Unknown,Unknown,5.929482,124.7522725
Lagundi Barangay Health Station,Unknown,Unknown,Unknown,Unknown,Unknown,Unknown,Unknown,yes,Unknown,Unknown,Unknown,5.937941,124.7201997
Kapate Barangay Health Station,Unknown,Unknown,Unknown,Unknown,Unknown,Unknown,Unknown,yes,Unknown,Unknown,Unknown,5.9799067,124.666439
Poblacion 1 Health Center,Unknown,Unknown,Unknown,Unknown,Unknown,Unknown,Unknown,centre,Unknown,Unknown,Unknown,5.987436,124.6249429
Poblacion 2 Health Center,Unknown,Unknown,Unknown,Unknown,Unknown,Unknown,Unknown,centre,Unknown,Unknown,Unknown,5.9874551,124.6250469
South Star Drug,Unknown,V. A. Rufino Street,Makati,1229,Unknown,Unknown,pharmacy,pharmacy,Unknown,Unknown,Unknown,14.5568603,121.0177166
Quezon Pharmacy,Unknown,Unknown,Unknown,Unknown,Unknown,Unknown,pharmacy,Unknown,Unknown,Unknown,Unknown,14.0058858,122.1833648
"Angeles Health Center,Atimonan Quezon",Unknown,Unknown,Unknown,Unknown,Unknown,Unknown,hospital,Unknown,Unknown,Unknown,Unknown,13.9924128,121.9391547
Botika Iyay,Unknown,Unknown,Unknown,Unknown,Unknown,Unknown,pharmacy,Unknown,Unknown,Unknown,Unknown,13.9558067,122.0197497
Rosary Creed Pharmacy,Unknown,Unknown,Unknown,Unknown,Unknown,Unknown,pharmacy,Unknown,Unknown,Unknown,Unknown,13.9571709,122.016589
Plaridel Lying In Clinic,Unknown,Unknown,Unknown,Unknown,Unknown,Unknown,clinic,Unknown,Unknown,Unknown,Unknown,13.9592218,122.01151
TGP,Unknown,Santo Niño Street,Unknown,Unknown,Unknown,Unknown,pharmacy,pharmacy,Unknown,Unknown,Unknown,14.659909,121.0261642
balbidos,Unknown,Unknown,Unknown,Unknown,Unknown,Unknown,Unknown,laboratory,Unknown,Unknown,Unknown,14.5531859,120.9921898
Centralle Medical,Unknown,Unknown,Unknown,Unknown,Unknown,Unknown,hospital,hospital,Unknown,Unknown,Unknown,14.6459906,120.9845103
Tambilil Barangay Health Station,Unknown,Sarangani-Sultan Kudarat Coastal Road,Unknown,Unknown,Unknown,Unknown,health_post,community_health_worker,Unknown,Unknown,Unknown,5.9748916,124.6762273
Mercury Drug,Unknown,Calamba - Los Baños Road,Calamba,4027,Unknown,Unknown,pharmacy,Unknown,Unknown,Unknown,Unknown,14.1916657,121.1668349
Mercury Drug,Unknown,Unknown,Unknown,Unknown,Unknown,Unknown,pharmacy,pharmacy,Unknown,Unknown,Unknown,7.1283856,125.6195504
Jhime Drug Store,Unknown,F. Palmares Sr. Street,Passi,Unknown,Unknown,Unknown,pharmacy,Unknown,Unknown,Unknown,Unknown,11.1044918,122.6425788
Rose Pharmacy,Unknown,Unknown,Unknown,Unknown,Unknown,Unknown,pharmacy,Unknown,Unknown,Unknown,Unknown,11.0062609,124.6076459
Union Drug,Unknown,Governor Perdices Street,Unknown,Unknown,Unknown,Unknown,pharmacy,pharmacy,Unknown,Unknown,Unknown,9.308035,123.3077391
Lifebloom Pharmacy,Unknown,Roosevelt Avenue,Unknown,Unknown,Unknown,Unknown,pharmacy,Unknown,Unknown,Unknown,Unknown,14.6569763,121.0192283
Roosevelt Drug,Unknown,Unknown,Unknown,Unknown,Unknown,Unknown,pharmacy,Unknown,Unknown,Unknown,Unknown,14.6556075,121.0187428
Botika ng Bayan,Unknown,E. Rodriguez Sr. Avenue,Quezon City,Unknown,Unknown,Unknown,pharmacy,Unknown,Unknown,Unknown,Unknown,14.6196358,121.0168239
Wilson Pharmacy,Unknown,E. Rodriguez Sr. Avenue,Quezon City,Unknown,Unknown,Unknown,pharmacy,Unknown,Unknown,Unknown,Unknown,14.6192779,121.0167166
TGP,Unknown,A. Mabini Street,Unknown,Unknown,Unknown,Unknown,pharmacy,pharmacy,Unknown,Unknown,Unknown,11.0056097,124.6063993
Ormoc Pharmacy,Unknown,Unknown,Unknown,Unknown,Unknown,Unknown,pharmacy,Unknown,Unknown,Unknown,Unknown,11.0234329,124.6027882
Mercogene Pharmacy & Gen. Mdse.,Unknown,Rizal Avenue,Bay,4033,Unknown,Unknown,pharmacy,pharmacy,Unknown,Unknown,Unknown,14.1813172,121.284579
Manson Drug,Unknown,Unknown,Unknown,Unknown,Unknown,Unknown,pharmacy,pharmacy,Unknown,Unknown,Unknown,14.6200148,121.0506466
Westmed Diagnostic Clinic,Unknown,West Avenue,Quezon City,Unknown,Unknown,Unknown,clinic,clinic,Unknown,Unknown,Unknown,14.653576,121.0293825
Jet Pharmacy & Convenience Store,Unknown,Unknown,Unknown,Unknown,Unknown,Unknown,pharmacy,Unknown,Unknown,Unknown,Unknown,11.0055786,124.6069396
Liza Tan Drug Store,Unknown,Unknown,Unknown,Unknown,Unknown,Unknown,pharmacy,Unknown,Unknown,Unknown,Unknown,10.6027503,122.9205096
Negros Grace Pharmacy,Unknown,Unknown,Unknown,Unknown,Unknown,Unknown,pharmacy,Unknown,Unknown,Unknown,Unknown,10.6025744,122.9199187
Mercury Drug,Unknown,Unknown,Taguig,Unknown,Unknown,Unknown,pharmacy,pharmacy,Unknown,Unknown,Unknown,14.5491736,121.056387
Rose Pharmacy,Unknown,Simeon Aguilar Street,Passi,Unknown,Unknown,Unknown,pharmacy,Unknown,Unknown,Unknown,Unknown,11.1054598,122.6453069
Generika Drugstore,Unknown,Unknown,Unknown,Unknown,Unknown,Unknown,pharmacy,Unknown,Unknown,Unknown,Unknown,14.3980572,120.9773259
The Generics Pharmacy,Unknown,Unknown,Unknown,Unknown,Unknown,Unknown,pharmacy,pharmacy,Unknown,Unknown,Unknown,14.3958558,120.967918
Jhime,Unknown,Mercado Street,Unknown,Unknown,Unknown,Unknown,pharmacy,Unknown,Unknown,Unknown,Unknown,11.1073761,122.6414347
Casamayor Drug Store,Unknown,Ex Gov Alfelor,Unknown,Unknown,Unknown,Unknown,pharmacy,Unknown,Unknown,Unknown,Unknown,11.1120912,122.6435278
Botika ng Barangay,Unknown,Unknown,Unknown,Unknown,Unknown,Unknown,pharmacy,Unknown,Unknown,Unknown,Unknown,11.0070433,124.6683905
Sindalan Health Center,Unknown,Unknown,Unknown,Unknown,Unknown,Unknown,clinic,clinic,Unknown,Unknown,Unknown,15.0779524,120.6420431
Farmacia Gracia,Unknown,Unknown,Unknown,Unknown,Unknown,Unknown,pharmacy,Unknown,Unknown,Unknown,Unknown,14.3963655,120.9682508
17/7 Pharmacy,Unknown,Unknown,Unknown,Unknown,Unknown,Unknown,pharmacy,Unknown,Unknown,Unknown,Unknown,14.3963594,120.9694194
Apollo Drugstore & Diagnostic,Unknown,Unknown,Unknown,Unknown,Unknown,Unknown,pharmacy,laboratory,Unknown,Unknown,Unknown,14.3992756,120.9774344
TGP,Unknown,Unknown,Unknown,Unknown,Unknown,Unknown,pharmacy,pharmacy,Unknown,Unknown,Unknown,11.0108827,124.6094382
Luz Pharmacy,Unknown,Unknown,Unknown,Unknown,Unknown,Unknown,pharmacy,Unknown,Unknown,Unknown,Unknown,11.014433,124.6069294
Rose Pharmacy,Unknown,Unknown,Unknown,Unknown,Unknown,Unknown,pharmacy,pharmacy,Unknown,Unknown,Unknown,6.9516997,126.2183154
Mercury Drugs,Unknown,Unknown,Unknown,Unknown,Unknown,Unknown,pharmacy,Unknown,Unknown,Unknown,Unknown,14.8415656,120.2865533
Humana by MEDICard,Unknown,Unknown,Unknown,Unknown,Unknown,Unknown,clinic,clinic,Unknown,Unknown,Unknown,14.6522533,121.0318962
Botika ng Barangay Mayabon,Unknown,Unknown,Unknown,Unknown,Unknown,Unknown,pharmacy,Unknown,Unknown,Unknown,Unknown,9.0945532,123.1653373
Botika ng Barangay Lutoban,Unknown,Unknown,Unknown,Unknown,Unknown,Unknown,pharmacy,Unknown,Unknown,Unknown,Unknown,9.0798054,123.1574799
Dra. Jinky Mojica-Beratio Dental Clinic,Unknown,Aguinaldo Highway,Imus,4103,Unknown,Unknown,dentist,dentist,Unknown,Unknown,Unknown,14.430877,120.9463076
Wellspring Drugstore and General Merchandise,Unknown,Unknown,Unknown,Unknown,Unknown,Unknown,pharmacy,Unknown,Unknown,Unknown,Unknown,14.4235365,120.9554882
Mercury Drug,Unknown,Unknown,Unknown,Unknown,Unknown,Unknown,pharmacy,Unknown,Unknown,Unknown,Unknown,14.4458694,120.9511633
TGP,Unknown,Unknown,Unknown,Unknown,Unknown,Unknown,pharmacy,pharmacy,Unknown,Unknown,Unknown,14.445846,120.9513165
CVLR Dental Clinic,Unknown,Aguinaldo Highway,Bacoor,4102,Unknown,Unknown,dentist,dentist,Unknown,Unknown,Unknown,14.4359088,120.9482613
ESR Dental Clinic,Unknown,Aguinaldo Highway,Unknown,Unknown,Unknown,Unknown,dentist,dentist,+63 46 472 0994,Unknown,Unknown,14.4357694,120.9482565
"Nelson G. Chu, MD",Unknown,Unknown,Unknown,Unknown,Unknown,Unknown,doctors,doctor,Unknown,Unknown,Unknown,11.0072348,124.6082262
Mercury Drug,Unknown,Del Monte Avenue,Unknown,Unknown,Unknown,Unknown,pharmacy,pharmacy,Unknown,Unknown,Mo-Su 07:00-23:00,14.6404106,121.0154306
RCCA Pharmacy,Unknown,Mambog-Bayanan Road,Unknown,Unknown,Unknown,Unknown,pharmacy,pharmacy,Unknown,Unknown,Unknown,14.4240464,120.9497849
Mercury Drug,Unknown,Quezon Avenue,Unknown,Unknown,Unknown,Unknown,pharmacy,pharmacy,Unknown,Unknown,Mo-Su 07:00-22:00,14.6315768,121.0178615
TGP,Unknown,Quezon Avenue,Quezon City,1114,Unknown,Unknown,pharmacy,pharmacy,Unknown,Unknown,Unknown,14.6241177,121.0082971
Rose Pharmacy,Unknown,San Pedro Street,Davao City,8000,Unknown,Unknown,pharmacy,pharmacy,Unknown,Unknown,Unknown,7.0656984,125.6078024
Everwell,Unknown,Unknown,Unknown,Unknown,Unknown,Unknown,pharmacy,pharmacy,Unknown,Unknown,Unknown,11.247156,125.0015764
Rose Pharmacy,Unknown,Unknown,Unknown,Unknown,Unknown,Unknown,pharmacy,pharmacy,Unknown,Unknown,Unknown,11.2458847,125.0007488
Mercury Drug,Unknown,P. Burgos Street,Unknown,Unknown,Unknown,Unknown,pharmacy,pharmacy,Unknown,Unknown,Unknown,11.2453691,124.9979579
Mercury Drug,Unknown,Salazar Street,Unknown,Unknown,Unknown,Unknown,pharmacy,pharmacy,Unknown,Unknown,Unknown,11.2452926,125.0007462
Sam Drugs,Unknown,Malvar Street,Puerto Princesa,Unknown,Unknown,Unknown,pharmacy,Unknown,Unknown,Unknown,Unknown,9.7483818,118.7440039
Mercury Drug,Unknown,Malvar Street,Unknown,Unknown,Unknown,Unknown,pharmacy,pharmacy,Unknown,Unknown,Unknown,9.7422598,118.7364675
Clinica Palao,Unknown,Malvar Street,Puerto Princesa,Unknown,Unknown,Unknown,clinic,laboratory,Unknown,Unknown,Unknown,9.7473756,118.7429676
Biochemist Drug,Unknown,Unknown,Unknown,Unknown,Unknown,Unknown,pharmacy,Unknown,Unknown,Unknown,Unknown,9.7399104,118.7433371
RCE Pharma,Unknown,Malvar Street,Puerto Princesa,Unknown,Unknown,Unknown,pharmacy,Unknown,Unknown,Unknown,Unknown,9.747405,118.7429991
Drugman,Unknown,Malvar Street,Puerto Princesa,Unknown,Unknown,Unknown,pharmacy,Unknown,Unknown,Unknown,Unknown,9.7480179,118.7435898
Biochemist Drug,Unknown,Unknown,Puerto Princesa,Unknown,Unknown,Unknown,pharmacy,pharmacy,Unknown,Unknown,Unknown,9.7954542,118.7486606
Mercury Drug,Unknown,National Hi-Way,Puerto Princesa,Unknown,Unknown,Unknown,pharmacy,Unknown,Unknown,Unknown,Unknown,9.7581541,118.7474967
TGP,Unknown,Unknown,Unknown,Unknown,Unknown,Unknown,pharmacy,Unknown,Unknown,Unknown,Unknown,15.4252061,120.9384726
Southstar Drug,Unknown,Unknown,Unknown,Unknown,Unknown,Unknown,pharmacy,Unknown,Unknown,Unknown,Unknown,15.4252263,120.9381648
Rose Pharmacy,Unknown,Unknown,Unknown,Unknown,Unknown,Unknown,pharmacy,pharmacy,Unknown,Unknown,Unknown,14.6641095,121.0676452
Medical Bay,Unknown,Unknown,Unknown,Unknown,Unknown,Unknown,doctors,doctor,Unknown,Unknown,Unknown,7.0656117,125.610364
Mercury Drug,Unknown,Quezon Avenue,Quezon City,1114,Unknown,Unknown,pharmacy,Unknown,Unknown,Unknown,Mo-Su 07:00-22:00,14.6287637,121.0133966
Mercury Drug,Unknown,Butuan-Cagayan de Oro-Iligan Road,Unknown,Unknown,Unknown,Unknown,pharmacy,pharmacy,Unknown,Unknown,Unknown,8.8250499,125.1072528
Rural Health Unit & Reproductive Health Center,Unknown,Unknown,Unknown,Unknown,Unknown,Unknown,doctors,doctor,Unknown,Unknown,Unknown,8.6068504,125.9164663
Unknown,Unknown,Unknown,Unknown,Unknown,Unknown,Unknown,pharmacy,pharmacy,Unknown,Unknown,Unknown,7.447664,125.8088593
Unknown,Unknown,Unknown,Unknown,Unknown,Unknown,Unknown,pharmacy,pharmacy,Unknown,Unknown,Unknown,7.4479168,125.8084723
Unknown,Unknown,Unknown,Unknown,Unknown,Unknown,Unknown,pharmacy,pharmacy,Unknown,Unknown,Unknown,7.4474522,125.8090654
United Doctors Hospital of Kidapawan,Unknown,M. L. Quezon Boulevard,Unknown,Unknown,Unknown,Unknown,hospital,Unknown,Unknown,Unknown,Unknown,7.0040195,125.0875547
Makilala Medical Specialist Hospital,Unknown,Unknown,Unknown,Unknown,Unknown,Unknown,hospital,Unknown,Unknown,Unknown,Unknown,6.9570144,125.0916878
Barangay 37-D Health Center,Unknown,Unknown,Unknown,Unknown,Unknown,Unknown,clinic,clinic,Unknown,Unknown,Unknown,7.0634684,125.6139541
Davao Farmacia Southern,Unknown,Unknown,Unknown,Unknown,Unknown,Unknown,pharmacy,pharmacy,Unknown,Unknown,Unknown,7.0753845,125.6244929
Crossing Bayabas Health Center,Unknown,Unknown,Unknown,Unknown,Unknown,Unknown,clinic,Unknown,Unknown,Unknown,Unknown,7.0229981,125.4954325
Unknown,Unknown,Unknown,Unknown,Unknown,Unknown,Unknown,dentist,dentist,Unknown,Unknown,Unknown,14.664795,121.0675658
Mercury Drug,Unknown,Governor Sales Street,Davao City,8000,Unknown,Unknown,pharmacy,pharmacy,Unknown,Unknown,Unknown,7.0764843,125.61966
Unknown,Unknown,Unknown,Unknown,Unknown,Unknown,Unknown,pharmacy,pharmacy,Unknown,Unknown,Unknown,7.0825241,125.6233617
Unknown,Unknown,Unknown,Unknown,Unknown,Unknown,Unknown,pharmacy,pharmacy,Unknown,Unknown,Unknown,7.0827287,125.6239361
Farmacia Southern,Unknown,Angliongto Road,Davao City,8000,Unknown,Unknown,pharmacy,Unknown,Unknown,Unknown,Unknown,7.10144,125.6327257
Bucana Health Center,Unknown,Unknown,Unknown,Unknown,Unknown,Unknown,clinic,clinic,Unknown,Unknown,Unknown,7.0631526,125.6030718
Rose Pharmacy,Unknown,Unknown,Unknown,Unknown,Unknown,Unknown,pharmacy,pharmacy,Unknown,Unknown,Unknown,7.109995,125.6170095
San Pedro Hospital Doctors Clinic,Unknown,Unknown,Unknown,Unknown,Unknown,Unknown,doctors,doctor,Unknown,Unknown,Unknown,7.0780938,125.6151837
Pavino Clinic,Unknown,Unknown,Unknown,Unknown,Unknown,Unknown,doctors,doctor,Unknown,Unknown,Unknown,7.1184637,125.6555622
Sean Diagnostic Center,Unknown,Unknown,Unknown,Unknown,Unknown,Unknown,doctors,doctor,Unknown,Unknown,Unknown,7.1184987,125.6555908
628 Pharmacy,Unknown,Unknown,Paoay,Unknown,Unknown,Unknown,pharmacy,Unknown,Unknown,Unknown,Unknown,18.0619397,120.5224123
Amesco Drug,Unknown,Unknown,Unknown,Unknown,Unknown,Unknown,pharmacy,pharmacy,Unknown,Unknown,Unknown,7.0616442,125.5931856
Mercury Drug,Unknown,Unknown,Batac,2906,Unknown,Unknown,pharmacy,pharmacy,Unknown,Unknown,Unknown,18.0562021,120.564765
Dela Cerna Hospital,Unknown,Unknown,Unknown,Unknown,Unknown,Unknown,hospital,Unknown,Unknown,Unknown,Unknown,7.1651839,125.5758879
Unknown,Unknown,Unknown,Unknown,Unknown,Unknown,Unknown,pharmacy,Unknown,Unknown,Unknown,Unknown,7.1904643,125.4538736
Mercury Drug,Unknown,H. Garcia Street,Davao City,8018,Unknown,Unknown,pharmacy,pharmacy,Unknown,Unknown,Mo-Su 07:00-20:00,7.1900959,125.4544233
Clinica Feliciano,Unknown,Unknown,Unknown,Unknown,Unknown,Unknown,doctors,doctor,Unknown,Unknown,Unknown,7.1877819,125.4529249
Botica Carina,Unknown,Unknown,Unknown,Unknown,Unknown,Unknown,pharmacy,Unknown,Unknown,Unknown,Unknown,7.1876341,125.45332
Unknown,Unknown,Unknown,Unknown,Unknown,Unknown,Unknown,pharmacy,Unknown,Unknown,Unknown,Unknown,7.0177578,125.4973821
Rose Pharmacy,Unknown,Agton Street,Unknown,Unknown,Unknown,Unknown,pharmacy,pharmacy,Unknown,Unknown,Unknown,7.0163046,125.4977545
Unknown,Unknown,Unknown,Unknown,Unknown,Unknown,Unknown,pharmacy,pharmacy,Unknown,Unknown,Unknown,7.052691,125.5943307
Barangay 39-D Health Center,Unknown,Unknown,Unknown,Unknown,Unknown,Unknown,clinic,Unknown,Unknown,Unknown,Unknown,7.0615465,125.6100782
Animal Bite Center,Unknown,Unknown,Unknown,Unknown,Unknown,Unknown,clinic,clinic,Unknown,Unknown,Unknown,7.0715854,125.6220681
Unknown,Unknown,Unknown,Unknown,Unknown,Unknown,Unknown,pharmacy,pharmacy,Unknown,Unknown,Unknown,7.0744248,125.6244946
New Farmacia Suy Hoo,Unknown,Unknown,Unknown,Unknown,Unknown,Unknown,pharmacy,pharmacy,Unknown,Unknown,Unknown,7.0744115,125.6243813
Remdios Drug & Gen. Merchandise,Unknown,Unknown,Laoag,Unknown,Unknown,Unknown,pharmacy,pharmacy,Unknown,Unknown,Unknown,18.1949125,120.5931858
Amesco Drug,Unknown,A. Bonifacio Street,Davao City,8000,Unknown,Unknown,pharmacy,pharmacy,Unknown,Unknown,Unknown,7.0678083,125.6106746
Philippine Mental Health Association,Unknown,Unknown,Unknown,Unknown,Unknown,Unknown,doctors,doctor,Unknown,Unknown,Unknown,7.0627808,125.6093235
Med Express Drugstore,Unknown,Unknown,Unknown,Unknown,Unknown,Unknown,pharmacy,pharmacy,Unknown,Unknown,Unknown,7.0782904,125.6147281
Nephrology Center of Davao,Unknown,Unknown,Unknown,Unknown,Unknown,Unknown,doctors,doctor,Unknown,Unknown,Unknown,7.0822055,125.6127149
District B Main Health Center,Unknown,F. S. Dizon Road,Davao City,8000,Unknown,Unknown,health_post,doctor,Unknown,Unknown,Unknown,7.090681,125.6065367
Mercury Drug,Unknown,Ilustre Street,Unknown,Unknown,Unknown,Unknown,pharmacy,pharmacy,Unknown,Unknown,Unknown,7.0690213,125.6052745
Ma-a Health Center,Unknown,Ma-a Road,Unknown,Unknown,Unknown,Unknown,health_post,yes,Unknown,Unknown,Unknown,7.0899419,125.579827
Unknown,Unknown,General Segundo Avenue,Laoag,Unknown,Unknown,Unknown,pharmacy,pharmacy,Unknown,Unknown,Unknown,18.2026066,120.5980504
Manson Drug,Unknown,Unknown,Unknown,Unknown,Unknown,Unknown,pharmacy,pharmacy,Unknown,Unknown,Unknown,15.0398142,120.681105
Mercury Drug,Unknown,Unknown,Unknown,Unknown,Unknown,Unknown,pharmacy,pharmacy,Unknown,Unknown,Unknown,7.0769259,125.6098326
DDH Pharmacy,Unknown,Unknown,Unknown,Unknown,Unknown,Unknown,pharmacy,pharmacy,Unknown,Unknown,Unknown,7.0703185,125.6048449
Facundo Dental Clinic,Unknown,Unknown,Unknown,Unknown,Unknown,Unknown,dentist,dentist,Unknown,Unknown,Unknown,7.0795712,125.6083667
Unknown,Unknown,Angliongto Road,Davao City,8000,Unknown,Unknown,clinic,Unknown,Unknown,Unknown,Unknown,7.1028231,125.6325582
Clinica Aesthetico,Unknown,Unknown,Unknown,Unknown,Unknown,Unknown,doctors,doctor,Unknown,Unknown,Unknown,7.0773099,125.6055763
Unknown,Unknown,Unknown,Unknown,Unknown,Unknown,Unknown,pharmacy,pharmacy,Unknown,Unknown,Unknown,7.1367869,125.6879077
Camudmud Health Center,Unknown,Unknown,Unknown,Unknown,Unknown,Unknown,clinic,Unknown,Unknown,Unknown,Unknown,7.1773969,125.6962543
San Isidro Health Center,Unknown,Unknown,Unknown,Unknown,Unknown,Unknown,clinic,Unknown,Unknown,Unknown,Unknown,7.1740882,125.7151886
Unknown,Unknown,Unknown,Unknown,Unknown,Unknown,Unknown,clinic,Unknown,Unknown,Unknown,Unknown,7.1604843,125.72841
Unknown,Unknown,Unknown,Unknown,Unknown,Unknown,Unknown,clinic,Unknown,Unknown,Unknown,Unknown,7.1065354,125.6943781
Unknown,Unknown,Unknown,Unknown,Unknown,Unknown,Unknown,pharmacy,pharmacy,Unknown,Unknown,Unknown,7.1365331,125.6870328
Butika ng Barangay,Unknown,Unknown,Vigan,Unknown,Unknown,Unknown,pharmacy,Unknown,Unknown,Unknown,Unknown,17.5711545,120.3834943
Mercury Drug,Unknown,Unknown,Unknown,Unknown,Unknown,Unknown,pharmacy,pharmacy,Unknown,Unknown,Unknown,14.9741219,120.5284892
Unknown,Unknown,Unknown,Unknown,Unknown,Unknown,Unknown,pharmacy,pharmacy,Unknown,Unknown,Unknown,7.0701857,125.6069294
Del Pilar,Unknown,Calle Bonifacio,Vigan,Unknown,Unknown,Unknown,pharmacy,Unknown,Unknown,Unknown,Unknown,17.5736897,120.3859509
Dela Rosa Psychiatric & Rehabilitation,Unknown,Unknown,Unknown,Unknown,Unknown,Unknown,clinic,Unknown,Unknown,Unknown,Unknown,7.0959215,125.6167113
Espino Medical & Maternity Clinic,Unknown,Aurora Quezon Street,Davao City,8000,Unknown,Unknown,clinic,clinic,Unknown,Unknown,Unknown,7.0662382,125.6144331
Mercury Drug,Unknown,Unknown,Unknown,Unknown,Unknown,Unknown,pharmacy,pharmacy,Unknown,Unknown,Unknown,7.0813884,125.6218996
Unknown,Unknown,Unknown,Unknown,Unknown,Unknown,Unknown,clinic,clinic,Unknown,Unknown,Unknown,7.0695303,125.6024561
Lahoz Clinic & Hospital Pharmacy,Unknown,Jose Singson Street,Vigan,Unknown,Unknown,Unknown,pharmacy,Unknown,Unknown,Unknown,Unknown,17.5693734,120.385955
Unknown,Unknown,Unknown,Unknown,Unknown,Unknown,Unknown,clinic,clinic,Unknown,Unknown,Unknown,7.068891,125.6165549
Unknown,Unknown,Unknown,Unknown,Unknown,Unknown,Unknown,clinic,clinic,Unknown,Unknown,Unknown,7.0687072,125.6167252
Davao Farmacia Southern,Unknown,Unknown,Unknown,Unknown,Unknown,Unknown,pharmacy,pharmacy,Unknown,Unknown,Unknown,7.0740574,125.6127271
Unknown,Unknown,Unknown,Unknown,Unknown,Unknown,Unknown,clinic,Unknown,Unknown,Unknown,Unknown,7.1385917,125.6265971
Vitalab Diagnostic Center,Unknown,E. Quirino Avenue,Davao City,8000,Unknown,Unknown,Unknown,laboratory,Unknown,Unknown,Unknown,7.0704948,125.605267
Amesco Drug,Unknown,Unknown,Unknown,Unknown,Unknown,Unknown,pharmacy,pharmacy,Unknown,Unknown,Unknown,7.0693292,125.6017361
Unknown,Unknown,Unknown,Unknown,Unknown,Unknown,Unknown,clinic,clinic,Unknown,Unknown,Unknown,7.0695019,125.6019301
Saint Hyacinth Diagnostic Laboratory,Unknown,Unknown,Unknown,Unknown,Unknown,Unknown,Unknown,laboratory,Unknown,Unknown,Unknown,7.0697339,125.6043415
Lim's Medical Clinic,Unknown,Unknown,Unknown,Unknown,Unknown,Unknown,doctors,doctor,Unknown,Unknown,Unknown,7.2364641,125.6423809
Accu - Lab Medical System Inc,Unknown,Unknown,Unknown,Unknown,Unknown,Unknown,clinic,clinic,Unknown,Unknown,Unknown,7.0778234,125.6150857
Gem Village Health Center,Unknown,Unknown,Unknown,Unknown,Unknown,Unknown,clinic,clinic,Unknown,Unknown,Unknown,7.0812944,125.589984
Wonderland Pharmacy,Unknown,Unknown,Malaybalay,8700,Unknown,Unknown,pharmacy,Unknown,Unknown,Unknown,Unknown,8.1286176,125.1284167
Unknown,Unknown,Unknown,Unknown,Unknown,Unknown,Unknown,clinic,clinic,Unknown,Unknown,Unknown,7.1916888,125.4552978
Pharmacia Eva,Unknown,Unknown,Unknown,Unknown,Unknown,Unknown,pharmacy,pharmacy,Unknown,Unknown,Unknown,7.1884067,125.4535256
Unknown,Unknown,Unknown,Unknown,Unknown,Unknown,Unknown,Unknown,yes,Unknown,Unknown,Unknown,7.0749605,125.5176375
Unknown,Unknown,Unknown,Unknown,Unknown,Unknown,Unknown,clinic,Unknown,Unknown,Unknown,Unknown,7.0367001,125.4921141
Bernardo X-ray & Medical Clinic,Unknown,Unknown,Unknown,Unknown,Unknown,Unknown,clinic,clinic,Unknown,Unknown,Unknown,7.0642003,125.6068911
Magallanes Doctors and Laboratories,Unknown,Unknown,Unknown,Unknown,Unknown,Unknown,doctors,doctor,Unknown,Unknown,Unknown,7.0640769,125.6068087
Agdao Health Center,Unknown,Unknown,Unknown,Unknown,Unknown,Unknown,Unknown,yes,Unknown,Unknown,Unknown,7.0811839,125.6221006
Rose Pharmacy,Unknown,Unknown,Unknown,Unknown,Unknown,Unknown,pharmacy,pharmacy,Unknown,Unknown,Unknown,7.0830646,125.6240287
Unknown,Unknown,Unknown,Unknown,Unknown,Unknown,Unknown,pharmacy,Unknown,Unknown,Unknown,Unknown,7.0607874,125.5557029
Unknown,Unknown,Unknown,Unknown,Unknown,Unknown,Unknown,pharmacy,pharmacy,Unknown,Unknown,Unknown,7.1105716,125.6495381
Unknown,Unknown,Unknown,Unknown,Unknown,Unknown,Unknown,pharmacy,pharmacy,Unknown,Unknown,Unknown,7.109215,125.6133476
Mercury Drug Congressional - Northridge Plaza,Unknown,Congressional Avenue,Unknown,Unknown,Unknown,Unknown,pharmacy,pharmacy,Unknown,Unknown,Mo-Su 07:00-22:00,14.6707103,121.0389666
Southern Drug,Unknown,Unknown,Unknown,Unknown,Unknown,Unknown,pharmacy,pharmacy,Unknown,Unknown,Unknown,14.6713836,121.0389028
Mercury Drug,Unknown,Romulo Boulevard,Tarlac,Unknown,Unknown,Unknown,pharmacy,pharmacy,Unknown,Unknown,Unknown,15.4869487,120.5871565
"Center For Brighter Beginnings, inc.",Unknown,Road 7,Davao City,Unknown,Unknown,Unknown,Unknown,speech_therapist,0822242188,Unknown,Unknown,7.0824152,125.60578
Rose Pharmacy,Unknown,Delgado Street,Unknown,Unknown,Unknown,Unknown,pharmacy,pharmacy,Unknown,Unknown,Unknown,10.6977082,122.5672308
Davao Saint Martin De Porres Medical Clinic,Unknown,Unknown,Unknown,Unknown,Unknown,Unknown,clinic,clinic,Unknown,Unknown,Unknown,7.2356585,125.6420695
Barangay 76-A Clinic,Unknown,Unknown,Unknown,Unknown,Unknown,Unknown,clinic,clinic,Unknown,Unknown,Unknown,7.0598765,125.5993648
TGP,Unknown,A. Pichon Street,Unknown,Unknown,Unknown,Unknown,pharmacy,pharmacy,Unknown,Unknown,Unknown,7.0657071,125.6057255
Gravahan Health Center,Unknown,Unknown,Unknown,Unknown,Unknown,Unknown,clinic,Unknown,Unknown,Unknown,Unknown,7.065548,125.5988175
Rose Pharmacy,Unknown,Governor Perdices Street,Unknown,Unknown,Unknown,Unknown,pharmacy,pharmacy,Unknown,Unknown,Unknown,9.3083376,123.3075424
Generika Drugstore,Unknown,Doña Soledad Avenue,Parañaque,Unknown,Unknown,Unknown,pharmacy,Unknown,Unknown,Unknown,Unknown,14.4856869,121.0286607
Starex Drug Center,Unknown,Unknown,Unknown,Unknown,Unknown,Unknown,pharmacy,pharmacy,Unknown,Unknown,Unknown,7.0654305,125.6062978
Rose Pharmacy,Unknown,MacArthur Highway,Davao City,8021,Unknown,Unknown,pharmacy,Unknown,Unknown,Unknown,Unknown,7.058646,125.5694325
Rojon Pharmacy,Unknown,MacArthur Highway,Davao City,8021,Unknown,Unknown,pharmacy,Unknown,Unknown,Unknown,Unknown,7.0587835,125.5691204
Unknown,Unknown,Unknown,Unknown,Unknown,Unknown,Unknown,clinic,Unknown,Unknown,Unknown,Unknown,7.3724452,125.4970903
Paquibato District Hospital,Unknown,Unknown,Unknown,Unknown,Unknown,Unknown,hospital,Unknown,Unknown,Unknown,Unknown,7.3730821,125.4971102
Mabuhay Health Center,Unknown,Unknown,Davao City,Unknown,Unknown,Unknown,clinic,Unknown,Unknown,Unknown,Unknown,7.328083,125.5235059
Hinunangan Community Hospital,Unknown,Unknown,Unknown,Unknown,Unknown,Unknown,hospital,Unknown,Unknown,Unknown,Unknown,10.4011564,125.1922855
Sumimao Botica ng Barangay,Unknown,Unknown,Unknown,Unknown,Unknown,Unknown,pharmacy,Unknown,Unknown,Unknown,Unknown,7.2869348,125.4713302
Unknown,Unknown,Unknown,Unknown,Unknown,Unknown,Unknown,pharmacy,Unknown,Unknown,Unknown,Unknown,7.0544889,125.5454908
InterMed Healtcare,Unknown,West Avenue,Quezon City,Unknown,Unknown,Unknown,clinic,clinic,Unknown,Unknown,Unknown,14.646921,121.0283432
NSPI Dialysis Center,Unknown,West Avenue,Quezon City,Unknown,Unknown,Unknown,clinic,clinic,Unknown,Unknown,Unknown,14.6527162,121.029599
Mercury Drug,Unknown,Unknown,Pila,Unknown,Unknown,Unknown,pharmacy,Unknown,Unknown,Unknown,Unknown,14.2342318,121.363626
TGP,Unknown,Alabang-Zapote Road,Las Piñas,Unknown,Unknown,Unknown,pharmacy,pharmacy,Unknown,Unknown,Unknown,14.4371223,121.0066178
Rss Drugstore,Unknown,Unknown,Unknown,Unknown,Unknown,Unknown,pharmacy,pharmacy,Unknown,Unknown,Unknown,7.5857055,125.7062754
Salomon Pharmacy,Unknown,Unknown,Unknown,Unknown,Unknown,Unknown,pharmacy,pharmacy,Unknown,Unknown,Unknown,7.5861504,125.7054982
Mercury Drug,Unknown,Commonwealth Avenue,Unknown,Unknown,Unknown,Unknown,pharmacy,pharmacy,Unknown,Unknown,24/7,14.653373,121.0531722
TDP Drug Store,Unknown,Angelina Canaynay Avenue,Parañaque,1700,Unknown,Unknown,pharmacy,pharmacy,Unknown,Unknown,Unknown,14.4744595,121.0006189
Igualada Maternity Clinic,Unknown,Tayabas - Lucena Road,Tayabas,Unknown,Unknown,Unknown,clinic,clinic,Unknown,Unknown,Unknown,14.019825,121.5976361
Malate Medical Clinic,Unknown,MacArthur Highway,Davao City,8025,Unknown,Unknown,clinic,Unknown,Unknown,Unknown,Unknown,7.0189423,125.4948042
Marapangi Health Center,Unknown,Unknown,Davao City,8000,Unknown,Unknown,clinic,Unknown,Unknown,Unknown,Unknown,7.0162434,125.4871155
Watsons,Unknown,Eastwood Avenue,Quezon City,Unknown,Unknown,Unknown,pharmacy,Unknown,Unknown,Unknown,Unknown,14.6094117,121.079539
TGP,Unknown,San Andres Street,Manila,1004,Unknown,Unknown,pharmacy,pharmacy,Unknown,Unknown,Unknown,14.5694771,120.9882487
Nordic Medical Clinic Manila,Unknown,San Andres Street,Manila,1004,Unknown,Unknown,clinic,clinic,Unknown,Unknown,Unknown,14.5685771,120.9847717
Davao Analytical Laboratories,Unknown,Unknown,Unknown,Unknown,Unknown,Unknown,Unknown,clinic,Unknown,Unknown,Unknown,7.0619439,125.5615704
Coleen's Pharmacy,Unknown,Unknown,Unknown,Unknown,Unknown,Unknown,pharmacy,Unknown,Unknown,Unknown,Unknown,13.9624135,121.320249
Mercury Drug,Unknown,Unknown,San Juan,Unknown,Unknown,Unknown,pharmacy,pharmacy,Unknown,Unknown,Unknown,14.6023941,121.0514254
Tambobong Health Center,Unknown,Unknown,Unknown,Unknown,Unknown,Unknown,clinic,Unknown,Unknown,Unknown,Unknown,7.1883643,125.345305
Mercury Drug,Unknown,McKinley Road,Makati,1220,Unknown,Unknown,pharmacy,pharmacy,Unknown,Unknown,Unknown,14.5471121,121.034905
Messiah Pharmacy,Unknown,BF Resort Drive,Las Piñas,Unknown,Unknown,Unknown,pharmacy,Unknown,Unknown,Unknown,Unknown,14.4442129,120.9933972
Ferdiz Drugstore,Unknown,Guagua - Santa Rita Arterial Road,Unknown,Unknown,Unknown,Unknown,pharmacy,pharmacy,Unknown,Unknown,Unknown,14.9852085,120.6221158
Mercury Drug,Unknown,Doctor A. Santos Avenue,Parañaque,Unknown,Unknown,Unknown,pharmacy,pharmacy,Unknown,Unknown,Unknown,14.4542161,121.0430478
Mercury Drug,Unknown,Dr. A. Santos Avenue,Parañaque,Unknown,Unknown,Unknown,pharmacy,Unknown,Unknown,Unknown,Unknown,14.4571676,121.0355762
TGP,Unknown,General Paulino Santos Avenue,Taguig,Unknown,Unknown,Unknown,pharmacy,pharmacy,Unknown,Unknown,Unknown,14.4887279,121.0605753
Generika,Unknown,Doctor A. Santos Avenue,Parañaque,Unknown,Unknown,Unknown,pharmacy,pharmacy,Unknown,Unknown,Unknown,14.4584065,121.0326877
Mercury Drug,Unknown,Dr. Arcadio Santos Avenue,Parañaque,Unknown,Unknown,Unknown,pharmacy,Unknown,Unknown,Unknown,Unknown,14.4662218,121.015979
Mercury Drug,Unknown,Unknown,Unknown,Unknown,Unknown,Unknown,pharmacy,Unknown,Unknown,Unknown,Unknown,14.2856494,121.4137728
Mercury Drug,Unknown,Unknown,Manila,Unknown,Unknown,Unknown,pharmacy,pharmacy,Unknown,Unknown,Unknown,14.5986372,120.9832716
TGP,Unknown,R. Hidalgo Street,Manila,Unknown,Unknown,Unknown,pharmacy,pharmacy,Unknown,Unknown,Unknown,14.5979747,120.9834002
South Star Drug,Unknown,Barangka Drive,Mandaluyong,Unknown,Unknown,Unknown,pharmacy,pharmacy,Unknown,Unknown,Unknown,14.5756846,121.0408861
