Name,Full Address,Street,City,Postcode,State,Country,Amenity,Healthcare,Phone,Website,Opening Hours,Latitude,Longitude
Shri Balaji Hospital and Trauma Center,"Pataudi Road, Near GovernmentSchool Gadoli",Unknown,Unknown,122001,Haryana,Unknown,hospital,Unknown,Unknown,Unknown,Unknown,28.4409108,76.980076
Shri Balaji`S Multispeciality Hospital,"Sec.-9-10, Basai Chowk, Basai Road",Unknown,Unknown,122001,Haryana,Unknown,hospital,Unknown,Unknown,Unknown,Unknown,28.4577278,76.9909818
S.R.S. Hospital and Critical Care Unit,"Opposite Carrier Aircon, Near Haldiram Chowk, Kherki Daula, Nh-8",Unknown,Unknown,122001,Haryana,Unknown,hospital,Unknown,Unknown,Unknown,Unknown,28.4033015,76.9881588
"Kamla Hospital, Gurgaon","Near Radha Swami Satsang Bhawan , Pataudi Road ,Sec. 10",Unknown,Unknown,122001,Haryana,Unknown,hospital,Unknown,Unknown,Unknown,Unknown,28.446446,76.9915827
"PHC, Daultadbad","Daultabad-Dhanwapur Road, Near Hanuman Mandir, Daultabad",Unknown,Unknown,122006,Haryana,Unknown,Unknown,centre,Unknown,Unknown,Unknown,28.491262,76.9917055
PHC Garhi Harsaru,"Garhi, Gurugram Road",Unknown,Unknown,122505,Haryana,Unknown,Unknown,centre,Unknown,Unknown,Unknown,28.446959,76.942533
Bengali Clinic,"Budhera, Gurugram",Unknown,Unknown,122505,Haryana,Unknown,clinic,Unknown,Unknown,Unknown,Unknown,28.4780754,76.9110951
Sharma Clinic,"Dr.S.N. Sharma, Budhera, Gurugram",Unknown,Unknown,122006,Haryana,Unknown,clinic,Unknown,Unknown,Unknown,Unknown,28.477794,76.911614
