OSM_Data
"{'type': 'node', 'id': 1625055493, 'lat': 5.2201832, 'lon': -3.7364461, 'tags': {'amenity': 'clinic', 'healthcare': 'clinic', 'name': 'Clinique Siloé', 'source': 'bing'}}"
"{'type': 'node', 'id': 2445723298, 'lat': 5.2112879, 'lon': -3.737831, 'tags': {'addr:city': 'Grand Bassam', 'addr:country': 'CI', 'amenity': 'pharmacy', 'dispensing': 'yes', 'healthcare': 'pharmacy', 'name': 'Pharmacie Colombe', 'opening_hours': 'Mo-Fr 08:30-20:00; Sa,Su 08:00-15:00; PH off', 'phone': '+225-21 30 38 52', 'shop': 'chemist', 'source': 'survey'}}"
"{'type': 'node', 'id': 3043869179, 'lat': 5.2081565, 'lon': -3.7345512, 'tags': {'addr:city': 'Grand Bassam', 'addr:country': 'CI', 'addr:street': 'Boulevard Félix Houphouët Boigny', 'amenity': 'pharmacy', 'dispensing': 'yes', 'healthcare': 'pharmacy', 'name': 'Pharmacie Littoral', 'opening_hours': 'Mo-Fr 08:30-20:00; Sa,Su 08:00-15:00; PH off', 'phone': '+225-21 30 10 64', 'shop': 'chemist', 'source': 'survey'}}"
"{'type': 'node', 'id': 3043894394, 'lat': 5.2085565, 'lon': -3.7346051, 'tags': {'addr:city': 'Grand Bassam', 'addr:country': 'CI', 'addr:street': 'Boulevard Félix Houphouët Boigny', 'amenity': 'pharmacy', 'dispensing': 'yes', 'healthcare': 'pharmacy', 'name': 'Pharmacie Saint Amans', 'opening_hours': 'Mo-Fr 08:30-20:00; Sa,Su 08:00-15:00; PH off', 'phone': '+225-21 30 11 35', 'shop': 'chemist', 'source': 'survey'}}"
"{'type': 'node', 'id': 3145619025, 'lat': 5.7981039, 'lon': -3.1388312, 'tags': {'amenity': 'pharmacy', 'dispensing': 'yes', 'healthcare': 'pharmacy', 'name': 'Pharmacie de Yaou'}}"
"{'type': 'node', 'id': 3152313936, 'lat': 5.2113916, 'lon': -3.7371528, 'tags': {'amenity': 'clinic', 'emergency': 'yes', 'healthcare': 'clinic', 'name': ""Centre Médical M'Baphouet""}}"
"{'type': 'node', 'id': 3296328683, 'lat': 5.2409567, 'lon': -3.6329284, 'tags': {'amenity': 'clinic', 'healthcare': 'clinic', 'name': 'Centre de Santé Yaou'}}"
"{'type': 'node', 'id': 3296490790, 'lat': 5.2444359, 'lon': -3.6295055, 'tags': {'amenity': 'clinic', 'healthcare': 'clinic', 'name': 'Kassidy'}}"
"{'type': 'node', 'id': 3509960569, 'lat': 5.4735005, 'lon': -3.8007998, 'tags': {'amenity': 'clinic', 'healthcare': 'clinic', 'name': 'Dispensaire Rural'}}"
"{'type': 'node', 'id': 3652004134, 'lat': 5.2158367, 'lon': -3.7405218, 'tags': {'addr:city': 'Grand Bassam', 'addr:country': 'CI', 'amenity': 'pharmacy', 'dispensing': 'yes', 'healthcare': 'pharmacy', 'name': 'Pharmacie Yélé', 'opening_hours': 'Mo-Fr 08:30-20:00; Sa,Su 08:00-15:00; PH off', 'phone': '+225 2130 26 85', 'source': 'survey'}}"
"{'type': 'node', 'id': 3652855356, 'lat': 5.2056478, 'lon': -3.7356447, 'tags': {'addr:city': 'Grand Bassam', 'addr:country': 'CI', 'amenity': 'pharmacy', 'dispensing': 'yes', 'healthcare': 'pharmacy', 'name': 'Pharmacie du Marché', 'opening_hours': 'Mo-Fr 08:30-20:00; Sa,Su 08:00-15:00; PH off', 'phone': '+225 21 30 18 13', 'source': 'survey'}}"
"{'type': 'node', 'id': 3654402847, 'lat': 5.2079501, 'lon': -3.7325402, 'tags': {'amenity': 'clinic', 'healthcare': 'clinic', 'name': 'Clinique Tortues'}}"
"{'type': 'node', 'id': 3657938633, 'lat': 5.2112228, 'lon': -3.7544523, 'tags': {'addr:city': 'Grand Bassam', 'addr:country': 'CI', 'amenity': 'pharmacy', 'dispensing': 'yes', 'healthcare': 'pharmacy', 'name': 'Pharmacie de la Cathédrale', 'opening_hours': 'Mo-Fr 08:30-20:00; Sa,Su 08:00-15:00; PH off', 'source': 'survey'}}"
"{'type': 'node', 'id': 3720980721, 'lat': 5.2103585, 'lon': -3.7314743, 'tags': {'amenity': 'doctors', 'healthcare': 'doctor', 'name': 'Cabinet Médical Kounougbe'}}"
"{'type': 'node', 'id': 3737692096, 'lat': 5.2217178, 'lon': -3.7261136, 'tags': {'addr:city': 'Grand Bassam', 'addr:country': 'CI', 'amenity': 'pharmacy', 'dispensing': 'yes', 'healthcare': 'pharmacy', 'name': 'Pharmacie le Réel', 'opening_hours': 'Mo-Fr 08:30-20:00; Sa,Su 08:00-15:00; PH off', 'phone': '+225 21 30 33 47', 'source': 'survey'}}"
"{'type': 'node', 'id': 3750010235, 'lat': 5.2195746, 'lon': -3.7436921, 'tags': {'amenity': 'clinic', 'healthcare': 'clinic', 'name': 'Clinique Esther de Grand-Bassam'}}"
"{'type': 'node', 'id': 3916605797, 'lat': 5.196317, 'lon': -3.7397185, 'tags': {'amenity': 'clinic', 'healthcare': 'clinic', 'name': 'Dispensaire Medico-Scolaire', 'source': 'bing;survey'}}"
"{'type': 'node', 'id': 3929741005, 'lat': 5.2077096, 'lon': -3.7384967, 'tags': {'amenity': 'clinic', 'healthcare': 'clinic', 'name': 'Cabinet Médical La Rose'}}"
"{'type': 'node', 'id': 3929762002, 'lat': 5.2080895, 'lon': -3.7388887, 'tags': {'addr:city': 'Grand Bassam', 'addr:country': 'CI', 'amenity': 'pharmacy', 'dispensing': 'yes', 'healthcare': 'pharmacy', 'name': 'Pharmacie Wassia', 'opening_hours': 'Mo-Fr 08:30-20:00; Sa,Su 08:00-15:00; PH off', 'phone': '+225 21 30 17 94', 'source': 'survey'}}"
"{'type': 'node', 'id': 3932121197, 'lat': 5.2105395, 'lon': -3.7347917, 'tags': {'amenity': 'doctors', 'healthcare': 'doctor', 'name': 'Centre de Soins de la rue Mockey'}}"
"{'type': 'node', 'id': 3995848557, 'lat': 5.2142749, 'lon': -3.730917, 'tags': {'amenity': 'doctors', 'healthcare': 'doctor', 'name': 'PMI Grand-Bassam'}}"
"{'type': 'node', 'id': 4000853778, 'lat': 5.3533067, 'lon': -3.8775397, 'tags': {'amenity': 'pharmacy', 'healthcare': 'pharmacy'}}"
"{'type': 'node', 'id': 4196918167, 'lat': 5.271157, 'lon': -3.5950912, 'tags': {'amenity': 'pharmacy', 'dispensing': 'yes', 'healthcare': 'pharmacy', 'name': ""Pharmacie de l'Oree""}}"
"{'type': 'node', 'id': 4196918168, 'lat': 5.2693455, 'lon': -3.5969774, 'tags': {'amenity': 'pharmacy', 'dispensing': 'yes', 'healthcare': 'pharmacy', 'name': 'Pharmacie Eden'}}"
"{'type': 'node', 'id': 4257896778, 'lat': 5.2923559, 'lon': -2.7926518, 'tags': {'amenity': 'pharmacy', 'healthcare': 'pharmacy', 'name': 'Pharmacie Slalom', 'projet:eboci': 'yes'}}"
"{'type': 'node', 'id': 4743943870, 'lat': 5.2732678, 'lon': -3.5904562, 'tags': {'amenity': 'pharmacy', 'healthcare': 'pharmacy', 'name': 'Pharmacie de Bonoua'}}"
"{'type': 'node', 'id': 4743943901, 'lat': 5.2660324, 'lon': -3.5990446, 'tags': {'amenity': 'pharmacy', 'dispensing': 'yes', 'healthcare': 'pharmacy', 'name': 'Pharmacie Ebenezer'}}"
"{'type': 'node', 'id': 4940322222, 'lat': 5.3830334, 'lon': -3.3901957, 'tags': {'amenity': 'hospital', 'fixme': 'confirm location', 'healthcare': 'hospital', 'name': 'District sanitaire Aboisso', 'name:fr': 'District sanitaire Aboisso'}}"
"{'type': 'node', 'id': 5037866223, 'lat': 5.2153612, 'lon': -3.7780427, 'tags': {'addr:city': 'Grand Bassam', 'addr:country': 'CI', 'amenity': 'pharmacy', 'dispensing': 'yes', 'healthcare': 'pharmacy', 'name': 'Pharmacie JLog', 'opening_hours': 'Mo-Fr 08:30-20:00; Sa,Su 08:00-15:00; PH off', 'source': 'survey'}}"
"{'type': 'node', 'id': 5037866621, 'lat': 5.2150589, 'lon': -3.7645118, 'tags': {'addr:city': 'Grand Bassam', 'addr:country': 'CI', 'amenity': 'pharmacy', 'dispensing': 'yes', 'healthcare': 'pharmacy', 'name': 'Pharmacie Mockeyville', 'opening_hours': 'Mo-Fr 08:30-20:00; Sa,Su 08:00-15:00; PH off', 'phone': '+225 07 36 42 40', 'source': 'survey'}}"
"{'type': 'node', 'id': 5037912939, 'lat': 5.1972074, 'lon': -3.7373042, 'tags': {'addr:city': 'Grand Bassam', 'addr:country': 'CI', 'amenity': 'pharmacy', 'dispensing': 'yes', 'healthcare': 'pharmacy', 'name': 'Pharmacie Quartier France', 'opening_hours': 'Mo-Fr 08:30-20:00; Sa,Su 08:00-15:00; PH off', 'phone': '+225 21 31 21 83', 'source': 'survey'}}"
"{'type': 'node', 'id': 5107401322, 'lat': 5.2202406, 'lon': -3.7340325, 'tags': {'amenity': 'pharmacy', 'healthcare': 'pharmacy', 'name': 'Pharmacie Sainte Eunice', 'name:fr': 'Pharmacie Sainte Eunice'}}"
"{'type': 'node', 'id': 5205035445, 'lat': 5.1665054, 'lon': -3.4756579, 'tags': {'amenity': 'doctors', 'healthcare': 'doctor', 'name': 'Centre de santé rural d’Assouindé'}}"
"{'type': 'node', 'id': 5989574455, 'lat': 5.4719136, 'lon': -3.1999119, 'tags': {'amenity': 'pharmacy', 'healthcare': 'pharmacy', 'name': 'Pharmacie rive gauche'}}"
"{'type': 'node', 'id': 5991262064, 'lat': 5.4692768, 'lon': -3.2075017, 'tags': {'amenity': 'pharmacy', 'healthcare': 'pharmacy', 'name': 'Pharmacie du Sanwi'}}"
"{'type': 'node', 'id': 6012012345, 'lat': 5.4668816, 'lon': -3.2066592, 'tags': {'amenity': 'pharmacy', 'healthcare': 'pharmacy', 'name': 'Pharmacie Divine Miséricorde'}}"
"{'type': 'node', 'id': 6031286685, 'lat': 5.1495652, 'lon': -3.1229042, 'tags': {'amenity': 'pharmacy', 'healthcare': 'pharmacy', 'name': 'Depot de pharmacie'}}"
"{'type': 'node', 'id': 6137061184, 'lat': 6.1036408, 'lon': -3.8615018, 'tags': {'amenity': 'clinic', 'healthcare': 'clinic', 'name': 'Centre de santé scolaire et universitaire'}}"
"{'type': 'node', 'id': 6358599865, 'lat': 5.4717213, 'lon': -3.2050668, 'tags': {'amenity': 'pharmacy', 'healthcare': 'pharmacy', 'name': 'Pharmacie Sokoura'}}"
"{'type': 'node', 'id': 6358599866, 'lat': 5.4673331, 'lon': -3.2091397, 'tags': {'amenity': 'pharmacy', 'healthcare': 'pharmacy', 'name': 'Pharmacie de la Bia'}}"
"{'type': 'node', 'id': 6482115856, 'lat': 6.0929274, 'lon': -3.8640203, 'tags': {'amenity': 'pharmacy', 'healthcare': 'pharmacy', 'name': 'Pharmacie ADZOPE'}}"
"{'type': 'node', 'id': 6691707090, 'lat': 5.1817291, 'lon': -3.1778149, 'tags': {'amenity': 'pharmacy', 'healthcare': 'pharmacy', 'name': ""Dépôt de produit pharmaceutique d'Akounougbé""}}"
"{'type': 'node', 'id': 6717961127, 'lat': 5.1371572, 'lon': -3.2898239, 'tags': {'description': 'Maternité public', 'healthcare': 'centre', 'name': ""Maternité d'Assinie-Mafia""}}"
"{'type': 'node', 'id': 6781230299, 'lat': 5.2730049, 'lon': -3.5982138, 'tags': {'amenity': 'pharmacy', 'healthcare': 'pharmacy', 'name': 'Pharmacie Grand marché'}}"
"{'type': 'node', 'id': 7321882985, 'lat': 5.2868169, 'lon': -2.7713319, 'tags': {'addr:postcode': '00233', 'amenity': 'clinic', 'healthcare': 'clinic', 'name': 'Elubo Health Center', 'opening_hours': '24/7'}}"
"{'type': 'node', 'id': 7325200485, 'lat': 5.290174, 'lon': -2.7774759, 'tags': {'addr:housenumber': 'A/25', 'addr:postcode': '00233', 'addr:street': 'Takoradi Station', 'amenity': 'pharmacy', 'healthcare': 'pharmacy', 'name': 'Hands of God (Thomas Voduh Mensah)', 'opening_hours': 'Mo-Sa 07:00-20:00', 'operator': 'Vincent Akakpo Voduh', 'phone': '+233243246134'}}"
"{'type': 'node', 'id': 7325282485, 'lat': 5.2906085, 'lon': -2.7775193, 'tags': {'addr:housenumber': 'K79', 'addr:postcode': '00233', 'addr:street': 'Main Street', 'amenity': 'pharmacy', 'healthcare': 'pharmacy', 'name': 'Armstrong Ampontuah', 'opening_hours': 'Mo-Su 09:00-18:00', 'operator': 'Armstrong Ampontuah'}}"
"{'type': 'node', 'id': 7325296085, 'lat': 5.2897445, 'lon': -2.7786723, 'tags': {'addr:postcode': '00233', 'addr:street': 'N1 Highway', 'amenity': 'pharmacy', 'email': 'maryarkoh44@gmail.com', 'healthcare': 'pharmacy', 'name': 'Phinas Pharmacy', 'opening_hours': 'Mo-Sa 07:00-18:00', 'operator': 'Freda Bonifacio', 'phone': '+233501289994'}}"
"{'type': 'node', 'id': 7325524085, 'lat': 5.2924486, 'lon': -2.7767363, 'tags': {'addr:postcode': '00233', 'addr:street': '4 corners', 'amenity': 'pharmacy', 'healthcare': 'pharmacy', 'name': '4 Corners Herbal Centre', 'opening_hours': 'Mo-Su 06:00-21:00', 'operator': 'Adjaloo', 'phone': '+233570855335'}}"
"{'type': 'node', 'id': 7325524185, 'lat': 5.2927949, 'lon': -2.7772182, 'tags': {'addr:postcode': '00233', 'addr:street': '4 corners', 'amenity': 'pharmacy', 'healthcare': 'pharmacy', 'name': 'Joseph Amoah Pharmacy', 'opening_hours': 'Mo-Sa 07:00-21:00', 'operator': 'Joseph Amoah', 'phone': '+233248162626'}}"
"{'type': 'node', 'id': 7325598086, 'lat': 5.2916319, 'lon': -2.7770656, 'tags': {'addr:housenumber': '56/13', 'addr:postcode': '00233', 'addr:street': 'Gyinakro main road', 'amenity': 'pharmacy', 'healthcare': 'pharmacy', 'name': 'Albert A. Arma', 'name:en': 'Albert A. Arma pharmacy', 'opening_hours': 'Mo-Sa 07:30-21:00', 'operator': 'Albert A. Arma', 'phone': '+233248031826'}}"
"{'type': 'node', 'id': 7325598087, 'lat': 5.2915113, 'lon': -2.7759331, 'tags': {'addr:postcode': '00233', 'addr:street': '18 street', 'amenity': 'pharmacy', 'healthcare': 'pharmacy', 'name': ""God's Time Chemicals -Michael Ansah Sagu"", 'opening_hours': 'Mo-Su 07:00-19:00', 'operator': 'Michael Ansah Sagu', 'phone': '+233243779393'}}"
"{'type': 'node', 'id': 7325610485, 'lat': 5.2916478, 'lon': -2.7746813, 'tags': {'addr:postcode': '00233', 'addr:street': 'Daadwene', 'amenity': 'pharmacy', 'healthcare': 'pharmacy', 'name': 'James Nyianle Kwaw', 'opening_hours': 'Mo-Sa 07:00-21:00', 'operator': 'James Nyianle Kwaw', 'phone': '+233242899944'}}"
"{'type': 'node', 'id': 7325629085, 'lat': 5.2907287, 'lon': -2.7773463, 'tags': {'addr:housenumber': 'E/77', 'addr:postcode': '00233', 'addr:street': 'Main Street', 'amenity': 'pharmacy', 'healthcare': 'pharmacy', 'name': 'Nyankson Amihere', 'operator': 'Mary Armah', 'phone': '+233540892740'}}"
"{'type': 'node', 'id': 7325629086, 'lat': 5.2908988, 'lon': -2.7772525, 'tags': {'addr:postcode': '00233', 'addr:street': 'Main Street', 'amenity': 'pharmacy', 'healthcare': 'pharmacy', 'name': 'Danfoss chemicals', 'opening_hours': 'Mo-Su 08:00-22:00', 'operator': 'Frank Asirifi', 'phone': '+233244117817'}}"
"{'type': 'node', 'id': 7325629087, 'lat': 5.2919803, 'lon': -2.7712444, 'tags': {'addr:postcode': '00233', 'addr:street': 'Zongo street', 'amenity': 'pharmacy', 'healthcare': 'pharmacy', 'name': 'Thomas Amonle Pharmacy', 'opening_hours': 'Mo-Sa 07:00-22:00', 'operator': 'Thomas Amonle', 'phone': '+233248960067'}}"
"{'type': 'node', 'id': 7329467685, 'lat': 5.289648, 'lon': -2.7782106, 'tags': {'addr:postcode': '00233', 'addr:street': 'N1 Highway', 'amenity': 'pharmacy', 'healthcare': 'pharmacy', 'name': ""St. Martin's Chemists"", 'opening_hours': 'Mo-Sa 07:00-18:00', 'operator': 'Martin Ackah', 'phone': '+233244182114'}}"
"{'type': 'node', 'id': 7329666985, 'lat': 5.2882138, 'lon': -2.7717155, 'tags': {'addr:postcode': '00233', 'addr:street': 'N1 Highway', 'amenity': 'pharmacy', 'healthcare': 'pharmacy', 'name': 'Agnes Allah Pharmacy', 'operator': 'Agnes Allah'}}"
"{'type': 'node', 'id': 7329667185, 'lat': 5.2894878, 'lon': -2.7748077, 'tags': {'addr:postcode': '00233', 'addr:street': 'N1 Highway', 'amenity': 'clinic', 'email': 'adjeiotubuah@yahoo.com', 'healthcare': 'clinic', 'name': 'Frontier Clinic', 'opening_hours': '24/7', 'phone': '+233207378531/+233547419641'}}"
"{'type': 'node', 'id': 7329793485, 'lat': 5.2900437, 'lon': -2.7773217, 'tags': {'addr:postcode': '00233', 'amenity': 'pharmacy', 'email': 'vins2020@yahoo.com', 'healthcare': 'pharmacy', 'name': 'Vins Pharmacy', 'opening_hours': 'Mo-Sa 08:00-20:00', 'phone': '+233244408593'}}"
"{'type': 'node', 'id': 7526020496, 'lat': 5.2150963, 'lon': -3.7645044, 'tags': {'amenity': 'hospital', 'email': 'cmsaintefamille@outlook.fr', 'healthcare': 'hospital', 'name': 'Centre Médical Sainte Famille de Grand-Bassam', 'phone': '+22588895460', 'short_name': 'CMSF de Grand-Bassam'}}"
"{'type': 'node', 'id': 7528846835, 'lat': 5.2381678, 'lon': -3.7695826, 'tags': {'amenity': 'doctors', 'healthcare': 'doctor', 'name': 'Centre de Santé Social la Patience'}}"
"{'type': 'node', 'id': 7528863333, 'lat': 5.2403858, 'lon': -3.7715124, 'tags': {'amenity': 'clinic', 'healthcare': 'clinic', 'name': 'Centre de Santé Rural de Vitré 1'}}"
"{'type': 'node', 'id': 7600226974, 'lat': 5.0626406, 'lon': -2.7766584, 'tags': {'amenity': 'pharmacy', 'dispensing': 'yes', 'healthcare': 'pharmacy'}}"
"{'type': 'node', 'id': 7600226975, 'lat': 5.0629333, 'lon': -2.7771963, 'tags': {'amenity': 'pharmacy', 'dispensing': 'yes', 'healthcare': 'pharmacy'}}"
"{'type': 'node', 'id': 7604620838, 'lat': 5.2196333, 'lon': -3.7284063, 'tags': {'amenity': 'hospital', 'healthcare': 'hospital', 'name': 'Centre Médical Kine Fatima', 'phone': '+22521312255'}}"
"{'type': 'node', 'id': 7604634290, 'lat': 5.1962576, 'lon': -3.7393996, 'tags': {'amenity': 'doctors', 'healthcare': 'doctor', 'name': 'Dispensaire Urbain Grand-Bassam'}}"
"{'type': 'node', 'id': 7706543085, 'lat': 4.9832476, 'lon': -2.5690692, 'tags': {'amenity': 'clinic', 'name': 'Ekebaku Health Centre', 'operator': 'GHS'}}"
"{'type': 'node', 'id': 7746284986, 'lat': 5.0756155, 'lon': -2.5424768, 'tags': {'amenity': 'hospital', 'name': 'Nzema Baptist Hospital'}}"
"{'type': 'node', 'id': 7986952118, 'lat': 5.285663, 'lon': -3.3042819, 'tags': {'amenity': 'pharmacy', 'healthcare': 'pharmacy', 'name': 'Pharmacie Moderne'}}"
"{'type': 'node', 'id': 7986953004, 'lat': 5.2855839, 'lon': -3.3022918, 'tags': {'amenity': 'pharmacy', 'healthcare': 'pharmacy'}}"
"{'type': 'node', 'id': 7986953886, 'lat': 5.2953928, 'lon': -3.3820968, 'tags': {'amenity': 'hospital', 'healthcare': 'hospital', 'name': 'Dispensaire'}}"
"{'type': 'node', 'id': 8004280389, 'lat': 5.2438561, 'lon': -3.6277836, 'tags': {'amenity': 'pharmacy', 'healthcare': 'pharmacy', 'name': 'Pharmacie de Yaou'}}"
"{'type': 'node', 'id': 8015037289, 'lat': 5.8226662, 'lon': -2.8213036, 'tags': {'addr:street': 'Nana Brentu Road', 'amenity': 'pharmacy', 'name': 'Richard Kokah Pharmacy'}}"
"{'type': 'node', 'id': 8034197712, 'lat': 5.8157087, 'lon': -2.8256604, 'tags': {'amenity': 'clinic', 'name': 'Forever Homeopathic Clinic'}}"
"{'type': 'node', 'id': 8048887331, 'lat': 5.8215851, 'lon': -2.8225803, 'tags': {'addr:street': 'Annor Assemah High Street', 'amenity': 'pharmacy', 'name': 'Prince Obour Mintah Pharmacy'}}"
"{'type': 'node', 'id': 8048899892, 'lat': 5.8229612, 'lon': -2.8240147, 'tags': {'addr:street': 'Tanoku Avenue', 'amenity': 'pharmacy', 'name': 'Rose Arthur Pharmacy'}}"
"{'type': 'node', 'id': 8074392117, 'lat': 5.8218406, 'lon': -2.8237813, 'tags': {'amenity': 'pharmacy'}}"
"{'type': 'node', 'id': 8118538710, 'lat': 5.7764802, 'lon': -2.661228, 'tags': {'amenity': 'clinic', 'name': 'Yonkofa Health Center'}}"
"{'type': 'node', 'id': 8172242763, 'lat': 5.8301622, 'lon': -2.8206659, 'tags': {'healthcare': 'laboratory'}}"
"{'type': 'node', 'id': 8172265680, 'lat': 5.8300308, 'lon': -2.8215024, 'tags': {'healthcare': 'laboratory', 'name': 'X-Ray Unit'}}"
"{'type': 'node', 'id': 8172266644, 'lat': 5.8299998, 'lon': -2.8209091, 'tags': {'amenity': 'pharmacy'}}"
"{'type': 'node', 'id': 8172267752, 'lat': 5.808526, 'lon': -2.8342435, 'tags': {'addr:street': 'D.C. Binney Road', 'amenity': 'clinic', 'name': 'Presbyterian Health Service Enchi'}}"
"{'type': 'node', 'id': 8172268372, 'lat': 5.8301637, 'lon': -2.8209346, 'tags': {'healthcare': 'optometrist', 'name': 'Eye Unit'}}"
"{'type': 'node', 'id': 8199137379, 'lat': 5.8226513, 'lon': -2.8220206, 'tags': {'amenity': 'pharmacy', 'name': 'Anthony Evans Nyankey', 'phone': '0553031724, 0205836090'}}"
"{'type': 'node', 'id': 8207694287, 'lat': 5.8216526, 'lon': -2.8216197, 'tags': {'addr:street': 'Annor Assemah High Street', 'amenity': 'pharmacy', 'name': 'Excora Pharmacy Limited', 'phone': '0244511969, 0267476141, 0267613880'}}"
"{'type': 'node', 'id': 8229510141, 'lat': 5.8215717, 'lon': -2.8202937, 'tags': {'amenity': 'pharmacy', 'name': 'Johnson Mensah Good Name'}}"
"{'type': 'node', 'id': 8246313534, 'lat': 5.7719154, 'lon': -2.7441694, 'tags': {'amenity': 'pharmacy'}}"
"{'type': 'node', 'id': 8246333074, 'lat': 5.6153356, 'lon': -2.7332271, 'tags': {'amenity': 'clinic'}}"
"{'type': 'node', 'id': 8246649241, 'lat': 5.6100278, 'lon': -2.7341031, 'tags': {'amenity': 'pharmacy'}}"
"{'type': 'node', 'id': 8370087740, 'lat': 5.8341252, 'lon': -2.665354, 'tags': {'amenity': 'clinic'}}"
"{'type': 'node', 'id': 8455777021, 'lat': 6.0751691, 'lon': -3.409682, 'tags': {'amenity': 'pharmacy', 'healthcare': 'pharmacy', 'name': 'Nouvelle Pharmacie de Bettié'}}"
"{'type': 'node', 'id': 8872464572, 'lat': 5.1351585, 'lon': -3.0242051, 'tags': {'amenity': 'hospital', 'healthcare': 'hospital', 'name': 'Hôpital général de Tiapoum'}}"
"{'type': 'node', 'id': 8872517526, 'lat': 5.1434752, 'lon': -3.0197053, 'tags': {'amenity': 'pharmacy', 'healthcare': 'pharmacy', 'name': 'Pharmacie Ste Marie Madeleine'}}"
"{'type': 'node', 'id': 8879397818, 'lat': 5.4716067, 'lon': -3.2047871, 'tags': {'amenity': 'hospital', 'healthcare': 'hospital', 'name': 'Clinique Médicale Source de Vie'}}"
"{'type': 'node', 'id': 8901553065, 'lat': 5.1353244, 'lon': -3.0243824, 'tags': {'amenity': 'hospital', 'healthcare': 'hospital', 'name': 'District Sanitaire de Tiapoum'}}"
"{'type': 'node', 'id': 10042451797, 'lat': 5.5015044, 'lon': -3.6619938, 'tags': {'amenity': 'pharmacy', 'healthcare': 'pharmacy', 'name': 'Pharmacie d’Alépé'}}"
"{'type': 'node', 'id': 10081390248, 'lat': 5.4648931, 'lon': -3.2097265, 'tags': {'amenity': 'pharmacy', 'healthcare': 'pharmacy', 'name': 'Pharmacie Divine Miséricorde'}}"
"{'type': 'node', 'id': 10098462068, 'lat': 5.8038321, 'lon': -2.8246973, 'tags': {'amenity': 'clinic', 'name': 'Amen Scientific Herbal Clinic'}}"
"{'type': 'node', 'id': 10127308867, 'lat': 5.8275088, 'lon': -2.8205674, 'tags': {'amenity': 'clinic'}}"
"{'type': 'node', 'id': 10675090382, 'lat': 5.8225908, 'lon': -2.8264371, 'tags': {'amenity': 'pharmacy', 'name': 'Enuko Princella'}}"
"{'type': 'node', 'id': 10675101359, 'lat': 5.7842722, 'lon': -2.7227839, 'tags': {'amenity': 'clinic', 'name': 'Achimfo Chips'}}"
"{'type': 'node', 'id': 10913198187, 'lat': 5.6933633, 'lon': -2.653375, 'tags': {'amenity': 'clinic'}}"
"{'type': 'node', 'id': 11279539060, 'lat': 6.1020832, 'lon': -3.856507, 'tags': {'amenity': 'pharmacy', 'healthcare': 'pharmacy', 'name': 'Pharmacie Eureka'}}"
"{'type': 'node', 'id': 11381899400, 'lat': 5.281502, 'lon': -3.5138884, 'tags': {'amenity': 'hospital', 'healthcare': 'hospital', 'name': 'Dispensaire'}}"
"{'type': 'node', 'id': 11938935488, 'lat': 5.3936493, 'lon': -3.4019133, 'tags': {'amenity': 'pharmacy', 'healthcare': 'pharmacy', 'name': ""Divin-amour de N'Zikro""}}"
"{'type': 'node', 'id': 11938949694, 'lat': 5.4248962, 'lon': -3.2666728, 'tags': {'amenity': 'hospital', 'healthcare': 'hospital', 'name': ""Centre de santé d'Adaou""}}"
"{'type': 'node', 'id': 11938950938, 'lat': 5.4102859, 'lon': -3.3508021, 'tags': {'amenity': 'hospital', 'healthcare': 'hospital', 'name': 'Centre de santé de Babadougou'}}"
"{'type': 'node', 'id': 11938960181, 'lat': 5.3938776, 'lon': -3.3971386, 'tags': {'amenity': 'hospital', 'healthcare': 'hospital', 'name': ""Centre de santé rural de N'Zikro""}}"
"{'type': 'node', 'id': 12063738444, 'lat': 5.2110094, 'lon': -3.7679474, 'tags': {'amenity': 'pharmacy', 'healthcare': 'pharmacy', 'name': 'Pharmacie Mockey Ville'}}"
