OSM_Data
"{'type': 'node', 'id': 904654559, 'lat': 8.1348317, 'lon': -72.9600911, 'tags': {'amenity': 'pharmacy'}}"
"{'type': 'node', 'id': 925551548, 'lat': 8.2370782, 'lon': -73.3527336, 'tags': {'amenity': 'hospital', 'name': 'E.P.S. Sanitas'}}"
"{'type': 'node', 'id': 986933262, 'lat': 8.0824022, 'lon': -73.2204181, 'tags': {'amenity': 'pharmacy'}}"
"{'type': 'node', 'id': 992013819, 'lat': 8.2148133, 'lon': -73.2375849, 'tags': {'amenity': 'hospital'}}"
"{'type': 'node', 'id': 992103796, 'lat': 8.2340293, 'lon': -73.3537728, 'tags': {'amenity': 'pharmacy', 'name': 'Drogas La Rebaja'}}"
"{'type': 'node', 'id': 3630157275, 'lat': 8.2396766, 'lon': -73.3532718, 'tags': {'addr:city': 'Ocaña', 'addr:housenumber': '16A 11 45', 'amenity': 'clinic', 'name': 'CONFESALUD IPS', 'opening_hours': 'Mo-Fr 06:30-18:00'}}"
"{'type': 'node', 'id': 3952399432, 'lat': 7.968241, 'lon': -74.0470229, 'tags': {'addr:housenumber': '20 A', 'addr:street': 'Calle 13', 'amenity': 'hospital', 'name': 'E.S.E. Hospital Manuel Elkin Patarroyo', 'phone': '+57 5 5697400', 'phone1': '+57 5 5697288', 'website': 'http://esemanuelelkinpatarroyo.gov.co/'}}"
"{'type': 'node', 'id': 4184085595, 'lat': 7.7230591, 'lon': -73.4646336, 'tags': {'amenity': 'hospital', 'name': 'piscina restaurante'}}"
"{'type': 'node', 'id': 4552584396, 'lat': 8.2362665, 'lon': -73.3522564, 'tags': {'amenity': 'clinic', 'name': 'NUESTRA SEÑORA DE TORCOROMA', 'name:es': 'NUESTRA SEÑORA DE TORCOROMA'}}"
"{'type': 'node', 'id': 4882516421, 'lat': 8.2514475, 'lon': -73.3587614, 'tags': {'amenity': 'doctors', 'healthcare': 'doctor', 'name': 'Comparta', 'name:es': 'Comparta'}}"
"{'type': 'node', 'id': 4986555022, 'lat': 8.2370913, 'lon': -73.3522641, 'tags': {'amenity': 'clinic', 'name': 'Clínica torcoroma', 'name:es': 'Clínica torcoroma'}}"
"{'type': 'node', 'id': 6018151226, 'lat': 8.5900829, 'lon': -73.8407388, 'tags': {'amenity': 'hospital', 'healthcare': 'hospital', 'name': 'Clínica Servimédica'}}"
"{'type': 'node', 'id': 6018151371, 'lat': 8.5883404, 'lon': -73.8397973, 'tags': {'amenity': 'hospital', 'healthcare': 'hospital', 'name': 'Hospital Local La Candelaria'}}"
"{'type': 'node', 'id': 6047849187, 'lat': 8.2241094, 'lon': -73.3366753, 'tags': {'amenity': 'pharmacy', 'dispensing': 'yes', 'drive_through': 'yes', 'name': 'Droguería Nueva Madrid'}}"
"{'type': 'node', 'id': 6237062490, 'lat': 8.3089352, 'lon': -73.6046297, 'tags': {'amenity': 'hospital', 'healthcare': 'hospital', 'name': 'Regional Jose padilla villafañe'}}"
"{'type': 'node', 'id': 7688224466, 'lat': 8.2360959, 'lon': -73.3541742, 'tags': {'amenity': 'pharmacy', 'dispensing': 'yes', 'healthcare': 'pharmacy'}}"
"{'type': 'node', 'id': 7688224467, 'lat': 8.2357695, 'lon': -73.3543083, 'tags': {'amenity': 'pharmacy', 'dispensing': 'yes', 'healthcare': 'pharmacy'}}"
"{'type': 'node', 'id': 7688224468, 'lat': 8.2358386, 'lon': -73.3543502, 'tags': {'healthcare': 'laboratory'}}"
"{'type': 'node', 'id': 8917236817, 'lat': 8.3079315, 'lon': -73.616031, 'tags': {'amenity': 'clinic', 'name': 'LABORATORIO CAPELLA I.P.S. S.A.S.'}}"
"{'type': 'node', 'id': 9263833095, 'lat': 8.2314069, 'lon': -73.3547301, 'tags': {'healthcare': 'laboratory', 'name': 'DR PROSALUD'}}"
"{'type': 'node', 'id': 9263871678, 'lat': 8.2307746, 'lon': -73.3550774, 'tags': {'amenity': 'hospital', 'healthcare': 'hospital', 'name': 'Cruz Roja', 'operator': 'Cruz Roja', 'operator:wikidata': 'Q7178', 'operator:wikipedia': 'es:Cruz Roja'}}"
"{'type': 'node', 'id': 9263916919, 'lat': 8.2311689, 'lon': -73.3548229, 'tags': {'amenity': 'pharmacy', 'dispensing': 'yes', 'healthcare': 'pharmacy', 'name': 'Droguería San Francisco'}}"
"{'type': 'node', 'id': 9264004562, 'lat': 8.233498, 'lon': -73.3539215, 'tags': {'amenity': 'pharmacy', 'dispensing': 'yes', 'healthcare': 'pharmacy', 'name': 'Droguería X'}}"
"{'type': 'node', 'id': 9281643382, 'lat': 8.2554403, 'lon': -73.3594039, 'tags': {'amenity': 'dentist', 'healthcare': 'dentist'}}"
"{'type': 'node', 'id': 10002172051, 'lat': 8.4210003, 'lon': -74.2518166, 'tags': {'amenity': 'pharmacy', 'dispensing': 'yes', 'healthcare': 'pharmacy', 'name': 'Drogas La Mano Poderosa', 'opening_hours': '24/7', 'operator': 'Rober Castillo'}}"
"{'type': 'node', 'id': 10003525343, 'lat': 8.5569401, 'lon': -74.2671871, 'tags': {'amenity': 'hospital', 'healthcare': 'hospital', 'name': 'Hospital San Juan De Puerto Rico'}}"
"{'type': 'node', 'id': 10112802017, 'lat': 7.7603975, 'lon': -73.3956653, 'tags': {'amenity': 'hospital', 'name': 'Hospital Lázaro Alfonzo Hernández Lara'}}"
"{'type': 'node', 'id': 11251917690, 'lat': 8.5172475, 'lon': -73.4470501, 'tags': {'amenity': 'hospital', 'healthcare': 'hospital', 'name': 'Hospital Regional Noroccidental'}}"
