OSM_Data
"{'type': 'node', 'id': 1080973829, 'lat': -21.7734424, 'lon': -43.3706945, 'tags': {'amenity': 'pharmacy', 'healthcare': 'pharmacy', 'name': 'Farmácia Universitária'}}"
"{'type': 'node', 'id': 1341286680, 'lat': -21.7636259, 'lon': -43.3442313, 'tags': {'amenity': 'hospital', 'name': 'Hospital 9 de Julho'}}"
"{'type': 'node', 'id': 1341286693, 'lat': -21.7639199, 'lon': -43.3441509, 'tags': {'amenity': 'hospital', 'name': 'Hospital Oncológico'}}"
"{'type': 'node', 'id': 1756773165, 'lat': -22.3984312, 'lon': -42.9607314, 'tags': {'addr:housenumber': '2211', 'addr:postcode': '25976-016', 'addr:street': 'Avenida Delfim Moreira', 'amenity': 'hospital', 'healthcare': 'hospital', 'name': 'Hospital das Clínicas de Teresópolis (HCT)', 'operator:ref:vatin': 'BR32190092000106', 'ref:CNES': '2297795', 'ref:vatin': 'BR32190092000378'}}"
"{'type': 'node', 'id': 1766532250, 'lat': -22.4378852, 'lon': -42.979228, 'tags': {'amenity': 'pharmacy', 'healthcare': 'pharmacy', 'name': 'Drogaria Atual'}}"
"{'type': 'node', 'id': 1766556953, 'lat': -22.4370454, 'lon': -42.9791812, 'tags': {'amenity': 'pharmacy', 'healthcare': 'pharmacy', 'name': 'A Original'}}"
"{'type': 'node', 'id': 1769086638, 'lat': -22.410089, 'lon': -42.9686034, 'tags': {'addr:city': 'Teresópolis', 'addr:country': 'BR', 'addr:housenumber': '336', 'addr:postcode': '25953-000', 'addr:state': 'RJ', 'addr:street': 'Rua Francisco Sá', 'amenity': 'clinic', 'building': 'yes', 'healthcare': 'clinic', 'name': 'COT - Clínica de Ortopedia e Traumatologia'}}"
"{'type': 'node', 'id': 1819318967, 'lat': -22.400876, 'lon': -42.978156, 'tags': {'amenity': 'pharmacy', 'name': 'Drogaria Vida & Saúde'}}"
"{'type': 'node', 'id': 2190610805, 'lat': -22.439911, 'lon': -42.9800656, 'tags': {'amenity': 'pharmacy', 'healthcare': 'pharmacy', 'name': 'A Original'}}"
"{'type': 'node', 'id': 2321385860, 'lat': -22.4771632, 'lon': -42.201445, 'tags': {'amenity': 'pharmacy', 'dispensing': 'no', 'healthcare': 'pharmacy', 'name': 'Dimarcio'}}"
"{'type': 'node', 'id': 2333874774, 'lat': -22.4403991, 'lon': -42.98001, 'tags': {'amenity': 'pharmacy', 'healthcare': 'pharmacy', 'name': 'Perfumaria Alpina'}}"
"{'type': 'node', 'id': 2334734130, 'lat': -22.4358948, 'lon': -42.9785421, 'tags': {'amenity': 'clinic', 'healthcare': 'clinic'}}"
"{'type': 'node', 'id': 2334784647, 'lat': -22.4342486, 'lon': -42.9761925, 'tags': {'amenity': 'hospital', 'name': 'Clínica Dr. Gullo'}}"
"{'type': 'node', 'id': 2334796413, 'lat': -22.433723, 'lon': -42.9701897, 'tags': {'amenity': 'clinic', 'name': 'Posto de Saúde do Bairro de Fátima'}}"
"{'type': 'node', 'id': 2474014235, 'lat': -21.7728644, 'lon': -43.3716433, 'tags': {'amenity': 'hospital', 'emergency': 'no', 'name': 'Unidade Básica de Saúde'}}"
"{'type': 'node', 'id': 2474029883, 'lat': -21.7724699, 'lon': -43.3783199, 'tags': {'amenity': 'pharmacy'}}"
"{'type': 'node', 'id': 2474029884, 'lat': -21.7723781, 'lon': -43.372428, 'tags': {'amenity': 'pharmacy'}}"
"{'type': 'node', 'id': 2600625146, 'lat': -22.3666242, 'lon': -42.0697102, 'tags': {'amenity': 'hospital'}}"
"{'type': 'node', 'id': 2610179224, 'lat': -22.479767, 'lon': -42.200136, 'tags': {'amenity': 'hospital', 'healthcare': 'hospital'}}"
"{'type': 'node', 'id': 2661555873, 'lat': -21.5403972, 'lon': -42.1842331, 'tags': {'amenity': 'pharmacy', 'dispensing': 'no', 'healthcare': 'pharmacy', 'name': 'Drogaria Hipefarma'}}"
"{'type': 'node', 'id': 2661555876, 'lat': -21.5400863, 'lon': -42.1844282, 'tags': {'amenity': 'pharmacy', 'dispensing': 'no', 'healthcare': 'pharmacy'}}"
"{'type': 'node', 'id': 2661555888, 'lat': -21.5415345, 'lon': -42.1798678, 'tags': {'amenity': 'pharmacy', 'dispensing': 'no', 'healthcare': 'pharmacy', 'name': 'Farmácia 24h', 'opening_hours': '24/7'}}"
"{'type': 'node', 'id': 2661555892, 'lat': -21.5408939, 'lon': -42.1804671, 'tags': {'amenity': 'pharmacy', 'dispensing': 'no', 'healthcare': 'pharmacy', 'name': 'Farmácia Central'}}"
"{'type': 'node', 'id': 2661555895, 'lat': -21.5434472, 'lon': -42.1815201, 'tags': {'amenity': 'pharmacy', 'dispensing': 'no', 'healthcare': 'pharmacy', 'name': 'Farmácia São Félix'}}"
"{'type': 'node', 'id': 2661555913, 'lat': -21.5376094, 'lon': -42.1813074, 'tags': {'amenity': 'hospital', 'healthcare': 'hospital', 'name': 'Policlínica Dr. Juarez Amaral de Andrade'}}"
"{'type': 'node', 'id': 2887405192, 'lat': -22.4120241, 'lon': -42.9662742, 'tags': {'addr:city': 'Teresópolis', 'addr:street': 'Avenida Delfim Moreira', 'amenity': 'pharmacy', 'healthcare': 'pharmacy', 'name': 'Drogaria A Original', 'opening_hours': '07:00-23:00'}}"
"{'type': 'node', 'id': 2887445139, 'lat': -22.4124655, 'lon': -42.9669447, 'tags': {'addr:city': 'Teresópolis', 'addr:street': 'Avenida Delfim Moreira', 'amenity': 'pharmacy', 'healthcare': 'pharmacy', 'name': 'Drogaria Tamoio', 'opening_hours': '07:00-23:00'}}"
"{'type': 'node', 'id': 2887448455, 'lat': -22.4128946, 'lon': -42.9671882, 'tags': {'addr:city': 'Teresópolis', 'addr:street': 'Avenida Delfim Moreira', 'amenity': 'pharmacy', 'healthcare': 'pharmacy', 'name': 'Drogaria A Original', 'opening_hours': '07:00-23:00'}}"
"{'type': 'node', 'id': 3227114441, 'lat': -21.5366119, 'lon': -43.0133762, 'tags': {'addr:city': 'São João Nepomuceno', 'addr:postcode': '36680000', 'addr:street': 'Praça Carlos Alves', 'addr:suburb': 'Centro', 'amenity': 'pharmacy', 'healthcare': 'pharmacy', 'name': 'Oswaldo Cruz', 'operator': 'Oswaldo Cruz'}}"
"{'type': 'node', 'id': 3379439057, 'lat': -21.9809027, 'lon': -42.3660691, 'tags': {'amenity': 'pharmacy', 'name': 'City Farma'}}"
"{'type': 'node', 'id': 3379439060, 'lat': -21.9810617, 'lon': -42.365459, 'tags': {'amenity': 'pharmacy', 'name': 'Drogaria Rodoviária'}}"
"{'type': 'node', 'id': 3379439076, 'lat': -21.9809817, 'lon': -42.3643106, 'tags': {'amenity': 'pharmacy', 'name': 'Farmácia Carvalho'}}"
"{'type': 'node', 'id': 3500128880, 'lat': -22.2363057, 'lon': -43.1020493, 'tags': {'addr:city': 'Areal', 'addr:housenumber': '94', 'addr:postcode': '25845000', 'addr:street': 'Praça Presidente Castelo Branco', 'addr:suburb': 'Centro', 'amenity': 'pharmacy', 'dispensing': 'yes', 'drive_through': 'no', 'healthcare': 'pharmacy', 'name': 'Farmácia Centro Arealense', 'opening_hours': 'Mo-Sa 08:00-19:00', 'wheelchair': 'limited'}}"
"{'type': 'node', 'id': 3719376432, 'lat': -22.5298162, 'lon': -42.9861899, 'tags': {'amenity': 'pharmacy', 'healthcare': 'pharmacy', 'name': 'Saúde da Serra'}}"
"{'type': 'node', 'id': 3720731915, 'lat': -22.417509, 'lon': -42.9728407, 'tags': {'amenity': 'pharmacy', 'healthcare': 'pharmacy', 'name': 'Drogarias Conceito'}}"
"{'type': 'node', 'id': 3720731924, 'lat': -22.5216632, 'lon': -42.9795689, 'tags': {'amenity': 'pharmacy', 'healthcare': 'pharmacy', 'name': 'Farmácia Lider'}}"
"{'type': 'node', 'id': 3720732132, 'lat': -22.4165055, 'lon': -42.9720961, 'tags': {'amenity': 'pharmacy', 'healthcare': 'pharmacy', 'name': 'Vida & Saúde'}}"
"{'type': 'node', 'id': 3722975996, 'lat': -22.5473147, 'lon': -42.9854528, 'tags': {'amenity': 'pharmacy', 'name': 'City Pharma'}}"
"{'type': 'node', 'id': 3761814186, 'lat': -22.2631627, 'lon': -42.5202213, 'tags': {'addr:city': 'Nova Friburgo', 'addr:street': 'Rua Izelino Maduro', 'addr:suburb': 'Chácara do Paraiso', 'amenity': 'hospital', 'name': 'Hospital Unimed Nova Friburgo'}}"
"{'type': 'node', 'id': 3774443229, 'lat': -22.1152525, 'lon': -43.20606, 'tags': {'amenity': 'pharmacy', 'healthcare': 'pharmacy', 'name': 'Drogaria Central'}}"
"{'type': 'node', 'id': 3851490569, 'lat': -21.9867843, 'lon': -42.2543739, 'tags': {'amenity': 'pharmacy', 'name': 'Farmácia Farma'}}"
"{'type': 'node', 'id': 3978228963, 'lat': -22.5199897, 'lon': -42.9792141, 'tags': {'healthcare': 'yes', 'name': 'Centro Médico Integração Guapimirim', 'short_name': 'CMIG'}}"
"{'type': 'node', 'id': 3984732551, 'lat': -22.5185643, 'lon': -42.9785482, 'tags': {'amenity': 'doctors', 'healthcare': 'doctor', 'name': 'Centro de Patologia'}}"
"{'type': 'node', 'id': 3988373380, 'lat': -22.4182013, 'lon': -42.9696966, 'tags': {'amenity': 'clinic', 'healthcare': 'clinic', 'name': 'Semiótica'}}"
"{'type': 'node', 'id': 4003392175, 'lat': -21.9899815, 'lon': -42.2577431, 'tags': {'amenity': 'hospital', 'emergency': 'yes', 'name': 'Unidade Básica de Saúde Otacílio Latanzi', 'note': 'Somente emergência.'}}"
"{'type': 'node', 'id': 4003392408, 'lat': -21.9852409, 'lon': -42.2538328, 'tags': {'amenity': 'pharmacy', 'name': 'Drogaria Central'}}"
"{'type': 'node', 'id': 4008307468, 'lat': -21.9877629, 'lon': -42.2546693, 'tags': {'addr:city': 'Macuco', 'addr:postcode': '28545000', 'addr:street': 'Rua Doutor Mario Freire Martins', 'addr:suburb': 'Centro', 'amenity': 'pharmacy', 'name': 'Farma Bon'}}"
"{'type': 'node', 'id': 4010400373, 'lat': -22.3865037, 'lon': -43.1309421, 'tags': {'amenity': 'clinic', 'name': 'Unidade Básica de Saude'}}"
"{'type': 'node', 'id': 4030812279, 'lat': -22.0268258, 'lon': -42.3582648, 'tags': {'amenity': 'clinic', 'name': 'Clínica Doutor Benedito Robadei'}}"
"{'type': 'node', 'id': 4062508152, 'lat': -22.2834158, 'lon': -42.5325225, 'tags': {'addr:city': 'Nova Friburgo', 'addr:housenumber': '52', 'addr:postcode': '28610-050', 'addr:street': 'Rua Augusto Cardoso', 'addr:suburb': 'Centro', 'amenity': 'clinic', 'healthcare': 'clinic', 'name': 'Clínica Perinatal Mater Dei', 'opening_hours': '08:00-18:00', 'ref:CNES': '3456102', 'ref:vatin': 'BR06335725000117', 'source': 'Pesquisa de Campo.'}}"
"{'type': 'node', 'id': 4207649502, 'lat': -22.4010328, 'lon': -43.1345002, 'tags': {'amenity': 'pharmacy', 'name': 'Pacheco'}}"
"{'type': 'node', 'id': 4278971775, 'lat': -22.2729176, 'lon': -42.5343043, 'tags': {'addr:city': 'Nova Friburgo', 'addr:housenumber': '276', 'addr:postcode': '28625-630', 'addr:street': 'Rua General Osório', 'addr:suburb': 'Centro', 'amenity': 'hospital', 'healthcare': 'hospital', 'name': 'Day Hospital', 'phone': '(22)25257000', 'ref:CNES': '3622711', 'source': 'Pesquisa de Campo;BING.'}}"
"{'type': 'node', 'id': 4348901508, 'lat': -22.2822577, 'lon': -42.5302171, 'tags': {'addr:city': 'Nova Friburgo', 'addr:housenumber': '715', 'addr:postcode': '28630-310', 'addr:street': 'Avenida Antônio Fernandes Moreira', 'addr:suburb': 'Centro', 'amenity': 'hospital', 'healthcare': 'hospital', 'name': 'Hospital Maternidade de Nova Friburgo', 'operator': 'Prefeitura Municipal', 'phone': '+55 22 2523 9955', 'ref:CNES': '2272695', 'ref:vatin': 'BR30537740000122', 'source': 'Pesquisa de Campo;BING;DATASUS'}}"
"{'type': 'node', 'id': 4348901516, 'lat': -22.2793216, 'lon': -42.5326364, 'tags': {'addr:city': 'Nova Friburgo', 'addr:suburb': 'Centro', 'amenity': 'pharmacy', 'name': 'Drogrias Tamoio', 'opening_hours': 'Mo-Sa 07:00-22:00; Su,PH 08:00-21:00', 'phone': '(22) 2526-1000', 'source': 'Pesquisa de Campo;BING.'}}"
"{'type': 'node', 'id': 4348901517, 'lat': -22.2795698, 'lon': -42.5324487, 'tags': {'addr:city': 'Nova Friburgo', 'addr:suburb': 'Centro', 'amenity': 'pharmacy', 'name': 'Drogaria Maura', 'phone': '(22) 2522-7597', 'source': 'Pesquisa de Campo;BING.'}}"
"{'type': 'node', 'id': 4379295890, 'lat': -22.5455868, 'lon': -43.0436667, 'tags': {'amenity': 'hospital', 'name:pt': 'PSF Andorinhas'}}"
"{'type': 'node', 'id': 4582627489, 'lat': -21.7813639, 'lon': -43.3646451, 'tags': {'addr:housenumber': '4001', 'addr:postcode': '36033-318', 'addr:street': 'Avenida Presidente Itamar Franco', 'amenity': 'clinic', 'name': 'Centro Médico Monte Sinai', 'name:en': 'Monte Sinai Medical Center'}}"
"{'type': 'node', 'id': 5257650606, 'lat': -21.879072, 'lon': -42.6937941, 'tags': {'amenity': 'hospital', 'healthcare': 'hospital', 'name': 'Hospital São Salvador'}}"
"{'type': 'node', 'id': 5257650610, 'lat': -21.8881234, 'lon': -42.7066149, 'tags': {'amenity': 'clinic', 'healthcare': 'clinic', 'name': 'Centro Médico'}}"
"{'type': 'node', 'id': 5258562478, 'lat': -21.3138102, 'lon': -42.865096, 'tags': {'amenity': 'hospital', 'healthcare': 'hospital', 'name': 'Policlina Central'}}"
"{'type': 'node', 'id': 5258603237, 'lat': -21.3165389, 'lon': -42.8679153, 'tags': {'amenity': 'hospital', 'healthcare': 'hospital', 'name': 'CAPS'}}"
"{'type': 'node', 'id': 5258603246, 'lat': -21.3160365, 'lon': -42.8737339, 'tags': {'amenity': 'hospital', 'healthcare': 'hospital', 'name': 'Unidade Basica de Saúde Carmen Defelipo'}}"
"{'type': 'node', 'id': 5296857440, 'lat': -22.1148317, 'lon': -43.2071524, 'tags': {'amenity': 'pharmacy', 'healthcare': 'pharmacy', 'name': 'Drogaria Central'}}"
"{'type': 'node', 'id': 5300172542, 'lat': -22.1146901, 'lon': -43.2059058, 'tags': {'amenity': 'pharmacy', 'healthcare': 'pharmacy'}}"
"{'type': 'node', 'id': 5344879260, 'lat': -22.508194, 'lon': -43.1657341, 'tags': {'amenity': 'clinic', 'healthcare': 'clinic'}}"
"{'type': 'node', 'id': 5353622079, 'lat': -21.2884459, 'lon': -42.5583091, 'tags': {'amenity': 'hospital', 'healthcare': 'hospital', 'name': 'Posto de Saúde de Santana de Cataguases'}}"
"{'type': 'node', 'id': 5403399905, 'lat': -22.4118277, 'lon': -42.965775, 'tags': {'amenity': 'pharmacy', 'healthcare': 'pharmacy', 'name': 'Drogaria Central', 'opening_hours': '07:00-23:00'}}"
"{'type': 'node', 'id': 5464850826, 'lat': -22.3178991, 'lon': -42.330834, 'tags': {'addr:street': 'Rua Rodrigues Alves', 'amenity': 'clinic', 'name': 'posto de Saúde São Pedro', 'opening_hours': 'Mo-Fr 08:00-17:00'}}"
"{'type': 'node', 'id': 5464850828, 'lat': -22.316982, 'lon': -42.3305839, 'tags': {'addr:street': 'Rua Rodrigues Alves', 'amenity': 'pharmacy', 'name': 'São Pedro'}}"
"{'type': 'node', 'id': 5657090952, 'lat': -21.5369151, 'lon': -43.0128425, 'tags': {'addr:city': 'São João Nepomuceno', 'addr:postcode': '36680000', 'addr:suburb': 'Centro', 'amenity': 'pharmacy', 'drive_through': 'no', 'healthcare': 'pharmacy', 'name': 'Drogão Xaumar', 'payment:cash': 'yes', 'payment:credit_cards': 'yes', 'phone': '+553232614144'}}"
"{'type': 'node', 'id': 5657676421, 'lat': -21.5369145, 'lon': -43.0126602, 'tags': {'addr:city': 'São João Nepomuceno', 'addr:postcode': '36680000', 'addr:suburb': 'Centro', 'amenity': 'pharmacy', 'dispensing': 'yes', 'drive_through': 'no', 'healthcare': 'pharmacy', 'name': 'Drogaria Polyfarma', 'phone': '+553232611352'}}"
"{'type': 'node', 'id': 5657676430, 'lat': -21.5368978, 'lon': -43.0130437, 'tags': {'addr:city': 'São João Nepomuceno', 'addr:housenumber': 'Lj 06', 'addr:postcode': '36680000', 'addr:street': 'Praça Carlos Alves, Edíficio nº 1', 'addr:suburb': 'Centro', 'amenity': 'pharmacy', 'dispensing': 'no', 'drive_through': 'no', 'healthcare': 'pharmacy', 'name': 'Drogaria Magistral', 'operator': 'Rede Magostral', 'payment:cash': 'yes', 'payment:credit_cards': 'yes', 'phone': '+553232611330'}}"
"{'type': 'node', 'id': 5661506883, 'lat': -21.5366602, 'lon': -43.0072666, 'tags': {'amenity': 'clinic', 'healthcare': 'clinic', 'name': 'UBS - Centro de Saúde Renato Camilo', 'operator': 'SUS', 'phone': '+553232614387'}}"
"{'type': 'node', 'id': 5662192981, 'lat': -21.5368103, 'lon': -43.0126107, 'tags': {'amenity': 'pharmacy', 'dispensing': 'no', 'healthcare': 'pharmacy', 'name': 'Drogaria KA', 'phone': '+553232614414'}}"
"{'type': 'node', 'id': 5662192984, 'lat': -21.536672, 'lon': -43.0118062, 'tags': {'amenity': 'pharmacy', 'dispensing': 'no', 'healthcare': 'pharmacy', 'name': 'Drogaria Garbosa', 'operator': 'Rede Inova', 'phone': '+553232613130'}}"
"{'type': 'node', 'id': 5662192988, 'lat': -21.5368492, 'lon': -43.0115862, 'tags': {'amenity': 'pharmacy', 'dispensing': 'no', 'healthcare': 'pharmacy', 'name': 'Drogaria Americana', 'phone': '+553232617377'}}"
"{'type': 'node', 'id': 5662192991, 'lat': -21.5368991, 'lon': -43.0114548, 'tags': {'healthcare': 'psychotherapist', 'name': 'Jaqueline P. Machado Oliveira', 'phone': '+5532988482705'}}"
"{'type': 'node', 'id': 5662192992, 'lat': -21.536924, 'lon': -43.0114494, 'tags': {'healthcare': 'psychotherapist', 'name': 'Mirelle C. dos Santos', 'phone': '+5532999055581'}}"
"{'type': 'node', 'id': 5662192999, 'lat': -21.5368354, 'lon': -43.0112858, 'tags': {'amenity': 'pharmacy', 'dispensing': 'no', 'healthcare': 'pharmacy', 'name': 'Drogaria São Judas Tadeu', 'phone': '+553232612574'}}"
"{'type': 'node', 'id': 5662193002, 'lat': -21.5369377, 'lon': -43.0118035, 'tags': {'amenity': 'dentist', 'healthcare': 'dentist', 'name': 'Dr. Carlos Alberto Monfardini', 'phone': '+5532998320002'}}"
"{'type': 'node', 'id': 5668037444, 'lat': -21.3562889, 'lon': -43.2483865, 'tags': {'addr:street': 'Rua Padre Cirílo', 'amenity': 'hospital', 'healthcare': 'hospital', 'name': 'Centro de Saúde'}}"
"{'type': 'node', 'id': 5700088254, 'lat': -21.4176763, 'lon': -42.8167058, 'tags': {'addr:city': 'Itamarati de Minas', 'addr:housenumber': '22', 'addr:street': 'Rua João R Gomes', 'addr:suburb': 'Centro', 'amenity': 'pharmacy', 'dispensing': 'yes', 'healthcare': 'pharmacy', 'name': 'Drogaria e Perfumaria Itamarati'}}"
"{'type': 'node', 'id': 5720106759, 'lat': -21.5283548, 'lon': -43.0144195, 'tags': {'amenity': 'pharmacy', 'dispensing': 'yes', 'healthcare': 'pharmacy', 'name': 'Drogaria Avenida', 'operator': 'Farma Popular', 'phone': '+553232613171'}}"
"{'type': 'node', 'id': 5864365154, 'lat': -22.2356628, 'lon': -43.1022952, 'tags': {'addr:city': 'Areal', 'addr:postcode': '25845000', 'addr:street': 'Avenida Ernani de Amaral Peixoto', 'addr:suburb': 'Centro', 'amenity': 'pharmacy', 'dispensing': 'no', 'healthcare': 'pharmacy', 'name': 'Drogaria Ki Saúde', 'opening_hours': 'Mo-Sa 08:00-20:00'}}"
"{'type': 'node', 'id': 5864365155, 'lat': -22.2354387, 'lon': -43.1022877, 'tags': {'addr:city': 'Areal', 'addr:postcode': '25845000', 'addr:street': 'Rua Antão Barros de Oliveira', 'addr:suburb': 'Centro', 'amenity': 'pharmacy', 'dispensing': 'yes', 'drive_through': 'no', 'healthcare': 'pharmacy', 'name': 'Farcária do Povo', 'opening_hours': 'Mo-Sa 08:00-20:00'}}"
"{'type': 'node', 'id': 6131634423, 'lat': -22.5186445, 'lon': -43.1910035, 'tags': {'addr:city': 'Petrópolis', 'addr:housenumber': '454', 'addr:postcode': '25655122', 'addr:street': 'Rua Gonçalves Dias', 'addr:suburb': 'Valparaíso', 'amenity': 'pharmacy', 'dispensing': 'yes', 'healthcare': 'pharmacy', 'name': 'Drogaria do Povo'}}"
"{'type': 'node', 'id': 7272895590, 'lat': -21.9946759, 'lon': -42.9134015, 'tags': {'addr:city': 'Sapucaia', 'addr:postcode': '25880000', 'addr:suburb': 'Centro', 'amenity': 'hospital', 'emergency': 'yes', 'healthcare': 'hospital', 'healthcare:speciality': 'general', 'name': 'Pronto Socorro', 'wheelchair': 'yes'}}"
"{'type': 'node', 'id': 7675081229, 'lat': -22.372054, 'lon': -42.9790817, 'tags': {'addr:street': 'Rua Maria Quitéria', 'amenity': 'clinic', 'healthcare': 'clinic', 'name': 'PSF Granja Florestal', 'operator': 'Prefeitura Municipal de Teresópolis', 'operator:type': 'public'}}"
"{'type': 'node', 'id': 8002163860, 'lat': -21.5367357, 'lon': -43.0133171, 'tags': {'addr:city': 'São João Nepomuceno', 'addr:housenumber': '83, segundo andar', 'addr:postcode': '36680-000', 'addr:street': 'Praça Carlos Alves', 'addr:suburb': 'centro', 'amenity': 'dentist', 'healthcare': 'dentist', 'healthcare:speciality': 'Ortodontia;Botox;Preenchimento;Cirurgiã-Dentista', 'name': 'Consultorio Odontológico dra. Patrícia Henriques', 'opening_hours': 'seg-sex 09h as 19h', 'operator': 'Patrícia Henriques', 'phone': '+55 32 3261 5297'}}"
"{'type': 'node', 'id': 8148861871, 'lat': -21.7701509, 'lon': -43.3459297, 'tags': {'addr:city': 'Juiz de Fora', 'addr:housenumber': '160 - 602', 'addr:postcode': '36010600', 'addr:street': 'Rua Professor Benjamin Colucci', 'amenity': 'clinic', 'healthcare': 'clinic', 'healthcare:speciality': 'Pediatria;pneumologia_pediátrica;estomaterapia;cirurgia_plástica', 'name': 'Clínica Cuidato', 'opening_hours': 'Seg-Sex: 11:00 - 20:00                  Sáb: 08:00 - 12:00', 'opening_hours:covid19': 'Funcionando normalmente'}}"
"{'type': 'node', 'id': 9167699933, 'lat': -22.525604, 'lon': -43.1926421, 'tags': {'amenity': 'pharmacy', 'brand': 'Droga Raia', 'brand:wikidata': 'Q10357101', 'brand:wikipedia': 'pt:RaiaDrogasil', 'dispensing': 'yes', 'healthcare': 'pharmacy', 'name': 'Droga Raia'}}"
"{'type': 'node', 'id': 9220038007, 'lat': -21.2964543, 'lon': -42.7270158, 'tags': {'healthcare': 'clinic', 'name': 'Posto de saúde'}}"
"{'type': 'node', 'id': 9249523158, 'lat': -22.522433, 'lon': -43.1904384, 'tags': {'addr:city': 'Petrópolis', 'addr:housenumber': '296', 'addr:postcode': '25655-151', 'addr:street': 'Rua Coronel Veiga', 'addr:suburb': 'Valparaíso', 'amenity': 'dentist', 'healthcare': 'dentist', 'name': 'Oral Sin', 'operator': 'Oral Sin - Implantes', 'phone': '+55 24 3302-2575'}}"
"{'type': 'node', 'id': 10559403965, 'lat': -21.7252783, 'lon': -43.0401802, 'tags': {'addr:city': 'Guarará', 'addr:postcode': '36606000', 'addr:street': 'Rua João Batista Bordonal', 'addr:suburb': 'centro', 'amenity': 'clinic', 'healthcare': 'clinic', 'name': 'Unidade Básica de Sáude Amor a vida', 'operator': 'Sistema Único de Saúde', 'operator:short': 'SUS', 'operator:type': 'government', 'operator:wikidata': 'Q7531056'}}"
"{'type': 'node', 'id': 10559403972, 'lat': -21.7271491, 'lon': -43.0390089, 'tags': {'addr:city': 'Guarará', 'addr:postcode': '36606000', 'addr:street': 'Rua 7 de Setembro', 'amenity': 'dentist', 'healthcare': 'dentist', 'name': 'CAMILA ALVES FERRAZ DO NASCIMENTO', 'operator': 'CAMILA E DIOGO'}}"
"{'type': 'node', 'id': 10559403989, 'lat': -21.7319149, 'lon': -43.0379376, 'tags': {'addr:city': 'Guarará', 'addr:postcode': '36606000', 'addr:street': 'Praça do Divino', 'amenity': 'clinic', 'healthcare': 'clinic', 'name': 'UNIDADE BÁSICA DE SAÚDE', 'operator': 'Sistema Único de Saúde', 'operator:short': 'SUS', 'operator:type': 'government', 'operator:wikidata': 'Q7531056'}}"
"{'type': 'node', 'id': 10757896638, 'lat': -22.4341037, 'lon': -42.9453746, 'tags': {'amenity': 'pharmacy', 'healthcare': 'pharmacy', 'name': 'Drogaria Conceito'}}"
"{'type': 'node', 'id': 10758863788, 'lat': -22.4342274, 'lon': -42.9455348, 'tags': {'amenity': 'clinic', 'healthcare': 'clinic', 'name': 'Posto de Saúde - PSF Meudon'}}"
"{'type': 'node', 'id': 10791317526, 'lat': -22.4108645, 'lon': -42.9649633, 'tags': {'amenity': 'pharmacy', 'healthcare': 'pharmacy', 'name': 'Drogarias Brasileiras'}}"
"{'type': 'node', 'id': 10791317528, 'lat': -22.4106689, 'lon': -42.9677184, 'tags': {'amenity': 'pharmacy', 'healthcare': 'pharmacy', 'name': 'Drogaria Pacheco'}}"
"{'type': 'node', 'id': 10861441146, 'lat': -22.1595098, 'lon': -42.935577, 'tags': {'amenity': 'clinic', 'name': 'PSF Floresta'}}"
"{'type': 'node', 'id': 10861441630, 'lat': -22.1338277, 'lon': -42.9353197, 'tags': {'amenity': 'clinic', 'name': 'PSF São Lourenço'}}"
"{'type': 'node', 'id': 10861448021, 'lat': -22.1886196, 'lon': -42.9854072, 'tags': {'amenity': 'clinic', 'healthcare': 'clinic', 'name': 'PSF Jaguara'}}"
"{'type': 'node', 'id': 10861448022, 'lat': -22.1311698, 'lon': -42.9022976, 'tags': {'amenity': 'clinic', 'name': 'PSF Pouso Alegre'}}"
"{'type': 'node', 'id': 10861464633, 'lat': -22.1991124, 'lon': -43.0195568, 'tags': {'amenity': 'clinic', 'healthcare': 'clinic', 'name': 'PSF Barrinha'}}"
"{'type': 'node', 'id': 10861468977, 'lat': -22.1500488, 'lon': -42.9234955, 'tags': {'amenity': 'clinic', 'healthcare': 'clinic', 'name': 'CEO São José'}}"
"{'type': 'node', 'id': 10861472234, 'lat': -22.1493199, 'lon': -42.8807753, 'tags': {'amenity': 'clinic', 'name': 'PSF Boa Vista'}}"
"{'type': 'node', 'id': 10861476731, 'lat': -22.1674677, 'lon': -42.9511289, 'tags': {'amenity': 'clinic', 'healthcare': 'clinic', 'name': 'Clínica da Família Eugênio Ruótulo Neto'}}"
"{'type': 'node', 'id': 10861476732, 'lat': -22.1548831, 'lon': -42.9292381, 'tags': {'amenity': 'clinic', 'name': 'Policlínica Municipal'}}"
"{'type': 'node', 'id': 10861483232, 'lat': -22.1770929, 'lon': -42.9805828, 'tags': {'amenity': 'clinic', 'healthcare': 'clinic', 'name': 'PSF Paulo Ney de Souza'}}"
"{'type': 'node', 'id': 10861483233, 'lat': -22.1859058, 'lon': -42.9319324, 'tags': {'amenity': 'clinic', 'name': 'PSF Roçadinho'}}"
"{'type': 'node', 'id': 10905810149, 'lat': -22.148853, 'lon': -42.9178816, 'tags': {'amenity': 'hospital', 'name': 'Hospital Maternidade Santa Teresinha'}}"
"{'type': 'node', 'id': 10906731270, 'lat': -22.1238353, 'lon': -42.7780473, 'tags': {'amenity': 'clinic', 'name': 'Posto de Saúde do Pião'}}"
"{'type': 'node', 'id': 10911699792, 'lat': -22.4441661, 'lon': -43.1408972, 'tags': {'amenity': 'hospital', 'healthcare': 'hospital', 'name': 'Soc - Sanatório Oswaldo Cruz'}}"
"{'type': 'node', 'id': 10929371193, 'lat': -22.4376762, 'lon': -42.9793851, 'tags': {'healthcare': 'physiotherapist'}}"
"{'type': 'node', 'id': 10929372708, 'lat': -22.412537, 'lon': -42.9663129, 'tags': {'amenity': 'pharmacy', 'healthcare': 'pharmacy', 'name': 'Débora - Farmácia de Manipulação'}}"
"{'type': 'node', 'id': 11117033734, 'lat': -22.3358256, 'lon': -43.1315324, 'tags': {'addr:city': 'Petrópolis', 'addr:street': 'Estrada União e Indústria', 'addr:suburb': 'Pedro do Rio', 'amenity': 'pharmacy', 'dispensing': 'yes', 'drive_through': 'no', 'healthcare': 'pharmacy', 'name': 'Drogaria Boa Saúde', 'opening_hours': '24/7'}}"
"{'type': 'node', 'id': 11123675047, 'lat': -22.5275128, 'lon': -43.2155513, 'tags': {'amenity': 'pharmacy', 'healthcare': 'pharmacy', 'name': 'Drogarias Pra Você'}}"
"{'type': 'node', 'id': 11624963107, 'lat': -21.8052707, 'lon': -43.3718785, 'tags': {'amenity': 'hospital', 'healthcare': 'hospital', 'name': 'Hospital Unimed Juiz de Fora'}}"
"{'type': 'node', 'id': 11870119035, 'lat': -22.2615934, 'lon': -42.735511, 'tags': {'amenity': 'pharmacy', 'healthcare': 'pharmacy', 'name': 'Simas Farma'}}"
"{'type': 'node', 'id': 11882111799, 'lat': -22.2492875, 'lon': -42.6579533, 'tags': {'amenity': 'pharmacy', 'healthcare': 'pharmacy', 'name': 'Nova Farma'}}"
"{'type': 'node', 'id': 12001745401, 'lat': -22.5235927, 'lon': -42.9807866, 'tags': {'amenity': 'doctors', 'healthcare': 'doctor', 'name': 'Centro Municipal de Diagnóstico por Imagem Manoel Figueiredo'}}"
"{'type': 'node', 'id': 12001745416, 'lat': -22.5231855, 'lon': -42.9804842, 'tags': {'amenity': 'pharmacy', 'healthcare': 'pharmacy', 'name': 'CityFarma'}}"
"{'type': 'node', 'id': 12001745423, 'lat': -22.5229898, 'lon': -42.9803831, 'tags': {'amenity': 'pharmacy', 'healthcare': 'pharmacy', 'name': 'Drogaria Preço Baixo'}}"
"{'type': 'node', 'id': 12001745443, 'lat': -22.5225101, 'lon': -42.9804458, 'tags': {'amenity': 'clinic', 'healthcare': 'clinic', 'name': 'Centro Pediátrico'}}"
"{'type': 'node', 'id': 12001745451, 'lat': -22.5224977, 'lon': -42.9805653, 'tags': {'healthcare': 'laboratory', 'name': 'Laboclin - Laboratório de Análises Clínicas'}}"
"{'type': 'node', 'id': 12102054024, 'lat': -21.5412513, 'lon': -42.1839745, 'tags': {'addr:city': 'Santo Antônio de Pádua', 'addr:housenumber': '1', 'addr:postcode': '28470-000', 'addr:street': 'Rua Francisco Perlingeiro', 'addr:suburb': 'Parque das Aguas', 'healthcare': 'podiatrist', 'healthcare:speciality': 'podiatry', 'mobile': '+55 22 98121-5460', 'name': 'Solum Podologia', 'operator': 'Cristiana Ventura', 'operator:type': 'private', 'wheelchair': 'yes'}}"
"{'type': 'node', 'id': 12258147045, 'lat': -22.2518938, 'lon': -43.3446601, 'tags': {'amenity': 'clinic', 'healthcare': 'clinic', 'name': 'Unidade Básica de Saúde Cavaru - Pedro Alves de Souza'}}"
"{'type': 'node', 'id': 12337822752, 'lat': -22.3876524, 'lon': -43.132325, 'tags': {'addr:city': 'Petrópolis', 'addr:housenumber': '11880', 'addr:postcode': '25730-775', 'addr:street': 'Estrada União e Indústria', 'addr:suburb': 'Itaipava', 'amenity': 'pharmacy', 'healthcare': 'pharmacy', 'name': 'Drogaria Itacenter'}}"
"{'type': 'node', 'id': 12386183243, 'lat': -22.1677534, 'lon': -43.2877609, 'tags': {'IBGE:COD_UNICO_ENDERECO': '197952037', 'addr:housenumber': '313', 'addr:postcode': '25850-000', 'addr:street': 'Rua Célio da Gama Cruz', 'addr:suburb': 'Grama', 'amenity': 'clinic', 'building': 'yes', 'healthcare': 'yes', 'name': 'Unidade Básica de Saúde Morro da Alegria', 'operator': 'Município de Paraíba do Sul'}}"
"{'type': 'node', 'id': 12400298445, 'lat': -22.0569823, 'lon': -43.2063547, 'tags': {'addr:city': 'Comendador Levy Gasparian', 'addr:housenumber': '200', 'addr:postcode': '25870-000', 'addr:street': 'Estrada União Indústria', 'addr:suburb': 'Reta', 'amenity': 'clinic', 'healthcare': 'clinic', 'healthcare:speciality': 'general'}}"
"{'type': 'node', 'id': 12400836581, 'lat': -22.0376083, 'lon': -43.2046541, 'tags': {'addr:city': 'Comendador Levy Gasparian', 'addr:housenumber': '311', 'addr:postcode': '25870-000', 'addr:street': 'Estrada União Indústria', 'addr:suburb': 'Grotão', 'amenity': 'hospital', 'emergency': 'yes', 'healthcare': 'hospital', 'healthcare:speciality': 'general', 'name': 'Policlínica Doutor Altino Alves Moreira', 'operator': 'Município de Comendador Levy Gasparin', 'operator:type': 'public'}}"
"{'type': 'node', 'id': 12400836582, 'lat': -22.0377972, 'lon': -43.204579, 'tags': {'addr:city': 'Comendador Levy Gasparian', 'addr:housenumber': '321', 'addr:postcode': '25870-000', 'addr:street': 'Estrada União Indústria', 'addr:suburb': 'Grotão', 'amenity': 'clinic', 'healthcare': 'clinic', 'healthcare:speciality': 'general', 'name': 'Unidade Básica de Saúde Grotão', 'operator': 'Município de Comendador Levy Gasparin', 'operator:type': 'public'}}"
"{'type': 'node', 'id': 12419682412, 'lat': -22.122145, 'lon': -43.1748405, 'tags': {'addr:city': 'Três Rios', 'addr:housenumber': '249', 'addr:postcode': '25821-060', 'addr:street': 'Rua Feliciano Lima', 'addr:suburb': 'Banguzinho', 'amenity': 'clinic', 'healthcare': 'clinic', 'healthcare:speciality': 'general', 'name': 'Unidade Básica de Saúde Ponte das Garças', 'operator': 'Município de Três Rios', 'operator:type': 'public'}}"
"{'type': 'node', 'id': 12426530146, 'lat': -22.1173888, 'lon': -43.1875417, 'tags': {'addr:city': 'Três Rios', 'addr:housenumber': '1236', 'addr:postcode': '25820-180', 'addr:street': 'Rua São José', 'addr:suburb': 'Triângulo', 'amenity': 'clinic', 'healthcare': 'clinic', 'healthcare:speciality': 'general', 'name': 'Unidade Básica de Saúde Triângulo', 'operator': 'Município de Três Rios', 'operator:type': 'public'}}"
"{'type': 'node', 'id': 12488876410, 'lat': -22.238052, 'lon': -43.1009516, 'tags': {'addr:city': 'Areal', 'addr:housenumber': '557', 'addr:postcode': '25845-000', 'addr:street': 'Avenida Ernani de Amaral Peixoto', 'addr:suburb': 'Centro', 'amenity': 'pharmacy', 'dispensing': 'yes', 'drive_through': 'no', 'healthcare': 'pharmacy', 'name': 'Drogaria Farmabem (Areal)'}}"
"{'type': 'node', 'id': 12504505845, 'lat': -21.359329, 'lon': -43.0436085, 'tags': {'addr:city': 'Guarani', 'addr:housenumber': '142', 'addr:postcode': '36160-000', 'addr:street': 'Rua Vereador Luiz de Abreu Moreira', 'addr:suburb': 'Sossego', 'amenity': 'hospital', 'healthcare': 'hospital', 'healthcare:speciality': 'general', 'name': 'Hospital Doutor Armando Xavier Vieira'}}"
"{'type': 'node', 'id': 12505023356, 'lat': -21.3496667, 'lon': -43.0531795, 'tags': {'addr:city': 'Guarani', 'addr:postcode': '36160-000', 'addr:suburb': 'Nova Guarani', 'amenity': 'clinic', 'healthcare': 'clinic', 'healthcare:speciality': 'general', 'name': 'Unidade Básica de Saúde Doutor Maurício Alvim Dusi', 'operator': 'Município de Guarani', 'operator:type': 'public'}}"
