OSM_Data
"{'type': 'node', 'id': 278745446, 'lat': 53.5185788, 'lon': 28.1558292, 'tags': {'addr:housenumber': '50', 'addr:street': 'вуліца Калініна', 'amenity': 'hospital', 'emergency': 'yes', 'healthcare': 'hospital', 'name': 'Марʼінагорская цэнтральная раённая бальніца', 'name:be': 'Марʼінагорская цэнтральная раённая бальніца', 'name:ru': 'Марьиногорская центральная районная больница', 'phone': '+375-17-1350715'}}"
"{'type': 'node', 'id': 306065453, 'lat': 53.1419305, 'lon': 29.2270792, 'tags': {'addr:housenumber': '92', 'addr:street': 'Сацыялістычная вуліца', 'amenity': 'doctors', 'healthcare': 'doctor', 'name': 'Медыцынскі цэнтр «Тарі»', 'name:be': 'Медыцынскі цэнтр «Тарі»', 'name:ru': 'Медицинский центр «Тари»', 'name:uk': 'Медичний центр «Тарі»', 'opening_hours': 'Mo-Fr 08:00-20:00; Sa 08:00-14:00', 'phone': '+375291172272', 'website': 'http://tari.bobr.by/'}}"
"{'type': 'node', 'id': 306066875, 'lat': 53.1771261, 'lon': 29.1928806, 'tags': {'addr:postcode': '213822', 'amenity': 'clinic', 'healthcare': 'clinic', 'healthcare:speciality': 'narcology', 'name': 'Бабруйскі наркадыспансер', 'name:be': 'Бабруйскі наркадыспансер', 'name:ru': 'Бобруйский наркодиспансер', 'official_name': 'Филиал ""Бобруйский наркодиспансер"" УЗ ""Бобруйская центральная больница""', 'official_name:ru': 'Филиал ""Бобруйский наркодиспансер"" УЗ ""Бобруйская центральная больница""', 'opening_hours': '24/7'}}"
"{'type': 'node', 'id': 538049759, 'lat': 53.1461359, 'lon': 29.2218225, 'tags': {'amenity': 'pharmacy', 'healthcare': 'pharmacy', 'int_name': 'Apteka', 'name': 'Аптека', 'name:be': 'Аптэка', 'name:ru': 'Аптека'}}"
"{'type': 'node', 'id': 538420568, 'lat': 53.1393135, 'lon': 29.2199197, 'tags': {'addr:housenumber': '88', 'addr:street': 'Кастрычніцкая вуліца', 'amenity': 'pharmacy', 'healthcare': 'pharmacy', 'int_name': 'Apteka', 'name': '«Аптэка»', 'name:be': '«Аптэка»', 'name:ru': '«Аптека»', 'name:uk': '«Аптека»'}}"
"{'type': 'node', 'id': 538420578, 'lat': 53.170423, 'lon': 29.1994345, 'tags': {'amenity': 'pharmacy', 'contact:phone': '+375 29 1084515', 'contact:website': 'http://prolife-orto.com', 'healthcare': 'pharmacy', 'int_name': 'Apteka', 'name': 'Новая', 'name:be': 'Новая', 'name:ru': 'Новая', 'opening_hours': 'Mo-Su 08:00-22:00'}}"
"{'type': 'node', 'id': 538504698, 'lat': 53.1509582, 'lon': 29.2256309, 'tags': {'amenity': 'pharmacy', 'healthcare': 'pharmacy'}}"
"{'type': 'node', 'id': 538504705, 'lat': 53.1534624, 'lon': 29.2213651, 'tags': {'amenity': 'pharmacy', 'healthcare': 'pharmacy'}}"
"{'type': 'node', 'id': 539236639, 'lat': 53.1387404, 'lon': 29.202459, 'tags': {'amenity': 'pharmacy', 'brand': 'Планета Здоровья', 'brand:be': 'Планета Здароўя', 'brand:be-tarask': 'Плянэта Здароўя', 'brand:en': 'Health Planet', 'brand:ru': 'Планета Здоровья', 'brand:wikidata': 'Q107231230', 'healthcare': 'pharmacy', 'int_name': 'Planieta zdaroŭja', 'name': 'Планета здароўя', 'name:be': 'Планета здароўя', 'name:be-tarask': 'Плянэта Здароўя', 'name:en': 'Health Planet', 'name:ru': 'Планета здоровья'}}"
"{'type': 'node', 'id': 539236641, 'lat': 53.1386278, 'lon': 29.2005358, 'tags': {'amenity': 'pharmacy', 'healthcare': 'pharmacy', 'opening_hours': '24/7'}}"
"{'type': 'node', 'id': 810360956, 'lat': 53.7048619, 'lon': 28.4196544, 'tags': {'amenity': 'pharmacy', 'contact:email': 'inf@minfarm.by', 'contact:phone': '+375 1774 55109', 'contact:website': 'http://minfarm.by/', 'healthcare': 'pharmacy', 'int_name': 'Apteka', 'name': 'Минская Фармация', 'name:be': 'Мінская Фармацыя', 'name:en': 'Minskaya Pharmacia', 'name:ru': 'Минская Фармация', 'opening_hours': 'Mo-Fr 08:00-20:00; Sa-Su 09:00-18:00', 'operator': 'Торгово-производственное республиканское унитарное предприятие ""Минская Фармация""'}}"
"{'type': 'node', 'id': 914322482, 'lat': 53.51774, 'lon': 28.1434918, 'tags': {'addr:housenumber': '2', 'addr:street': 'Ленінская вуліца', 'amenity': 'pharmacy', 'contact:email': 'inf@minfarm.by', 'contact:phone': '+375 1713 31037;+375 1713 31058', 'contact:website': 'http://minfarm.by/', 'healthcare': 'pharmacy', 'name': 'Минская Фармация', 'name:be': 'Мінская Фармацыя', 'name:en': 'Minskaya Pharmacia', 'name:ru': 'Минская Фармация', 'opening_hours': 'Mo-Fr 09:00-21:00; Sa-Su 09:00-17:00', 'operator': 'Торгово-производственное республиканское унитарное предприятие ""Минская Фармация""', 'ref': '25'}}"
"{'type': 'node', 'id': 915568864, 'lat': 53.519027, 'lon': 28.153211, 'tags': {'addr:housenumber': '48', 'addr:street': 'вуліца Калініна', 'amenity': 'clinic', 'healthcare': 'clinic', 'name': 'Марʼінагорская цэнтральная раённая паліклініка', 'name:be': 'Марʼінагорская цэнтральная раённая паліклініка', 'name:ru': 'Марьиногорская центральная районная поликлиника', 'phone': '+375171353924;+375171352458', 'wheelchair': 'limited'}}"
"{'type': 'node', 'id': 916880360, 'lat': 53.5083694, 'lon': 28.1493777, 'tags': {'addr:housenumber': '61', 'addr:street': 'Ленінская вуліца', 'amenity': 'dentist', 'email': 'ladakravez@mail.ru', 'healthcare': 'dentist', 'name': 'Стаматалогія Смайл-плюс', 'name:be': 'Стаматалогія Смайл-плюс', 'name:ru': 'Стоматология Смайл-плюс', 'opening_hours': 'Mo-Fr 08:00-18:00; Sa 08:00-16:00', 'phone': '+375 1713 45-623', 'website': 'https://www.smileplus.by'}}"
"{'type': 'node', 'id': 950589733, 'lat': 53.8255527, 'lon': 28.9881514, 'tags': {'amenity': 'hospital', 'name': 'Бярэзінская ЦРБ', 'name:be': 'Бярэзінская ЦРБ', 'name:ru': 'Березинская ЦРБ'}}"
"{'type': 'node', 'id': 1017921782, 'lat': 53.148279, 'lon': 29.2324063, 'tags': {'amenity': 'pharmacy', 'healthcare': 'pharmacy', 'int_name': 'Farmacyja №77/3', 'name': 'Фармация №77/3', 'name:be': 'Фармацыя №77/3', 'name:ru': 'Фармация №77/3', 'opening_hours': 'Mo-Fr 08:00-21:00; Sa, Su 09:00-13:00, 13:30-17:30'}}"
"{'type': 'node', 'id': 1033257644, 'lat': 53.8353824, 'lon': 28.9939116, 'tags': {'amenity': 'pharmacy', 'healthcare': 'pharmacy'}}"
"{'type': 'node', 'id': 1196896959, 'lat': 53.5040531, 'lon': 28.1660862, 'tags': {'amenity': 'pharmacy', 'healthcare': 'pharmacy', 'name': 'Минская Фармация №214', 'name:be': 'Мінская Фармацыя №214', 'name:ru': 'Минская Фармация №214', 'opening_hours': 'Mo-Fr 8:00-19:00; Sa 8:00-18:00', 'operator': 'РУП ""Минская фармация""', 'phone': '+375 1713 55340', 'ref': '214', 'website': 'http://minfarm.by'}}"
"{'type': 'node', 'id': 1196896961, 'lat': 53.5106772, 'lon': 28.1442464, 'tags': {'addr:housenumber': '73', 'addr:street': 'Кастрычніцкая вуліца', 'amenity': 'pharmacy', 'brand': 'Минская Фармация', 'brand:be': 'Мінская Фармацыя', 'brand:en': 'Minskaya Pharmacia', 'brand:ru': 'Минская Фармация', 'brand:wikidata': 'Q108553370', 'contact:email': 'inf@minfarm.by', 'contact:phone': '+375 1713 34951', 'contact:website': 'http://minfarm.by/', 'healthcare': 'pharmacy', 'int_name': 'Apteka №239', 'name': 'Минская Фармация', 'name:be': 'Мінская Фармацыя', 'name:en': 'Minskaya Pharmacia', 'name:ru': 'Минская Фармация', 'opening_hours': 'Mo,Fr 09:00-14:00,14:30-17:30; Sa-Su 09:00-17:00; Tu-Th 09:00-20:00', 'operator': 'Торгово-производственное республиканское унитарное предприятие ""Минская Фармация""', 'ref': '239'}}"
"{'type': 'node', 'id': 1559605347, 'lat': 53.7137701, 'lon': 28.417576, 'tags': {'amenity': 'dentist', 'emergency': 'no', 'healthcare': 'dentist', 'name': 'Стаматалогія', 'name:be': 'Стаматалогія', 'name:ru': 'Стоматология'}}"
"{'type': 'node', 'id': 1619145940, 'lat': 53.5192022, 'lon': 28.1537287, 'tags': {'amenity': 'clinic', 'name': 'Дзіцячая паліклініка', 'name:be': 'Дзіцячая паліклініка', 'name:ru': 'Детская поликлиника', 'name:uk': 'Дитяча поліклініка'}}"
"{'type': 'node', 'id': 1674308382, 'lat': 53.5275985, 'lon': 28.2497554, 'tags': {'addr:housenumber': '55', 'addr:street': 'Савецкая вуліца', 'amenity': 'pharmacy', 'contact:email': 'inf@minfarm.by', 'contact:phone': '+375 1713 91024', 'contact:website': 'http://minfarm.by/', 'healthcare': 'pharmacy', 'name': 'Минская Фармация', 'name:be': 'Мінская Фармацыя', 'name:en': 'Minskaya Pharmacia', 'name:ru': 'Минская Фармация', 'opening_hours': 'Tu 09:00-13:00,13:20-17:20', 'operator': 'Торгово-производственное республиканское унитарное предприятие ""Минская Фармация""', 'ref': '33'}}"
"{'type': 'node', 'id': 1893775693, 'lat': 53.8308177, 'lon': 28.2365388, 'tags': {'amenity': 'hospital'}}"
"{'type': 'node', 'id': 1911426190, 'lat': 53.8834062, 'lon': 28.3698606, 'tags': {'amenity': 'hospital', 'emergency': 'yes'}}"
"{'type': 'node', 'id': 2160714571, 'lat': 53.1318283, 'lon': 29.2268766, 'tags': {'amenity': 'pharmacy', 'dispensing': 'no', 'healthcare': 'pharmacy'}}"
"{'type': 'node', 'id': 2160714574, 'lat': 53.1321195, 'lon': 29.2265579, 'tags': {'amenity': 'pharmacy', 'dispensing': 'no', 'healthcare': 'pharmacy'}}"
"{'type': 'node', 'id': 2525005946, 'lat': 52.792965, 'lon': 27.9931847, 'tags': {'amenity': 'pharmacy', 'healthcare': 'pharmacy', 'int_name': 'Apteka', 'name': 'Аптека', 'name:be': 'Аптэка', 'name:ru': 'Аптека'}}"
"{'type': 'node', 'id': 2582408190, 'lat': 53.3111448, 'lon': 28.6394324, 'tags': {'amenity': 'pharmacy', 'healthcare': 'pharmacy'}}"
"{'type': 'node', 'id': 2596555253, 'lat': 53.8304503, 'lon': 28.986071, 'tags': {'addr:postcode': '223311', 'addr:street': 'вуліца Максіма Горкага', 'amenity': 'pharmacy', 'contact:email': 'inf@minfarm.by', 'contact:phone': '+375 1715 66480;+375 1715 66482', 'contact:website': 'http://minfarm.by/', 'healthcare': 'pharmacy', 'name': 'Минская Фармация', 'name:be': 'Мінская Фармацыя', 'name:en': 'Minskaya Pharmacia', 'name:ru': 'Минская Фармация', 'opening_hours': 'Mo-Fr 08:00-20:00; Sa-Su 09:00-17:00', 'operator': 'Торгово-производственное республиканское унитарное предприятие ""Минская Фармация""'}}"
"{'type': 'node', 'id': 2841330967, 'lat': 53.1536542, 'lon': 29.2210662, 'tags': {'addr:housenumber': '73', 'addr:street': 'Мінская вуліца', 'amenity': 'clinic', 'healthcare': 'clinic', 'name': 'Жаночая кансультацыя № 2', 'name:be': 'Жаночая кансультацыя № 2', 'name:ru': 'Женская консультация № 2', 'opening_hours': 'Mo-Fr 08:00-20:00; Sa 08:00-18:00', 'phone': '+375225478598'}}"
"{'type': 'node', 'id': 3031273553, 'lat': 53.1450482, 'lon': 29.2291151, 'tags': {'amenity': 'pharmacy', 'healthcare': 'pharmacy', 'int_name': 'Doktar A №7', 'name': 'Доктор А №7', 'name:be': 'Доктар А №7', 'name:ru': 'Доктор А №7', 'opening_hours': 'Mo-Su 08:00-21:00'}}"
"{'type': 'node', 'id': 3033944133, 'lat': 53.1508629, 'lon': 29.2254567, 'tags': {'amenity': 'pharmacy', 'healthcare': 'pharmacy'}}"
"{'type': 'node', 'id': 3034172333, 'lat': 53.1435605, 'lon': 29.2279513, 'tags': {'amenity': 'pharmacy', 'contact:phone': '+375 225 705477', 'contact:website': 'https://alfaapteka.by', 'healthcare': 'pharmacy', 'int_name': 'Doktar A №4', 'name': 'Альфа аптека №14', 'name:be': 'Альфа аптэка №14', 'name:ru': 'Альфа аптека №14', 'opening_hours': 'Mo-Fr 08:00-21:00; Sa 08:00-20:00; Su 09:00-20:00', 'operator': 'СпецАфармация'}}"
"{'type': 'node', 'id': 3119021763, 'lat': 53.2950088, 'lon': 28.6355436, 'tags': {'amenity': 'pharmacy', 'healthcare': 'pharmacy', 'name': 'Аптека «Зелёный лист»', 'name:be': 'Аптэка «Зялёны ліст»', 'name:ru': 'Аптека «Зелёный лист»', 'name:uk': 'Аптека «Зелений лист»'}}"
"{'type': 'node', 'id': 3154416071, 'lat': 53.1369094, 'lon': 29.2272202, 'tags': {'amenity': 'pharmacy', 'healthcare': 'pharmacy', 'name': 'Variety', 'name:be': 'Variety', 'opening_hours': 'Mo-Su 10:00-19:00'}}"
"{'type': 'node', 'id': 3939352811, 'lat': 53.1617339, 'lon': 29.1977647, 'tags': {'amenity': 'pharmacy', 'healthcare': 'pharmacy', 'name': 'Цимус', 'name:be': 'Цымус', 'name:ru': 'Цимус', 'shop': 'convenience'}}"
"{'type': 'node', 'id': 3939355539, 'lat': 53.1631173, 'lon': 29.196593, 'tags': {'amenity': 'clinic'}}"
"{'type': 'node', 'id': 3939357349, 'lat': 53.1631837, 'lon': 29.196535, 'tags': {'amenity': 'dentist', 'healthcare': 'dentist'}}"
"{'type': 'node', 'id': 3942038080, 'lat': 53.1630609, 'lon': 29.2123071, 'tags': {'amenity': 'pharmacy', 'healthcare': 'pharmacy'}}"
"{'type': 'node', 'id': 3948435549, 'lat': 53.1485383, 'lon': 29.2311547, 'tags': {'amenity': 'dentist', 'healthcare': 'dentist'}}"
"{'type': 'node', 'id': 3948435555, 'lat': 53.1908169, 'lon': 29.2222568, 'tags': {'amenity': 'pharmacy', 'healthcare': 'pharmacy'}}"
"{'type': 'node', 'id': 3948435556, 'lat': 53.1905231, 'lon': 29.2235644, 'tags': {'amenity': 'pharmacy', 'healthcare': 'pharmacy'}}"
"{'type': 'node', 'id': 4238993042, 'lat': 53.1392349, 'lon': 29.2191425, 'tags': {'addr:city': 'Бабруйск', 'addr:housenumber': '39', 'addr:street': 'Інтэрнацыянальная вуліца', 'amenity': 'pharmacy', 'healthcare': 'pharmacy', 'name': 'ВараваДэнт', 'name:be': 'ВараваДэнт', 'name:ru': 'ВараваДент'}}"
"{'type': 'node', 'id': 4276586897, 'lat': 53.1694493, 'lon': 29.1955097, 'tags': {'amenity': 'clinic', 'name': 'Паліклініка №6', 'name:be': 'Паліклініка №6', 'name:ru': 'Поликлиника №6', 'name:uk': 'Поліклініка №6'}}"
"{'type': 'node', 'id': 4350065912, 'lat': 53.1387352, 'lon': 29.1660312, 'tags': {'amenity': 'pharmacy', 'healthcare': 'pharmacy', 'name': 'Аптэка', 'name:be': 'Аптэка', 'name:ru': 'Аптека', 'opening_hours': 'Mo-Fr 08:00-21:00; Sa,Su 08:00-20:00'}}"
"{'type': 'node', 'id': 4356524274, 'lat': 53.1347318, 'lon': 29.2254602, 'tags': {'amenity': 'hospital', 'name': 'Медыцынскі цэнтр «Тарі»', 'name:be': 'Медыцынскі цэнтр «Тарі»', 'name:ru': 'Медицинский центр «Тари»', 'name:uk': 'Медичний центр «Тарі»'}}"
"{'type': 'node', 'id': 4374171690, 'lat': 53.175371, 'lon': 29.1854612, 'tags': {'addr:postcode': '213822', 'amenity': 'hospital', 'name': 'УАЗ «Бабруйская цэнтральная бальніца»', 'name:be': 'УАЗ «Бабруйская цэнтральная бальніца»', 'name:ru': 'УЗ «Бобруйская центральная больница»', 'name:uk': 'УЗ «Бобруйска центральна лікарня»', 'opening_hours': '24/7'}}"
"{'type': 'node', 'id': 4374292293, 'lat': 53.1349414, 'lon': 29.2283798, 'tags': {'addr:housenumber': '29', 'addr:street': 'Камсамольская вуліца', 'amenity': 'clinic', 'name': 'Бабруйская гарадская паліклініка №2', 'name:be': 'Бабруйская гарадская паліклініка №2', 'name:ru': 'Бобруйская городская поликлиника №2', 'name:uk': 'Бобруйска міська поліклініка №2', 'opening_hours': 'Mo-Sa 08:00-18:00'}}"
"{'type': 'node', 'id': 4374295891, 'lat': 53.1343483, 'lon': 29.216093, 'tags': {'amenity': 'clinic', 'name': 'Ветэнарная клініка', 'name:be': 'Ветэнарная клініка', 'name:ru': 'Ветеренарная клиника', 'name:uk': 'Ветеренарна клініка'}}"
"{'type': 'node', 'id': 4399372659, 'lat': 53.1653356, 'lon': 29.1762661, 'tags': {'addr:housenumber': '26А', 'addr:postcode': '213808', 'addr:street': 'Заходняя вуліца', 'amenity': 'pharmacy', 'healthcare': 'pharmacy', 'name': 'Аптека', 'name:be': 'Аптэка', 'name:ru': 'Аптека'}}"
"{'type': 'node', 'id': 4418042800, 'lat': 53.3185547, 'lon': 28.6434678, 'tags': {'amenity': 'pharmacy', 'healthcare': 'pharmacy', 'name': 'Магілёўскае РУП «Фармацыя» Асіповіцкая ЦРА # 109', 'name:be': 'Магілёўскае РУП «Фармацыя» Асіповіцкая ЦРА # 109', 'name:ru': 'Могилёвское РУП «Фармация» Осиповичская центральная районная аптека # 109', 'operator': 'Могилёвское РУП «Фармация»', 'phone': '+375223556291'}}"
"{'type': 'node', 'id': 4436265990, 'lat': 53.0349684, 'lon': 28.2450797, 'tags': {'amenity': 'clinic', 'healthcare': 'clinic', 'name': 'Бальніца', 'name:be': 'Бальніца', 'name:en': 'Hospital', 'name:ru': 'Больница', 'opening_hours': '24/7', 'phone': '+3751792103'}}"
"{'type': 'node', 'id': 4476550794, 'lat': 52.7917518, 'lon': 27.9955974, 'tags': {'amenity': 'dentist', 'healthcare': 'dentist', 'name': 'Емельяненка', 'name:be': 'Емельяненка', 'name:ru': 'Емельяненко'}}"
"{'type': 'node', 'id': 4508221303, 'lat': 53.1909896, 'lon': 29.2248833, 'tags': {'amenity': 'pharmacy', 'healthcare': 'pharmacy'}}"
"{'type': 'node', 'id': 4508276301, 'lat': 53.1398933, 'lon': 29.2240745, 'tags': {'addr:housenumber': '20', 'addr:street': 'Інтэрнацыянальная вуліца', 'amenity': 'pharmacy', 'contact:phone': '+375 225 433986', 'dispensing': 'yes', 'healthcare': 'pharmacy', 'name': 'Аптэка №1', 'name:be': 'Аптэка №1', 'name:en': 'Bellerophon', 'name:ru': 'Беллерофон Аптека №2', 'opening_hours': 'Mo-Sa 08:00-20:00; Su 09:00-19:00', 'operator': 'Беллерофон'}}"
"{'type': 'node', 'id': 4547111192, 'lat': 53.3228173, 'lon': 28.6426223, 'tags': {'amenity': 'pharmacy', 'healthcare': 'pharmacy', 'name': 'Могилёвское РУП «Фармация» Аптека # 210', 'name:be': 'Магілёўскае РУП «Фармацыя» Аптэка # 210', 'name:ru': 'Могилёвское РУП «Фармация» Аптека # 210', 'operator': 'Могилёвское РУП «Фармация»', 'phone': '+375223550953'}}"
"{'type': 'node', 'id': 4547139790, 'lat': 53.4141013, 'lon': 28.8247889, 'tags': {'addr:housenumber': '14', 'addr:street': 'вуліца Валадарскага', 'amenity': 'pharmacy', 'healthcare': 'pharmacy', 'name': 'Могилёвское РУП «Фармация» Аптека # 131', 'name:be': 'Магілёўскае РУП «Фармацыя» Аптэка # 131', 'name:ru': 'Могилёвское РУП «Фармация» Аптека # 131', 'operator': 'Могилёвское РУП «Фармация»', 'phone': '+375223543503'}}"
"{'type': 'node', 'id': 4547143090, 'lat': 53.4378163, 'lon': 28.969721, 'tags': {'addr:postcode': '213714', 'amenity': 'pharmacy', 'healthcare': 'pharmacy', 'name': 'Могилёвское РУП «Фармация» Аптека # 83', 'name:be': 'Магілёўскае РУП «Фармацыя» Аптэка # 83', 'name:ru': 'Могилёвское РУП «Фармация» Аптека # 83', 'operator': 'Могилёвское РУП «Фармация»', 'phone': '+375223544511'}}"
"{'type': 'node', 'id': 4547150391, 'lat': 53.3225609, 'lon': 28.6462561, 'tags': {'addr:housenumber': '4', 'addr:street': 'вуліца 60 год Кастрычніка', 'amenity': 'pharmacy', 'healthcare': 'pharmacy', 'name': 'Могилёвское РУП «Фармация» Аптека № 173', 'name:be': 'Магілёўскае РУП «Фармацыя» Аптэка № 173', 'name:ru': 'Могилёвское РУП «Фармация» Аптека № 173', 'operator': 'Могилёвское РУП «Фармация»', 'phone': '+375223551387'}}"
"{'type': 'node', 'id': 4547167889, 'lat': 53.2998114, 'lon': 28.6464549, 'tags': {'addr:housenumber': '18', 'addr:street': 'Вакзальная вуліца', 'amenity': 'pharmacy', 'healthcare': 'pharmacy', 'name': 'Могилёвское РУП «Фармация» Аптека № 212', 'name:be': 'Магілёўскае РУП «Фармацыя» Аптэка № 212', 'name:ru': 'Могилёвское РУП «Фармация» Аптека № 212', 'operator': 'Могилёвское РУП «Фармация»', 'phone': '+375223562601'}}"
"{'type': 'node', 'id': 4587105649, 'lat': 52.8057439, 'lon': 28.0034701, 'tags': {'amenity': 'dentist', 'healthcare': 'dentist', 'name': 'Рублёўскі', 'name:be': 'Рублёўскі', 'name:ru': 'Рублевский'}}"
"{'type': 'node', 'id': 4588802292, 'lat': 52.9022509, 'lon': 28.6862744, 'tags': {'amenity': 'pharmacy', 'healthcare': 'pharmacy', 'name': 'Ванька-устанька', 'name:be': 'Ванька-устанька', 'name:ru': 'Ванька-встанька'}}"
"{'type': 'node', 'id': 4592165896, 'lat': 52.9054541, 'lon': 28.6743229, 'tags': {'amenity': 'clinic', 'healthcare': 'clinic', 'name': 'Паліклініка', 'name:be': 'Паліклініка', 'name:ru': 'Поликлиника'}}"
"{'type': 'node', 'id': 4635547694, 'lat': 53.1612366, 'lon': 29.169149, 'tags': {'amenity': 'pharmacy', 'healthcare': 'pharmacy', 'name': 'Аптека №2'}}"
"{'type': 'node', 'id': 4701916487, 'lat': 53.8894794, 'lon': 28.034524, 'tags': {'amenity': 'pharmacy', 'healthcare': 'pharmacy', 'name': 'Аптека №54 (филиал 2)', 'name:be': 'Аптэка №54 (філіял 2)', 'name:en': 'Pharmacy №54', 'name:ru': 'Аптека №54 (филиал 2)', 'opening_hours': 'Mo-Tu 09:00-17:00; Fr 9:00-16:00', 'operator': 'РУП ""Белфармация""', 'phone': '+37517 2791527', 'website': 'https://pharma.by/'}}"
"{'type': 'node', 'id': 4821984430, 'lat': 52.7329997, 'lon': 28.5387444, 'tags': {'amenity': 'pharmacy', 'healthcare': 'pharmacy', 'name': 'Могилёвское РУП «Фармация» Аптека № 65', 'name:be': 'Магілёўскае РУП «Фармацыя» Аптэка № 65', 'name:ru': 'Могилёвское РУП «Фармация» Аптека № 65', 'operator': 'Могилёвское РУП «Фармация»', 'phone': '+375223049895'}}"
"{'type': 'node', 'id': 4821984432, 'lat': 53.2946185, 'lon': 28.6353214, 'tags': {'amenity': 'pharmacy', 'healthcare': 'pharmacy', 'name': 'Могилёвское РУП «Фармация» Аптека № 80', 'name:be': 'Магілёўскае РУП «Фармацыя» Аптэка № 80', 'name:ru': 'Могилёвское РУП «Фармация» Аптека № 80', 'operator': 'Могилёвское РУП «Фармация»', 'phone': '+375223572891'}}"
"{'type': 'node', 'id': 4821986027, 'lat': 52.9050446, 'lon': 28.6737137, 'tags': {'addr:housenumber': '5А', 'addr:street': 'вуліца Сямёнава', 'amenity': 'pharmacy', 'healthcare': 'pharmacy', 'name': 'Могилёвское РУП «Фармация» Аптека № 133', 'name:be': 'Магілёўскае РУП «Фармацыя» Аптэка № 133', 'name:ru': 'Могилёвское РУП «Фармация» Аптека № 133', 'operator': 'Могилёвское РУП «Фармация»', 'phone': '+375223043869'}}"
"{'type': 'node', 'id': 4839495722, 'lat': 53.7135731, 'lon': 28.4184616, 'tags': {'amenity': 'pharmacy', 'brand': 'Минская Фармация', 'brand:be': 'Мінская Фармацыя', 'brand:en': 'Minskaya Pharmacia', 'brand:ru': 'Минская Фармация', 'brand:wikidata': 'Q108553370', 'contact:email': 'inf@minfarm.by', 'contact:phone': '+375 1714 24660', 'contact:website': 'http://minfarm.by/', 'healthcare': 'pharmacy', 'name': 'Минская Фармация', 'name:be': 'Мінская Фармацыя', 'name:en': 'Minskaya Pharmacia', 'name:ru': 'Минская Фармация', 'opening_hours': 'Mo-Fr 10:00-14:00,14:30-18:30', 'operator': 'Торгово-производственное республиканское унитарное предприятие ""Минская Фармация""'}}"
"{'type': 'node', 'id': 4847916260, 'lat': 53.7044379, 'lon': 28.4142494, 'tags': {'amenity': 'hospital', 'name': 'Раённая бальніца', 'name:be': 'Раённая бальніца', 'name:ru': 'Районная больница'}}"
"{'type': 'node', 'id': 4887119722, 'lat': 53.1458282, 'lon': 29.2350311, 'tags': {'addr:housenumber': '131А', 'addr:street': 'вуліца Урыцкага', 'amenity': 'pharmacy', 'contact:phone': '+375 225 707019', 'contact:website': 'https://alfaapteka.by', 'healthcare': 'pharmacy', 'name': 'Доктор А №2', 'name:be': 'Доктар А №2', 'name:ru': 'Доктор А №2', 'opening_hours': 'Mo-Su 09:00-22:00', 'operator': 'СпецАфармация'}}"
"{'type': 'node', 'id': 4887838321, 'lat': 53.3105967, 'lon': 28.6362696, 'tags': {'amenity': 'dentist', 'healthcare': 'dentist', 'name': 'Стаматалагічная паліклініка', 'name:be': 'Стаматалагічная паліклініка', 'name:ru': 'Стоматологическая поликлиника', 'opening_hours': 'Mo-Fr 08:00-20:20; Sa 08:00-15:00'}}"
"{'type': 'node', 'id': 4922121555, 'lat': 53.1152842, 'lon': 29.1022332, 'tags': {'amenity': 'hospital', 'healthcare': 'hospital', 'name': 'Каменскі псіханеўралагічны дом-інтэрнат', 'name:be': 'Каменскі псіханеўралагічны дом-інтэрнат', 'name:ru': 'Каменский психоневрологический дом-интернат'}}"
"{'type': 'node', 'id': 4926639332, 'lat': 53.1443949, 'lon': 29.2156831, 'tags': {'amenity': 'pharmacy', 'healthcare': 'pharmacy'}}"
"{'type': 'node', 'id': 4973402021, 'lat': 53.8312161, 'lon': 28.9952582, 'tags': {'amenity': 'pharmacy', 'healthcare': 'pharmacy'}}"
"{'type': 'node', 'id': 5121908521, 'lat': 53.7028743, 'lon': 28.4157009, 'tags': {'amenity': 'pharmacy', 'contact:email': 'inf@minfarm.by', 'contact:phone': '+375 1714 21745', 'contact:website': 'https://minfarm.by/', 'healthcare': 'pharmacy', 'name': 'Минская Фармация', 'name:be': 'Мінская Фармацыя', 'name:en': 'Minskaya Pharmacia', 'name:ru': 'Минская Фармация', 'opening_hours': 'Mo-Fr 09:00-14:00,15:00-18:00; Sa-Su 09:00-13:30,14:00-17:30', 'operator': 'Торгово-производственное республиканское унитарное предприятие ""Минская Фармация""'}}"
"{'type': 'node', 'id': 5142255224, 'lat': 53.510908, 'lon': 28.1448622, 'tags': {'amenity': 'pharmacy', 'brand': 'Минская Фармация', 'brand:be': 'Мінская Фармацыя', 'brand:en': 'Minskaya Pharmacia', 'brand:ru': 'Минская Фармация', 'brand:wikidata': 'Q108553370', 'contact:email': 'inf@minfarm.by', 'contact:phone': '+375 1713 60376', 'contact:website': 'http://minfarm.by/', 'healthcare': 'pharmacy', 'name': 'Минская Фармация', 'name:be': 'Мінская Фармацыя', 'name:en': 'Minskaya Pharmacia', 'name:ru': 'Минская Фармация', 'opening_hours': 'Mo-Fr 09:10-14:20,14:40-17:30; Su 10:00-15:30', 'operator': 'Торгово-производственное республиканское унитарное предприятие ""Минская Фармация""', 'ref': '315'}}"
"{'type': 'node', 'id': 5168630521, 'lat': 53.1339469, 'lon': 29.2290516, 'tags': {'amenity': 'pharmacy', 'healthcare': 'pharmacy', 'opening_hours': 'Mo-Fr 08:00-20:00; Sa 08:00-18:00; Su 08:00-17:00'}}"
"{'type': 'node', 'id': 5318981409, 'lat': 53.3179794, 'lon': 28.6448726, 'tags': {'addr:housenumber': '63Б', 'addr:street': 'вуліца Сумчанкі', 'amenity': 'pharmacy', 'healthcare': 'pharmacy', 'name': 'Планета здароўя', 'name:be': 'Планета здароўя', 'name:ru': 'Планета здоровья', 'opening_hours': 'Mo-Su 09:00-21:00'}}"
"{'type': 'node', 'id': 5318995821, 'lat': 53.0544726, 'lon': 28.4128871, 'tags': {'amenity': 'hospital', 'name': 'ФАП', 'name:be': 'ФАП', 'name:ru': 'ФАП'}}"
"{'type': 'node', 'id': 5442229313, 'lat': 53.5013573, 'lon': 28.1724666, 'tags': {'amenity': 'pharmacy', 'contact:email': 'inf@minfarm.by', 'contact:phone': '+375 1713 55026', 'contact:website': 'http://minfarm.by/', 'healthcare': 'pharmacy', 'name': 'Минская Фармация', 'name:be': 'Мінская Фармацыя', 'name:en': 'Minskaya Pharmacia', 'name:ru': 'Минская Фармация', 'opening_hours': 'Mo-Fr 09:00-13:00,13:20-17:20', 'operator': 'Торгово-производственное республиканское унитарное предприятие ""Минская Фармация""', 'ref': '32'}}"
"{'type': 'node', 'id': 5443114897, 'lat': 53.2261249, 'lon': 27.9783953, 'tags': {'amenity': 'pharmacy', 'brand': 'Минская Фармация', 'brand:be': 'Мінская Фармацыя', 'brand:en': 'Minskaya Pharmacia', 'brand:ru': 'Минская Фармация', 'brand:wikidata': 'Q108553370', 'contact:email': 'inf@minfarm.by', 'contact:phone': '+375 1792 42191', 'contact:website': 'http://minfarm.by/', 'healthcare': 'pharmacy', 'name': 'Минская Фармация', 'name:be': 'Мінская Фармацыя', 'name:en': 'Minskaya Pharmacia', 'name:ru': 'Минская Фармация', 'opening_hours': 'Mo-Fr 08:30-14:30', 'operator': 'Торгово-производственное республиканское унитарное предприятие ""Минская Фармация""', 'ref': '181'}}"
"{'type': 'node', 'id': 5453732258, 'lat': 53.1750969, 'lon': 29.1858814, 'tags': {'addr:housenumber': '20', 'addr:street': 'вуліца Гагарына', 'amenity': 'hospital', 'healthcare': 'hospital', 'name': 'Прыёмны пакой', 'name:be': 'Прыёмны пакой', 'name:ru': 'Приемный покой'}}"
"{'type': 'node', 'id': 5553820123, 'lat': 53.1920934, 'lon': 29.2246171, 'tags': {'amenity': 'pharmacy', 'healthcare': 'pharmacy'}}"
"{'type': 'node', 'id': 5553825424, 'lat': 53.1945761, 'lon': 29.2223893, 'tags': {'amenity': 'pharmacy', 'healthcare': 'pharmacy'}}"
"{'type': 'node', 'id': 5553831121, 'lat': 53.191821, 'lon': 29.2252533, 'tags': {'amenity': 'pharmacy', 'healthcare': 'pharmacy'}}"
"{'type': 'node', 'id': 5731886597, 'lat': 53.3026427, 'lon': 28.6552501, 'tags': {'addr:housenumber': '2', 'addr:street': 'завулак Чарняхоўскага', 'amenity': 'pharmacy', 'dispensing': 'yes', 'healthcare': 'pharmacy', 'name': 'Аптэка №136', 'name:be': 'Аптэка №136', 'name:ru': 'Аптека №136', 'opening_hours': 'Mo-Su 11:30-14:30,15:00-22:00', 'operator': 'РУП ""Фармация""'}}"
"{'type': 'node', 'id': 5873678886, 'lat': 53.1503516, 'lon': 29.2266286, 'tags': {'amenity': 'pharmacy', 'healthcare': 'pharmacy'}}"
"{'type': 'node', 'id': 6109613786, 'lat': 53.1690971, 'lon': 29.1944921, 'tags': {'addr:city': 'Бабруйск', 'addr:housenumber': '23', 'addr:postcode': '213810', 'addr:street': 'вуліца 50 год УЛКСМ', 'amenity': 'pharmacy', 'contact:phone': '+375 225 719244', 'contact:website': 'https://alfaapteka.by/', 'dispensing': 'yes', 'healthcare': 'pharmacy', 'name': 'Доктор А №10', 'name:be': 'Доктар А', 'name:ru': 'Доктор А №10', 'opening_hours': 'Mo-Su 08:00-22:00', 'operator': 'СпецАфармация'}}"
"{'type': 'node', 'id': 6109709492, 'lat': 53.1645989, 'lon': 29.1946369, 'tags': {'addr:city': 'Бабруйск', 'addr:housenumber': '21', 'addr:postcode': '213811', 'addr:street': 'Ульянаўская вуліца', 'amenity': 'pharmacy', 'dispensing': 'yes', 'healthcare': 'pharmacy', 'name': 'А+', 'name:be': 'А+', 'name:ru': 'А+'}}"
"{'type': 'node', 'id': 6130489514, 'lat': 53.3093368, 'lon': 28.6389941, 'tags': {'amenity': 'pharmacy', 'dispensing': 'yes', 'healthcare': 'pharmacy', 'name': 'Аптэка', 'name:be': 'Аптэка', 'name:ru': 'Аптека', 'opening_hours': 'Mo-Su 09:00-21:00'}}"
"{'type': 'node', 'id': 6130494546, 'lat': 53.3100505, 'lon': 28.6393177, 'tags': {'amenity': 'pharmacy', 'dispensing': 'yes', 'healthcare': 'pharmacy', 'name': 'Аптэка', 'name:be': 'Аптэка', 'name:ru': 'Аптека', 'opening_hours': 'Mo-Su 09:00-21:00'}}"
"{'type': 'node', 'id': 6158826189, 'lat': 53.1448427, 'lon': 29.233753, 'tags': {'amenity': 'pharmacy', 'healthcare': 'pharmacy', 'name': 'Аптека 111/6 Фармация', 'name:be': 'Аптэка 111/6 Фармацыя', 'name:ru': 'Аптека 111/6 Фармация', 'opening_hours': 'Mo-Fr 08:00-13:00, 13:30-20:00; Sa-Su 09:00-13:00, 13:30-17:30'}}"
"{'type': 'node', 'id': 6302100985, 'lat': 53.1428742, 'lon': 29.219795, 'tags': {'amenity': 'pharmacy', 'healthcare': 'pharmacy', 'name': 'Аптека #24', 'name:be': 'Аптэка #24', 'name:ru': 'Аптека #24', 'opening_hours': 'Mo-Fr 08:00-20:00; Sa 08:00-18:00; Su 10:00-18:00', 'phone': '+375445423007'}}"
"{'type': 'node', 'id': 6743946844, 'lat': 53.1520083, 'lon': 29.2262048, 'tags': {'amenity': 'pharmacy', 'healthcare': 'pharmacy'}}"
"{'type': 'node', 'id': 6743948189, 'lat': 53.1515024, 'lon': 29.2261953, 'tags': {'amenity': 'pharmacy', 'healthcare': 'pharmacy'}}"
"{'type': 'node', 'id': 6885698100, 'lat': 53.1469683, 'lon': 29.2317299, 'tags': {'amenity': 'pharmacy', 'dispensing': 'yes', 'healthcare': 'pharmacy'}}"
"{'type': 'node', 'id': 7055846185, 'lat': 53.1641915, 'lon': 29.1668331, 'tags': {'amenity': 'pharmacy', 'healthcare': 'pharmacy'}}"
"{'type': 'node', 'id': 7193063876, 'lat': 53.0825882, 'lon': 29.2437191, 'tags': {'addr:city': 'Бабруйск', 'addr:housenumber': '291А', 'addr:postcode': '213800', 'addr:street': 'вуліца Кірава', 'amenity': 'hospital', 'healthcare': 'hospital', 'healthcare:speciality': 'plastic_surgery', 'name': 'Медыцынскі цэнтр пластычнай хірургіі «Ліямед»', 'name:be': 'Медыцынскі цэнтр пластычнай хірургіі «Ліямед»', 'name:ru': '«Лиямед» Медицинский центр пластической хирургии', 'name:uk': '«Ліямед» Медичний центр пластичної хірургії', 'website': 'http://liamed.by/'}}"
"{'type': 'node', 'id': 7321109114, 'lat': 53.0882644, 'lon': 28.8502037, 'tags': {'addr:city': 'Глуша', 'amenity': 'hospital', 'emergency': 'yes', 'healthcare': 'hospital', 'name': 'Глушанская бальніца', 'name:be': 'Глушанская бальніца', 'name:ru': 'Глушанская больница'}}"
"{'type': 'node', 'id': 7332004985, 'lat': 53.1226506, 'lon': 29.2343029, 'tags': {'addr:housenumber': '57-16', 'addr:street': 'Паркавая вуліца', 'amenity': 'pharmacy', 'contact:phone': '80225727350', 'healthcare': 'pharmacy', 'name': 'Доктор А №13', 'name:be': 'Доктар А №13', 'name:ru': 'Доктор А №13', 'opening_hours': 'Mo-Su 08:00-20:00', 'operator': 'СпецАфармация'}}"
"{'type': 'node', 'id': 7706641845, 'lat': 53.516425, 'lon': 28.1303182, 'tags': {'amenity': 'pharmacy', 'healthcare': 'pharmacy', 'opening_hours': 'Mo, Sa 10:00-18:00; Tu-Fr 09:30-19:30', 'operator': 'ОАО ""Вест""'}}"
"{'type': 'node', 'id': 7716402871, 'lat': 53.192539, 'lon': 29.224541, 'tags': {'amenity': 'pharmacy', 'contact:email': 'info@d-leki.by', 'contact:instagram': 'https://www.instagram.com/apteka_adel', 'contact:phone': '+375 25 5355757;+375 29 5355757;+375 44 5355757', 'contact:vk': 'https://vk.com/apteka_adel', 'contact:website': 'https://d-leki.by/', 'healthcare': 'pharmacy', 'name': 'Добрыя леки', 'name:be': 'Добрыя лекі', 'name:ru': 'Добрыя леки', 'opening_hours': 'Mo-Fr 08:00-21:00;Sa-Su 09:00-20:00', 'operator': '""Амадей""'}}"
"{'type': 'node', 'id': 7716402877, 'lat': 53.139444, 'lon': 29.215597, 'tags': {'amenity': 'pharmacy', 'contact:email': 'info@d-leki.by', 'contact:instagram': 'https://www.instagram.com/apteka_adel', 'contact:phone': '+375 25 5355757;+375 29 5355757;+375 44 5355757', 'contact:vk': 'https://vk.com/apteka_adel', 'contact:website': 'https://d-leki.by/', 'healthcare': 'pharmacy', 'name': 'Добрыя леки', 'name:be': 'Добрыя лекі', 'name:ru': 'Добрыя леки', 'opening_hours': 'Mo-Fr 09:00-20:00;Sa-Su 10:00-20:00', 'operator': '""Амадей""'}}"
"{'type': 'node', 'id': 7716411107, 'lat': 53.31057, 'lon': 28.639791, 'tags': {'amenity': 'pharmacy', 'contact:email': 'info@d-leki.by', 'contact:instagram': 'https://www.instagram.com/apteka_adel', 'contact:phone': '+375 25 5355757;+375 29 5355757;+375 44 5355757', 'contact:vk': 'https://vk.com/apteka_adel', 'contact:website': 'https://d-leki.by/', 'healthcare': 'pharmacy', 'name': 'Добрыя леки', 'name:be': 'Добрыя лекі', 'name:ru': 'Добрыя леки', 'opening_hours': 'Mo-Su 08:00-20:00', 'operator': '""Медфарм""'}}"
"{'type': 'node', 'id': 7716411122, 'lat': 53.132226, 'lon': 29.226545, 'tags': {'amenity': 'pharmacy', 'contact:email': 'info@d-leki.by', 'contact:instagram': 'https://www.instagram.com/apteka_adel', 'contact:phone': '+375 25 5355757;+375 29 5355757;+375 44 5355757', 'contact:vk': 'https://vk.com/apteka_adel', 'contact:website': 'https://d-leki.by/', 'healthcare': 'pharmacy', 'name': 'Добрыя леки', 'name:be': 'Добрыя лекі', 'name:ru': 'Добрыя леки', 'opening_hours': 'Mo-Su 08:00-20:00', 'operator': '""Медфарм""'}}"
"{'type': 'node', 'id': 7716411166, 'lat': 53.148665, 'lon': 29.231182, 'tags': {'amenity': 'pharmacy', 'contact:email': 'info@apteka-adel.by', 'contact:instagram': 'https://www.instagram.com/apteka_adel', 'contact:phone': '+375 25 6838787;+375 29 6838787;+375 33 6838787', 'contact:vk': 'https://vk.com/apteka_adel', 'contact:website': 'https://apteka-adel.by/', 'healthcare': 'pharmacy', 'name': 'ADEL', 'name:be': 'Адэль', 'name:ru': 'Адель', 'opening_hours': 'Mo-Fr 09:00-18:00;Sa 09:00-17:00;Su 09:00-16:00', 'operator': '""Медфарм""'}}"
"{'type': 'node', 'id': 7716411175, 'lat': 53.134626, 'lon': 29.225333, 'tags': {'amenity': 'pharmacy', 'contact:email': 'info@apteka-adel.by', 'contact:instagram': 'https://www.instagram.com/apteka_adel', 'contact:phone': '+375 25 6838787;+375 29 6838787;+375 33 6838787', 'contact:vk': 'https://vk.com/apteka_adel', 'contact:website': 'https://apteka-adel.by/', 'healthcare': 'pharmacy', 'name': 'ADEL', 'name:be': 'Адэль', 'name:ru': 'Адель', 'opening_hours': 'Mo-Fr 09:00-20:00;Sa-Su 09:00-17:00', 'operator': '""Медфарм""'}}"
"{'type': 'node', 'id': 7720865585, 'lat': 53.1710425, 'lon': 29.1916109, 'tags': {'amenity': 'pharmacy', 'healthcare': 'pharmacy', 'name': 'Аптека', 'name:be': 'Аптэка', 'name:ru': 'Аптека', 'opening_hours': 'Mo-Fr 09:00-21:00; Sa-Su 10:00-20:00'}}"
"{'type': 'node', 'id': 7809998090, 'lat': 52.648479, 'lon': 28.883035, 'tags': {'amenity': 'pharmacy', 'contact:email': 'info@d-leki.by', 'contact:instagram': 'https://www.instagram.com/apteka_adel', 'contact:phone': '+375 25 5355757;+375 29 5355757;+375 44 5355757', 'contact:vk': 'https://vk.com/apteka_adel', 'contact:website': 'https://d-leki.by/', 'healthcare': 'pharmacy', 'name': 'Добрыя лекі', 'name:be': 'Добрыя лекі', 'name:ru': 'Добрыя леки', 'opening_hours': 'Mo-Fr 09:00-20:00;Sa 10:00-20:00', 'operator': '""Медфарм""'}}"
"{'type': 'node', 'id': 7820112605, 'lat': 53.138562, 'lon': 29.2077769, 'tags': {'addr:housenumber': '47', 'addr:street': 'Інтэрнацыянальная вуліца', 'amenity': 'clinic', 'check_date': '2022-11-16', 'level': '0', 'name': 'Сонодзін', 'name:be': 'Сонодзін', 'name:ru': 'Сонодин', 'name:uk': 'Сонодін', 'opening_hours': 'Mo-Fr 08:00-20:00; Sa 08:00-17:00; Su off', 'wheelchair': 'yes'}}"
"{'type': 'node', 'id': 7868031355, 'lat': 53.8818791, 'lon': 28.6041735, 'tags': {'amenity': 'pharmacy', 'brand': 'Минская Фармация', 'brand:be': 'Мінская Фармацыя', 'brand:en': 'Minskaya Pharmacia', 'brand:ru': 'Минская Фармация', 'brand:wikidata': 'Q108553370', 'contact:email': 'inf@minfarm.by', 'contact:phone': '+375 1714 20719', 'contact:website': 'https://minfarm.by/', 'healthcare': 'pharmacy', 'name': 'Минская Фармация', 'name:be': 'Мінская Фармацыя', 'name:en': 'Minskaya Pharmacia', 'name:ru': 'Минская Фармация', 'opening_hours': 'Mo-Fr 09:00-13:00,13:20-15:20', 'operator': 'Торгово-производственное республиканское унитарное предприятие ""Минская Фармация""'}}"
"{'type': 'node', 'id': 7868031368, 'lat': 53.03513, 'lon': 28.244243, 'tags': {'amenity': 'pharmacy', 'contact:email': 'inf@minfarm.by', 'contact:phone': '+375 1792 30636', 'contact:website': 'http://minfarm.by/', 'healthcare': 'pharmacy', 'name': 'Минская Фармация', 'name:be': 'Мінская Фармацыя', 'name:en': 'Minskaya Pharmacia', 'name:ru': 'Минская Фармация', 'opening_hours': 'Mo-Fr 08:00-13:30,14:00-18:00', 'operator': 'Торгово-производственное республиканское унитарное предприятие ""Минская Фармация""'}}"
"{'type': 'node', 'id': 7868031370, 'lat': 53.8191043, 'lon': 28.0758555, 'tags': {'amenity': 'pharmacy', 'brand': 'Минская Фармация', 'brand:be': 'Мінская Фармацыя', 'brand:en': 'Minskaya Pharmacia', 'brand:ru': 'Минская Фармация', 'brand:wikidata': 'Q108553370', 'contact:email': 'inf@minfarm.by', 'contact:phone': '+375 1776 48449', 'contact:website': 'http://minfarm.by/', 'healthcare': 'pharmacy', 'name': 'Минская Фармация', 'name:be': 'Мінская Фармацыя', 'name:en': 'Minskaya Pharmacia', 'name:ru': 'Минская Фармация', 'opening_hours': 'Mo-Fr 08:00-13:00,14:00-17:00', 'operator': 'Торгово-производственное республиканское унитарное предприятие ""Минская Фармация""'}}"
"{'type': 'node', 'id': 7868062053, 'lat': 53.834121, 'lon': 28.993269, 'tags': {'amenity': 'pharmacy', 'brand': 'Минская Фармация', 'brand:be': 'Мінская Фармацыя', 'brand:en': 'Minskaya Pharmacia', 'brand:ru': 'Минская Фармация', 'brand:wikidata': 'Q108553370', 'contact:email': 'inf@minfarm.by', 'contact:phone': '+375 1715 61788', 'contact:website': 'https://minfarm.by/', 'healthcare': 'pharmacy', 'name': 'Минская Фармация', 'name:be': 'Мінская Фармацыя', 'name:en': 'Minskaya Pharmacia', 'name:ru': 'Минская Фармация', 'opening_hours': 'Sa 09:00-15:00;Tu-Fr 09:00-18:00', 'operator': 'Торгово-производственное республиканское унитарное предприятие ""Минская Фармация""'}}"
"{'type': 'node', 'id': 7868062056, 'lat': 53.8466342, 'lon': 29.1525811, 'tags': {'amenity': 'pharmacy', 'contact:email': 'inf@minfarm.by', 'contact:phone': '+375 1715 48256', 'contact:website': 'http://minfarm.by/', 'healthcare': 'pharmacy', 'name': 'Минская Фармация', 'name:be': 'Мінская Фармацыя', 'name:en': 'Minskaya Pharmacia', 'name:ru': 'Минская Фармация', 'opening_hours': 'Mo-Fr 09:00-12:00,12:30-17:30', 'operator': 'Торгово-производственное республиканское унитарное предприятие ""Минская Фармация""'}}"
"{'type': 'node', 'id': 7868113951, 'lat': 53.704216, 'lon': 28.414147, 'tags': {'amenity': 'pharmacy', 'contact:email': 'inf@minfarm.by', 'contact:phone': '+375 1714 24554', 'contact:website': 'http://minfarm.by/', 'healthcare': 'pharmacy', 'name': 'Минская Фармация', 'name:be': 'Мінская Фармацыя', 'name:en': 'Minskaya Pharmacia', 'name:ru': 'Минская Фармация', 'opening_hours': 'Mo-Fr 08:00-13:00,14:00-17:00', 'operator': 'Торгово-производственное республиканское унитарное предприятие ""Минская Фармация""'}}"
"{'type': 'node', 'id': 7868113952, 'lat': 53.762212, 'lon': 28.677594, 'tags': {'amenity': 'pharmacy', 'contact:email': 'inf@minfarm.by', 'contact:phone': '+375 1714 53540', 'contact:website': 'http://minfarm.by/', 'healthcare': 'pharmacy', 'name': 'Минская Фармация', 'name:be': 'Мінская Фармацыя', 'name:en': 'Minskaya Pharmacia', 'name:ru': 'Минская Фармация', 'opening_hours': 'Mo-Fr 08:00-12:00,12:20-14:20', 'operator': 'Торгово-производственное республиканское унитарное предприятие ""Минская Фармация""'}}"
"{'type': 'node', 'id': 7868113956, 'lat': 53.8334382, 'lon': 28.9811933, 'tags': {'amenity': 'pharmacy', 'contact:email': 'inf@minfarm.by', 'contact:phone': '+375 1715 65411;+375 1715 65412', 'contact:website': 'http://minfarm.by/', 'healthcare': 'pharmacy', 'name': 'Минская Фармация', 'name:be': 'Мінская Фармацыя', 'name:en': 'Minskaya Pharmacia', 'name:ru': 'Минская Фармация', 'opening_hours': 'Mo-Su 09:00-13:30,14:00-19:30', 'operator': 'Торгово-производственное республиканское унитарное предприятие ""Минская Фармация""'}}"
"{'type': 'node', 'id': 7868113957, 'lat': 53.824907, 'lon': 28.988725, 'tags': {'amenity': 'pharmacy', 'contact:email': 'inf@minfarm.by', 'contact:phone': '+375 1715 69547', 'contact:website': 'http://minfarm.by/', 'healthcare': 'pharmacy', 'name': 'Минская Фармация', 'name:be': 'Мінская Фармацыя', 'name:en': 'Minskaya Pharmacia', 'name:ru': 'Минская Фармация', 'opening_hours': 'Mo-Fr 08:00-13:00,13:30-18:30', 'operator': 'Торгово-производственное республиканское унитарное предприятие ""Минская Фармация""'}}"
"{'type': 'node', 'id': 7868131225, 'lat': 53.5185672, 'lon': 28.1555933, 'tags': {'amenity': 'pharmacy', 'contact:email': 'inf@minfarm.by', 'contact:phone': '+375 1713 35107', 'contact:website': 'http://minfarm.by/', 'healthcare': 'pharmacy', 'name': 'Минская Фармация', 'name:be': 'Мінская Фармацыя', 'name:en': 'Minskaya Pharmacia', 'name:ru': 'Минская Фармация', 'opening_hours': 'Mo-Fr 08:00-13:00,13:30-16:30', 'operator': 'Торгово-производственное республиканское унитарное предприятие ""Минская Фармация""'}}"
"{'type': 'node', 'id': 7868131246, 'lat': 52.804705, 'lon': 28.0070016, 'tags': {'amenity': 'pharmacy', 'contact:email': 'inf@minfarm.by', 'contact:phone': '+375 1794 60330', 'contact:website': 'http://minfarm.by/', 'healthcare': 'pharmacy', 'name': 'Минская Фармация', 'name:be': 'Мінская Фармацыя', 'name:en': 'Minskaya Pharmacia', 'name:ru': 'Минская Фармация', 'opening_hours': 'Mo-Fr 08:00-13:00,13:30-16:30', 'operator': 'Торгово-производственное республиканское унитарное предприятие ""Минская Фармация""'}}"
"{'type': 'node', 'id': 7868131247, 'lat': 53.0346231, 'lon': 28.2428777, 'tags': {'amenity': 'pharmacy', 'contact:email': 'inf@minfarm.by', 'contact:phone': '+375 1792 35128', 'contact:website': 'https://minfarm.by/', 'healthcare': 'pharmacy', 'name': 'Минская Фармация', 'name:be': 'Мінская Фармацыя', 'name:en': 'Minskaya Pharmacia', 'name:ru': 'Минская Фармация', 'opening_hours': 'Mo-Fr 09:30-14:00,14:30-20:00; Sa 09:30-14:00,14:30-18:00', 'operator': 'Торгово-производственное республиканское унитарное предприятие ""Минская Фармация""'}}"
"{'type': 'node', 'id': 7868131248, 'lat': 52.794193, 'lon': 27.973197, 'tags': {'amenity': 'pharmacy', 'contact:email': 'inf@minfarm.by', 'contact:phone': '+375 1794 61643', 'contact:website': 'http://minfarm.by/', 'healthcare': 'pharmacy', 'name': 'Минская Фармация', 'name:be': 'Мінская Фармацыя', 'name:en': 'Minskaya Pharmacia', 'name:ru': 'Минская Фармация', 'opening_hours': 'Mo-Fr 07:30-13:00,13:30-18:00', 'operator': 'Торгово-производственное республиканское унитарное предприятие ""Минская Фармация""'}}"
"{'type': 'node', 'id': 7868131249, 'lat': 52.7951072, 'lon': 27.9769635, 'tags': {'amenity': 'pharmacy', 'brand': 'Минская Фармация', 'brand:be': 'Мінская Фармацыя', 'brand:en': 'Minskaya Pharmacia', 'brand:ru': 'Минская Фармация', 'brand:wikidata': 'Q108553370', 'contact:email': 'inf@minfarm.by', 'contact:phone': '+375 1794 67686', 'contact:website': 'http://minfarm.by/', 'healthcare': 'pharmacy', 'name': 'Минская Фармация', 'name:be': 'Мінская Фармацыя', 'name:en': 'Minskaya Pharmacia', 'name:ru': 'Минская Фармация', 'opening_hours': 'Mo-Fr 10:00-14:00,14:30-20:00; Sa 10:30-15:30', 'operator': 'Торгово-производственное республиканское унитарное предприятие ""Минская Фармация""'}}"
"{'type': 'node', 'id': 7868131250, 'lat': 53.0390907, 'lon': 28.2602397, 'tags': {'amenity': 'pharmacy', 'contact:email': 'inf@minfarm.by', 'contact:phone': '+375 1792 37202', 'contact:website': 'http://minfarm.by/', 'healthcare': 'pharmacy', 'name': 'Минская Фармация', 'name:be': 'Мінская Фармацыя', 'name:en': 'Minskaya Pharmacia', 'name:ru': 'Минская Фармация', 'opening_hours': 'Mo-Fr 08:00-20:00; Sa-Su 08:00-16:30', 'operator': 'Торгово-производственное республиканское унитарное предприятие ""Минская Фармация""'}}"
"{'type': 'node', 'id': 7868131252, 'lat': 52.8558934, 'lon': 28.1821203, 'tags': {'amenity': 'pharmacy', 'contact:email': 'inf@minfarm.by', 'contact:phone': '+375 1794 56062', 'contact:website': 'http://minfarm.by/', 'healthcare': 'pharmacy', 'name': 'Минская Фармация', 'name:be': 'Мінская Фармацыя', 'name:en': 'Minskaya Pharmacia', 'name:ru': 'Минская Фармация', 'opening_hours': 'Mo-Fr 08:00-13:30,14:00-16:30', 'operator': 'Торгово-производственное республиканское унитарное предприятие ""Минская Фармация""'}}"
"{'type': 'node', 'id': 7868131256, 'lat': 52.669688, 'lon': 28.246094, 'tags': {'amenity': 'pharmacy', 'contact:email': 'inf@minfarm.by', 'contact:phone': '+375 1794 59269', 'contact:website': 'http://minfarm.by/', 'healthcare': 'pharmacy', 'name': 'Минская Фармация', 'name:be': 'Мінская Фармацыя', 'name:en': 'Minskaya Pharmacia', 'name:ru': 'Минская Фармация', 'opening_hours': 'Mo-Fr 08:00-13:00,14:00-17:00', 'operator': 'Торгово-производственное республиканское унитарное предприятие ""Минская Фармация""'}}"
"{'type': 'node', 'id': 8017107227, 'lat': 53.7048066, 'lon': 28.4157206, 'tags': {'amenity': 'pharmacy', 'healthcare': 'pharmacy', 'name': 'Аптека №11', 'name:be': 'Аптэка №11', 'name:ru': 'Аптека №11', 'opening_hours': '9:00-14:00,14:30-20:00', 'operator': 'ЧТУП ""ЛЕИКОМ""', 'phone': '+375171450570'}}"
"{'type': 'node', 'id': 8114292652, 'lat': 53.1376135, 'lon': 29.1631412, 'tags': {'addr:city': 'Бабруйск', 'addr:housenumber': '3А', 'addr:street': 'вуліца Гарэліка', 'amenity': 'pharmacy', 'dispensing': 'yes', 'healthcare': 'pharmacy', 'opening_hours': 'Mo-Su 09:00-20:00'}}"
"{'type': 'node', 'id': 8115461188, 'lat': 53.4318275, 'lon': 28.5413967, 'tags': {'addr:city': 'Лапічы', 'addr:housenumber': '2', 'addr:street': 'вуліца Газавікоў', 'amenity': 'pharmacy', 'drive_through': 'no', 'healthcare': 'pharmacy', 'opening_hours': 'Mo-Fr 09:00-16:30; Sa 09:00-14:00'}}"
"{'type': 'node', 'id': 8374794756, 'lat': 53.1733604, 'lon': 29.1952926, 'tags': {'amenity': 'pharmacy', 'contact:phone': '+375 225 719642', 'contact:website': 'https://alfaapteka.by', 'healthcare': 'pharmacy', 'name': 'АльфаАптека №3', 'name:be': 'АльфаАптэка №3', 'name:ru': 'АльфаАптека №3', 'name:uk': 'АльфаАптека №3', 'opening_hours': 'Mo-Su 09:00-19:00', 'operator': 'СпецАфармация'}}"
"{'type': 'node', 'id': 8374794757, 'lat': 53.197895, 'lon': 29.2274147, 'tags': {'amenity': 'pharmacy', 'contact:phone': '+375 225 715519', 'contact:website': 'https://alfaapteka.by', 'healthcare': 'pharmacy', 'name': 'Альфа Аптека №8', 'name:be': 'Альфа Аптэка №8', 'name:ru': 'Альфа Аптека №8', 'opening_hours': 'Mo-Sa 09:00-21:00; Su 09:00-20:00', 'operator': 'СпецАфармация'}}"
"{'type': 'node', 'id': 8374794758, 'lat': 53.1481988, 'lon': 29.2299226, 'tags': {'amenity': 'pharmacy', 'contact:phone': '+375 225 435599', 'contact:website': 'https://alfaapteka.by', 'healthcare': 'pharmacy', 'name': 'Альфа Аптека №9', 'name:be': 'Доктар А №9', 'name:ru': 'Альфа Аптека №9', 'opening_hours': 'Mo-Su 08:00-20:00', 'operator': 'СпецАфармация'}}"
"{'type': 'node', 'id': 8375041256, 'lat': 53.1572964, 'lon': 29.2154253, 'tags': {'amenity': 'pharmacy', 'contact:phone': '+375 225 774777', 'contact:website': 'https://alfaapteka.by', 'healthcare': 'pharmacy', 'name': 'Альфа Аптека №7', 'name:be': 'Альфа Аптэка №7', 'name:ru': 'Альфа Аптека №7', 'opening_hours': 'Mo-Sa 10:00-20:00; Su 10:00-18:00', 'operator': 'СпецАфармация'}}"
"{'type': 'node', 'id': 8556324861, 'lat': 53.0383392, 'lon': 28.2659072, 'tags': {'amenity': 'pharmacy', 'contact:email': 'inf@minfarm.by', 'contact:phone': '+375 1792 31017', 'contact:website': 'https://minfarm.by/', 'healthcare': 'pharmacy', 'name': 'Минская Фармация', 'name:be': 'Мінская Фармацыя', 'name:ru': 'Минская Фармация', 'opening_hours': 'Sa-Su 10:00-14:00;Tu-Fr 10:00-18:00', 'operator': 'Торгово-производственное республиканское унитарное предприятие ""Минская Фармация""'}}"
"{'type': 'node', 'id': 8693434784, 'lat': 53.7055374, 'lon': 28.4347751, 'tags': {'amenity': 'pharmacy', 'contact:email': 'inf@minfarm.by', 'contact:phone': '+375 1714 20618', 'contact:website': 'http://minfarm.by/', 'healthcare': 'pharmacy', 'name': 'Минская Фармация', 'name:be': 'Мінская Фармацыя', 'name:en': 'Minskaya Pharmacia', 'name:ru': 'Минская Фармация', 'opening_hours': 'Sa 09:00-14:00,14:30-17:30; Tu-Fr 10:00-14:00,15:00-19:00', 'operator': 'Торгово-производственное республиканское унитарное предприятие ""Минская Фармация""'}}"
"{'type': 'node', 'id': 8693443468, 'lat': 53.133999, 'lon': 29.229024, 'tags': {'amenity': 'pharmacy', 'contact:instagram': 'https://www.instagram.com/alfaapteka_by/', 'contact:phone': '+375 225 720077', 'contact:website': 'https://alfaapteka.by', 'healthcare': 'pharmacy', 'name': 'Доктор А №1', 'name:be': 'Доктар А №1', 'name:ru': 'Доктор А №1', 'opening_hours': 'Mo-Fr 08:00-20:00; Sa 08:00-18:00; Su 08:00-17:00', 'operator': 'СпецАфармация'}}"
"{'type': 'node', 'id': 8693443469, 'lat': 53.170621, 'lon': 29.199004, 'tags': {'amenity': 'pharmacy', 'contact:instagram': 'https://www.instagram.com/alfaapteka_by/', 'contact:phone': '+375 225 789054', 'healthcare': 'pharmacy', 'name': 'Доктар А №11', 'name:be': 'Доктар А №11', 'name:ru': 'Доктор А №11', 'opening_hours': 'Mo-Su 08:00-22:00', 'operator': 'СпецАфармация'}}"
"{'type': 'node', 'id': 8693443470, 'lat': 53.1377044, 'lon': 29.1627654, 'tags': {'amenity': 'pharmacy', 'contact:instagram': 'https://www.instagram.com/alfaapteka_by/', 'contact:phone': '+375 225 704605', 'contact:website': 'https://alfaapteka.by', 'healthcare': 'pharmacy', 'name': 'Доктор А №6', 'name:be': 'Доктар А №6', 'name:ru': 'Доктор А №6', 'opening_hours': 'Mo-Su 09:00-20:00', 'operator': 'СпецАфармация'}}"
"{'type': 'node', 'id': 8749162123, 'lat': 53.18972, 'lon': 29.223987, 'tags': {'amenity': 'pharmacy', 'contact:phone': '+375 225 733215;+375 44 5392118', 'contact:website': 'https://www.xn--80ae3aiajchjo.xn--90ais/', 'healthcare': 'pharmacy', 'name': 'Аптека №28 ФармОстров', 'name:be': 'Аптэка №28 ФармВостраў', 'name:ru': 'Аптека №28 ФармОстров', 'opening_hours': 'Mo-Su 08:00-21:00'}}"
"{'type': 'node', 'id': 8841830549, 'lat': 53.1346164, 'lon': 29.2254727, 'tags': {'amenity': 'pharmacy', 'contact:email': 'info@d-leki.by', 'contact:phone': '+375 29 5355757', 'contact:website': 'https://d-leki.by/', 'healthcare': 'pharmacy', 'name': 'Добрыя лекi', 'name:be': 'Добрыя лекi', 'name:ru': 'Добрые леки', 'opening_hours': 'Mo-Fr 09:00-20:00;Sa-Su 09:00-17:00'}}"
"{'type': 'node', 'id': 8841830550, 'lat': 53.1487426, 'lon': 29.2314513, 'tags': {'amenity': 'pharmacy', 'contact:email': 'info@d-leki.by', 'contact:phone': '+375 29 5355757', 'contact:website': 'https://d-leki.by/', 'healthcare': 'pharmacy', 'name': 'Добрыя лекi', 'name:be': 'Добрыя лекi', 'name:ru': 'Добрые леки', 'opening_hours': 'Mo-Fr 08:00-20:00;Sa 08:00-17:00;Su 09:00-16:00'}}"
"{'type': 'node', 'id': 8841830551, 'lat': 53.1398137, 'lon': 29.2230023, 'tags': {'amenity': 'pharmacy', 'contact:phone': '+375 225 734920', 'contact:website': 'https://alfaapteka.by', 'healthcare': 'pharmacy', 'name': 'Альфа Аптека №11', 'name:be': 'Альфа Аптэка №11', 'name:ru': 'Альфа Аптека №11', 'opening_hours': 'Mo-Su 09:00-21:00'}}"
"{'type': 'node', 'id': 9240169552, 'lat': 53.16526, 'lon': 29.1876161, 'tags': {'amenity': 'pharmacy', 'contact:email': 'apteka3@ligmaton.com', 'contact:phone': '+375 225 703827;+375 225 709396', 'contact:website': 'https://ligmaton.by/', 'healthcare': 'pharmacy', 'name': 'Аптека №3 Лигматон', 'name:be': 'Аптэка №3 Лігматон', 'name:ru': 'Аптека №3 Лигматон', 'opening_hours': 'Mo-Su 09:00-23:00'}}"
"{'type': 'node', 'id': 9471085611, 'lat': 53.136803, 'lon': 29.227281, 'tags': {'amenity': 'pharmacy', 'contact:phone': '+375 44 7636836', 'contact:website': 'http://ostrovzdorovya.by/', 'healthcare': 'pharmacy', 'name': 'Остров здоровья', 'name:be': 'Востраў здароўя', 'name:ru': 'Остров здоровья', 'opening_hours': 'Mo-Fr 08:00-20:00; Sa-Su 08:00-18:00'}}"
"{'type': 'node', 'id': 9605819318, 'lat': 52.9055822, 'lon': 28.6743588, 'tags': {'addr:city': 'Глуск', 'addr:housenumber': '5А', 'addr:street': 'вуліца Сямёнава', 'amenity': 'doctors', 'contact:email': 'mzrb@belcmt.by', 'contact:phone': '+375 2230 78125;+375 2230 78136;+375 2230 78141', 'contact:website': 'http://minzdrav.gov.by/dlya-belorusskikh-grazhdan/vaktsinatsiya/', 'healthcare': 'doctor', 'name': 'Пункт вакцынацыі ад COVID-19', 'name:be': 'Пункт вакцынацыі ад COVID-19', 'name:ru': 'Пункт вакцинации от COVID-19', 'opening_hours': 'Mo-Fr 07:30-20:00; Sa 09:00-17:00; Su 00:00-24:00'}}"
"{'type': 'node', 'id': 9605984465, 'lat': 53.3225464, 'lon': 28.6469832, 'tags': {'addr:housenumber': '4', 'addr:street': 'вуліца 60 год Кастрычніка', 'amenity': 'doctors', 'contact:email': 'mzrb@belcmt.by', 'contact:phone': '+375 2235 50882', 'contact:website': 'http://minzdrav.gov.by/dlya-belorusskikh-grazhdan/vaktsinatsiya/', 'healthcare': 'doctor', 'name': 'Пункт вакцынацыі ад COVID-19', 'name:be': 'Пункт вакцынацыі ад COVID-19', 'name:ru': 'Пункт вакцинации от COVID-19', 'opening_hours': 'Mo-Fr 08:00-15:00; Sa-Su 16:30-19:00'}}"
"{'type': 'node', 'id': 9612836264, 'lat': 53.1437018, 'lon': 29.2143123, 'tags': {'addr:housenumber': '37', 'addr:street': 'Пралетарская вуліца', 'amenity': 'doctors', 'contact:email': 'mzrb@belcmt.by', 'contact:phone': '+375 225 435383', 'contact:website': 'http://minzdrav.gov.by/dlya-belorusskikh-grazhdan/vaktsinatsiya/', 'healthcare': 'doctor', 'name': 'Пункт вакцынацыі ад COVID-19', 'name:be': 'Пункт вакцынацыі ад COVID-19', 'name:ru': 'Пункт вакцинации от COVID-19', 'opening_hours': 'Mo-Fr 08:00-19:00; Sa 08:00-17:00; Su 09:00-15:00'}}"
"{'type': 'node', 'id': 9612930072, 'lat': 53.1092591, 'lon': 29.2437695, 'tags': {'addr:city': 'Бабруйск', 'addr:housenumber': '139', 'addr:street': 'вуліца Кірава', 'amenity': 'doctors', 'contact:email': 'mzrb@belcmt.by', 'contact:phone': '+375 225 764671', 'contact:website': 'http://minzdrav.gov.by/dlya-belorusskikh-grazhdan/vaktsinatsiya/', 'healthcare': 'doctor', 'name': 'Пункт вакцынацыі ад COVID-19', 'name:be': 'Пункт вакцынацыі ад COVID-19', 'name:ru': 'Пункт вакцинации от COVID-19', 'opening_hours': 'Mo-Fr 08:00-20:00; Sa 08:00-18:00'}}"
"{'type': 'node', 'id': 9612934541, 'lat': 53.1351661, 'lon': 29.2285327, 'tags': {'addr:city': 'Бабруйск', 'addr:housenumber': '29', 'addr:street': 'Камсамольская вуліца', 'amenity': 'doctors', 'contact:email': 'mzrb@belcmt.by', 'contact:phone': '+375 225 726303', 'contact:website': 'http://minzdrav.gov.by/dlya-belorusskikh-grazhdan/vaktsinatsiya/', 'healthcare': 'doctor', 'name': 'Пункт вакцынацыі ад COVID-19', 'name:be': 'Пункт вакцынацыі ад COVID-19', 'name:ru': 'Пункт вакцинации от COVID-19', 'opening_hours': 'Mo-Fr 08:00-17:30; Sa 08:00-14:30'}}"
"{'type': 'node', 'id': 9612952408, 'lat': 53.1321616, 'lon': 29.2359639, 'tags': {'addr:housenumber': '8', 'addr:street': 'вуліца Дзяржынскага', 'contact:email': 'mzrb@belcmt.by', 'contact:phone': '+375 225 710358', 'contact:website': 'http://minzdrav.gov.by/dlya-belorusskikh-grazhdan/vaktsinatsiya/', 'healthcare': 'vaccination_centre', 'name': 'Пункт вакцынацыі ад COVID-19', 'name:be': 'Пункт вакцынацыі ад COVID-19', 'name:ru': 'Пункт вакцинации от COVID-19', 'opening_hours': 'Mo-Fr 08:00-14:30; Sa 08:00-12:30'}}"
"{'type': 'node', 'id': 9612952640, 'lat': 53.1325736, 'lon': 29.2206283, 'tags': {'addr:city': 'Бабруйск', 'addr:housenumber': '46', 'addr:postcode': '213826', 'addr:street': 'Кастрычніцкая вуліца', 'amenity': 'doctors', 'contact:email': 'mzrb@belcmt.by', 'contact:phone': '+375 225 545654', 'contact:website': 'http://minzdrav.gov.by/dlya-belorusskikh-grazhdan/vaktsinatsiya/', 'healthcare': 'doctor', 'name': 'Пункт вакцынацыі ад COVID-19', 'name:be': 'Пункт вакцынацыі ад COVID-19', 'name:ru': 'Пункт вакцинации от COVID-19', 'opening_hours': 'Mo-Fr 08:00-14:30; Sa 08:00-13:30'}}"
"{'type': 'node', 'id': 9612953893, 'lat': 53.16306, 'lon': 29.2120869, 'tags': {'addr:housenumber': '100А', 'addr:street': 'Мінская вуліца', 'amenity': 'doctors', 'contact:email': 'mzrb@belcmt.by', 'contact:phone': '+375 225 716137', 'contact:website': 'http://minzdrav.gov.by/dlya-belorusskikh-grazhdan/vaktsinatsiya/', 'healthcare': 'doctor', 'name': 'Пункт вакцынацыі ад COVID-19', 'name:be': 'Пункт вакцынацыі ад COVID-19', 'name:ru': 'Пункт вакцинации от COVID-19', 'opening_hours': 'Mo-Fr 08:00-19:00; Sa 08:00-17:00; Su 09:00-14:00'}}"
"{'type': 'node', 'id': 9612958305, 'lat': 53.1310992, 'lon': 29.2030656, 'tags': {'addr:housenumber': '2', 'addr:street': 'Нова-Шасэйная вуліца', 'amenity': 'doctors', 'contact:email': 'mzrb@belcmt.by', 'contact:phone': '+375 225 736744', 'contact:website': 'http://minzdrav.gov.by/dlya-belorusskikh-grazhdan/vaktsinatsiya/', 'healthcare': 'doctor', 'name': 'Пункт вакцынацыі ад COVID-19', 'name:be': 'Пункт вакцынацыі ад COVID-19', 'name:ru': 'Пункт вакцинации от COVID-19', 'opening_hours': 'Mo-Fr 08:00-19:30; Sa 08:00-17:30'}}"
"{'type': 'node', 'id': 9612959425, 'lat': 53.1694687, 'lon': 29.1953544, 'tags': {'addr:city': 'Бабруйск', 'addr:housenumber': '18', 'addr:street': 'вуліца 50 год УЛКСМ', 'amenity': 'doctors', 'contact:email': 'mzrb@belcmt.by', 'contact:phone': '+375 225 736284', 'contact:website': 'http://minzdrav.gov.by/dlya-belorusskikh-grazhdan/vaktsinatsiya/', 'healthcare': 'doctor', 'name': 'Пункт вакцынацыі ад COVID-19', 'name:be': 'Пункт вакцынацыі ад COVID-19', 'name:ru': 'Пункт вакцинации от COVID-19', 'opening_hours': 'Mo-Fr 08:00-19:00; Sa 09:00-15:00; Su 09:00-14:00'}}"
"{'type': 'node', 'id': 9612964322, 'lat': 53.1904523, 'lon': 29.2235473, 'tags': {'addr:housenumber': '37', 'addr:street': 'праспект Будаўнікоў', 'amenity': 'doctors', 'contact:email': 'mzrb@belcmt.by', 'contact:phone': '+375 225 741643', 'contact:website': 'http://minzdrav.gov.by/dlya-belorusskikh-grazhdan/vaktsinatsiya/', 'healthcare': 'doctor', 'name': 'Пункт вакцынацыі ад COVID-19', 'name:be': 'Пункт вакцынацыі ад COVID-19', 'name:ru': 'Пункт вакцинации от COVID-19', 'opening_hours': 'Mo-Fr 08:00-20:00; Sa 08:00-18:00; Su 09:00-15:00'}}"
"{'type': 'node', 'id': 9612970571, 'lat': 53.1654557, 'lon': 29.2072505, 'tags': {'addr:city': 'Бабруйск', 'addr:housenumber': '111', 'addr:street': 'Мінская вуліца', 'amenity': 'doctors', 'contact:email': 'mzrb@belcmt.by', 'contact:phone': '+375 17 2224627;+375 17 2226547', 'contact:website': 'http://minzdrav.gov.by/dlya-belorusskikh-grazhdan/vaktsinatsiya/', 'healthcare': 'doctor', 'name': 'Пункт вакцынацыі ад COVID-19', 'name:be': 'Пункт вакцынацыі ад COVID-19', 'name:ru': 'Пункт вакцинации от COVID-19', 'opening_hours': 'Mo-Fr 16:00-18:00; Sa-Su 11:00-19:00'}}"
"{'type': 'node', 'id': 9612970689, 'lat': 53.1698258, 'lon': 29.203344, 'tags': {'addr:city': 'Бабруйск', 'addr:housenumber': '135', 'addr:street': 'Мінская вуліца', 'amenity': 'doctors', 'contact:email': 'mzrb@belcmt.by', 'contact:phone': '+375 17 2224627;+375 17 2226547', 'contact:website': 'http://minzdrav.gov.by/dlya-belorusskikh-grazhdan/vaktsinatsiya/', 'healthcare': 'doctor', 'name': 'Пункт вакцынацыі ад COVID-19', 'name:be': 'Пункт вакцынацыі ад COVID-19', 'name:ru': 'Пункт вакцинации от COVID-19', 'opening_hours': 'Mo-Fr 15:00-17:00; Sa-Su 11:00-19:00'}}"
"{'type': 'node', 'id': 9612979574, 'lat': 53.1653404, 'lon': 29.1873131, 'tags': {'addr:housenumber': '33', 'addr:street': 'вуліца 50 год УЛКСМ', 'amenity': 'doctors', 'contact:email': 'mzrb@belcmt.by', 'contact:phone': '+375 17 2224627;+375 17 2226547', 'contact:website': 'http://minzdrav.gov.by/dlya-belorusskikh-grazhdan/vaktsinatsiya/', 'healthcare': 'doctor', 'name': 'Пункт вакцынацыі ад COVID-19', 'name:be': 'Пункт вакцынацыі ад COVID-19', 'name:ru': 'Пункт вакцинации от COVID-19', 'opening_hours': 'Mo-Fr 15:00-17:00; Sa-Su 11:00-19:00'}}"
"{'type': 'node', 'id': 9620280222, 'lat': 53.7123187, 'lon': 28.4190186, 'tags': {'amenity': 'pharmacy', 'healthcare': 'pharmacy'}}"
"{'type': 'node', 'id': 9685195964, 'lat': 53.8481416, 'lon': 29.1512745, 'tags': {'amenity': 'doctors', 'contact:email': 'mzrb@belcmt.by', 'contact:phone': '+375 1715 33318', 'contact:website': 'http://minzdrav.gov.by/dlya-belorusskikh-grazhdan/vaktsinatsiya/', 'healthcare': 'doctor', 'name': 'Пункт вакцынацыі ад COVID-19', 'name:be': 'Пункт вакцынацыі ад COVID-19', 'name:ru': 'Пункт вакцинации от COVID-19', 'opening_hours': 'Mo-Fr 08:00-13:00,13:30-18:45; Sa 08:00-13:00,13:30-17:30'}}"
"{'type': 'node', 'id': 9685198370, 'lat': 53.8249899, 'lon': 28.988884, 'tags': {'addr:housenumber': '6', 'addr:street': 'вуліца Марыі Рамановіч', 'amenity': 'doctors', 'contact:email': 'mzrb@belcmt.by', 'contact:phone': '+375 1715 69503;+375 1715 69626', 'contact:website': 'http://minzdrav.gov.by/dlya-belorusskikh-grazhdan/vaktsinatsiya/', 'healthcare': 'doctor', 'name': 'Пункт вакцынацыі ад COVID-19', 'name:be': 'Пункт вакцынацыі ад COVID-19', 'name:ru': 'Пункт вакцинации от COVID-19', 'opening_hours': 'Mo-Fr 08:00-19:00'}}"
"{'type': 'node', 'id': 9690068633, 'lat': 52.7712839, 'lon': 28.2655488, 'tags': {'addr:city': 'Ямінск', 'amenity': 'doctors', 'contact:email': 'mzrb@belcmt.by', 'contact:phone': '+375 1794 61901', 'contact:website': 'http://minzdrav.gov.by/dlya-belorusskikh-grazhdan/vaktsinatsiya/', 'healthcare': 'doctor', 'name': 'Пункт вакцынацыі ад COVID-19', 'name:be': 'Пункт вакцынацыі ад COVID-19', 'name:ru': 'Пункт вакцинации от COVID-19', 'opening_hours': 'Mo-Fr 08:00-15:00'}}"
"{'type': 'node', 'id': 9690091288, 'lat': 52.8560017, 'lon': 28.1821762, 'tags': {'addr:city': 'Асавец', 'addr:housenumber': '19', 'addr:postcode': '223825', 'addr:street': 'Лясная вуліца', 'amenity': 'doctors', 'contact:email': 'mzrb@belcmt.by', 'contact:phone': '+375 1794 35337', 'contact:website': 'http://minzdrav.gov.by/dlya-belorusskikh-grazhdan/vaktsinatsiya/', 'healthcare': 'doctor', 'name': 'Пункт вакцынацыі ад COVID-19', 'name:be': 'Пункт вакцынацыі ад COVID-19', 'name:ru': 'Пункт вакцинации от COVID-19', 'opening_hours': 'Mo-Fr 08:00-19:00'}}"
"{'type': 'node', 'id': 9690093724, 'lat': 52.7235149, 'lon': 28.0500143, 'tags': {'addr:city': 'Рэдкавічы', 'amenity': 'doctors', 'contact:email': 'mzrb@belcmt.by', 'contact:phone': '+375 1794 67334', 'contact:website': 'http://minzdrav.gov.by/dlya-belorusskikh-grazhdan/vaktsinatsiya/', 'healthcare': 'doctor', 'name': 'Пункт вакцынацыі ад COVID-19', 'name:be': 'Пункт вакцынацыі ад COVID-19', 'name:ru': 'Пункт вакцинации от COVID-19', 'opening_hours': 'Mo-Fr 08:00-17:00'}}"
"{'type': 'node', 'id': 9690108642, 'lat': 52.7896935, 'lon': 28.0195794, 'tags': {'addr:city': 'Сарачы', 'addr:housenumber': '4А', 'addr:street': 'Савецкая вуліца', 'amenity': 'doctors', 'contact:email': 'mzrb@belcmt.by', 'contact:phone': '+375 1794 61819', 'contact:website': 'http://minzdrav.gov.by/dlya-belorusskikh-grazhdan/vaktsinatsiya/', 'healthcare': 'doctor', 'name': 'Пункт вакцынацыі ад COVID-19', 'name:be': 'Пункт вакцынацыі ад COVID-19', 'name:ru': 'Пункт вакцинации от COVID-19', 'opening_hours': 'Mo-Fr 08:00-19:00'}}"
"{'type': 'node', 'id': 9690513696, 'lat': 53.5044282, 'lon': 28.1637183, 'tags': {'addr:city': 'Марʼіна Горка', 'addr:housenumber': '36А', 'addr:postcode': '222827', 'addr:street': 'вуліца Новая Зара', 'amenity': 'doctors', 'contact:email': 'mzrb@belcmt.by', 'contact:phone': '+375 1713 34734', 'contact:website': 'http://minzdrav.gov.by/dlya-belorusskikh-grazhdan/vaktsinatsiya/', 'healthcare': 'doctor', 'name': 'Пункт вакцынацыі ад COVID-19', 'name:be': 'Пункт вакцынацыі ад COVID-19', 'name:ru': 'Пункт вакцинации от COVID-19', 'opening_hours': 'Mo-Fr 08:00-16:00'}}"
"{'type': 'node', 'id': 9690534717, 'lat': 53.5180954, 'lon': 28.1556982, 'tags': {'addr:housenumber': '50', 'addr:street': 'вуліца Калініна', 'amenity': 'doctors', 'contact:email': 'mzrb@belcmt.by', 'contact:phone': '+375 1713 35925', 'contact:website': 'http://minzdrav.gov.by/dlya-belorusskikh-grazhdan/vaktsinatsiya/', 'healthcare': 'doctor', 'name': 'Пункт вакцынацыі ад COVID-19', 'name:be': 'Пункт вакцынацыі ад COVID-19', 'name:ru': 'Пункт вакцинации от COVID-19', 'opening_hours': 'Mo-Fr 07:30-18:00'}}"
"{'type': 'node', 'id': 9690651822, 'lat': 53.8228731, 'lon': 28.0779866, 'tags': {'addr:city': 'Драчкава', 'addr:housenumber': '19', 'addr:street': 'Цэнтральная вуліца', 'amenity': 'doctors', 'contact:email': 'mzrb@belcmt.by', 'contact:phone': '+375 1776 48454', 'contact:website': 'http://minzdrav.gov.by/dlya-belorusskikh-grazhdan/vaktsinatsiya/', 'healthcare': 'doctor', 'name': 'Пункт вакцынацыі ад COVID-19', 'name:be': 'Пункт вакцынацыі ад COVID-19', 'name:ru': 'Пункт вакцинации от COVID-19', 'opening_hours': 'Mo-Fr 08:00-19:00; Sa 13:00-14:00'}}"
"{'type': 'node', 'id': 9690689390, 'lat': 53.8229074, 'lon': 28.0763918, 'tags': {'addr:city': 'Драчкава', 'addr:housenumber': '4', 'addr:street': 'Цэнтральная вуліца', 'amenity': 'doctors', 'contact:email': 'mzrb@belcmt.by', 'contact:phone': '+375 1776 41028', 'contact:website': 'http://minzdrav.gov.by/dlya-belorusskikh-grazhdan/vaktsinatsiya/', 'healthcare': 'doctor', 'name': 'Пункт вакцынацыі ад COVID-19', 'name:be': 'Пункт вакцынацыі ад COVID-19', 'name:ru': 'Пункт вакцинации от COVID-19', 'opening_hours': 'Mo-Fr 08:00-19:00; Sa 13:00-14:00'}}"
"{'type': 'node', 'id': 9691535624, 'lat': 52.9805189, 'lon': 27.9689375, 'tags': {'addr:city': 'Языль', 'amenity': 'doctors', 'contact:email': 'mzrb@belcmt.by', 'contact:phone': '+375 1792 44337', 'contact:website': 'http://minzdrav.gov.by/dlya-belorusskikh-grazhdan/vaktsinatsiya/', 'healthcare': 'doctor', 'name': 'Пункт вакцынацыі ад COVID-19', 'name:be': 'Пункт вакцынацыі ад COVID-19', 'name:ru': 'Пункт вакцинации от COVID-19', 'opening_hours': 'Mo-Fr 08:00-15:30'}}"
"{'type': 'node', 'id': 9691543449, 'lat': 53.0351457, 'lon': 28.2440699, 'tags': {'addr:city': 'Старыя Дарогі', 'amenity': 'doctors', 'contact:email': 'mzrb@belcmt.by', 'contact:phone': '+375 1792 30336;+375 1792 37263;+375 1792 39278;+375 1792 39279', 'contact:website': 'http://minzdrav.gov.by/dlya-belorusskikh-grazhdan/vaktsinatsiya/', 'healthcare': 'doctor', 'name': 'Пункт вакцынацыі ад COVID-19', 'name:be': 'Пункт вакцынацыі ад COVID-19', 'name:ru': 'Пункт вакцинации от COVID-19', 'opening_hours': 'Mo-Fr 08:00-13:00,14:00-19:00; Sa 08:00-14:00'}}"
"{'type': 'node', 'id': 9691547265, 'lat': 53.1634647, 'lon': 28.1312363, 'tags': {'addr:city': 'Дражна', 'amenity': 'doctors', 'contact:email': 'mzrb@belcmt.by', 'contact:phone': '+375 1792 46137', 'contact:website': 'http://minzdrav.gov.by/dlya-belorusskikh-grazhdan/vaktsinatsiya/', 'healthcare': 'doctor', 'name': 'Пункт вакцынацыі ад COVID-19', 'name:be': 'Пункт вакцынацыі ад COVID-19', 'name:ru': 'Пункт вакцинации от COVID-19', 'opening_hours': 'Mo-Fr 08:00-15:30'}}"
"{'type': 'node', 'id': 9691551817, 'lat': 52.9311037, 'lon': 28.4306735, 'tags': {'addr:city': 'Палажэвічы', 'amenity': 'doctors', 'contact:email': 'mzrb@belcmt.by', 'contact:phone': '+375 1792 42618', 'contact:website': 'http://minzdrav.gov.by/dlya-belorusskikh-grazhdan/vaktsinatsiya/', 'healthcare': 'doctor', 'name': 'Пункт вакцынацыі ад COVID-19', 'name:be': 'Пункт вакцынацыі ад COVID-19', 'name:ru': 'Пункт вакцинации от COVID-19', 'opening_hours': 'Mo-Fr 08:00-15:30'}}"
"{'type': 'node', 'id': 9691552419, 'lat': 53.2203965, 'lon': 27.9859241, 'tags': {'addr:city': 'Шчыткавічы', 'amenity': 'doctors', 'contact:email': 'mzrb@belcmt.by', 'contact:phone': '+375 1792 42167', 'contact:website': 'http://minzdrav.gov.by/dlya-belorusskikh-grazhdan/vaktsinatsiya/', 'healthcare': 'doctor', 'name': 'Пункт вакцынацыі ад COVID-19', 'name:be': 'Пункт вакцынацыі ад COVID-19', 'name:ru': 'Пункт вакцинации от COVID-19', 'opening_hours': 'Mo-Fr 08:00-15:30'}}"
"{'type': 'node', 'id': 9731966940, 'lat': 53.1433147, 'lon': 29.2176676, 'tags': {'amenity': 'clinic', 'contact:email': 'info@helix.by', 'contact:phone': '+375 17 3388888;+375 29 6285428', 'contact:website': 'https://helix.by', 'healthcare': 'clinic', 'name': 'Helix', 'name:be': 'Хелікс', 'name:en': 'Helix', 'name:ru': 'Хеликс', 'name:uk': 'Хелікс', 'opening_hours': 'Mo-Fr 07:00-19:00; Sa 07:30-14:00; Su 08:00-13:00'}}"
"{'type': 'node', 'id': 9756726394, 'lat': 53.1701722, 'lon': 29.190596, 'tags': {'amenity': 'doctors', 'brand': 'Инвитро', 'brand:wikidata': 'Q4200546', 'contact:email': 'info@invitro.by', 'contact:phone': '+375 17 2787807', 'contact:website': 'https://invitro.by/', 'healthcare': 'laboratory', 'name': 'Инвитро', 'name:be': 'Інвітра', 'name:en': 'Invitro', 'name:ru': 'Инвитро', 'opening_hours': 'Mo-Fr 07:00-17:00; Sa 07:00-14:00; Su 08:00-14:00'}}"
"{'type': 'node', 'id': 9889986746, 'lat': 53.3210064, 'lon': 28.6409149, 'tags': {'amenity': 'pharmacy', 'contact:email': 'apteka37@inlek.by', 'contact:phone': '+375 2235 51077', 'contact:website': 'https://www.inlek.by/', 'healthcare': 'pharmacy', 'name': 'Зеленый лист', 'name:be': 'Зялены ліст', 'name:ru': 'Зеленый лист', 'opening_hours': 'Mo-Su 10:00-20:00'}}"
"{'type': 'node', 'id': 9889986747, 'lat': 53.3003443, 'lon': 28.6456641, 'tags': {'addr:housenumber': '18А', 'addr:street': 'Вакзальная вуліца', 'amenity': 'pharmacy', 'contact:email': 'apteka22@inlek.by', 'contact:phone': '+375 2235 65957', 'contact:website': 'https://www.inlek.by/', 'healthcare': 'pharmacy', 'name': 'Зеленый лист', 'name:be': 'Зялены ліст', 'name:ru': 'Зеленый лист', 'opening_hours': 'Mo-Su 08:00-18:00'}}"
"{'type': 'node', 'id': 10107070686, 'lat': 53.5127442, 'lon': 28.1396405, 'tags': {'amenity': 'pharmacy', 'dispensing': 'yes', 'healthcare': 'pharmacy'}}"
"{'type': 'node', 'id': 10823736924, 'lat': 53.120932, 'lon': 29.238079, 'tags': {'amenity': 'pharmacy', 'contact:phone': '+375 225 433670', 'contact:website': 'https://alfaapteka.by', 'healthcare': 'pharmacy', 'name': 'Альфа Аптека №4', 'name:be': 'Альфа Аптэка №4', 'name:ru': 'Альфа Аптека №4', 'name:uk': 'Альфа Аптека №4', 'opening_hours': 'Mo-Su 09:00-21:00'}}"
"{'type': 'node', 'id': 10997765426, 'lat': 53.1357724, 'lon': 29.2273586, 'tags': {'amenity': 'pharmacy', 'healthcare': 'pharmacy', 'name': 'Аптека 75/1', 'name:be': 'Аптэка 75/1', 'name:ru': 'Аптека 75/1', 'opening_hours': 'Mo-Fr 08:00-20:00; PH,Sa,Su 08:00-18:00'}}"
"{'type': 'node', 'id': 11005486641, 'lat': 53.4183909, 'lon': 28.475152, 'tags': {'addr:housenumber': '7А', 'addr:street': 'Абʼязная вуліца', 'amenity': 'clinic', 'healthcare': 'clinic', 'name': 'Хваёвая амбулаторыя агульнай урачэбнай практыкі', 'name:be': 'Хваёвая амбулаторыя агульнай урачэбнай практыкі', 'name:ru': 'Сосновая амбулатория общей врачебной практики'}}"
"{'type': 'node', 'id': 11008341316, 'lat': 53.1227759, 'lon': 29.234258, 'tags': {'amenity': 'pharmacy', 'contact:phone': '+375 29 1085007', 'contact:website': 'http://prolife-orto.com', 'healthcare': 'pharmacy', 'name': 'Новая', 'name:be': 'Новая', 'name:ru': 'Новая', 'opening_hours': 'PH,Mo-Su 08:00-20:00'}}"
"{'type': 'node', 'id': 11022857654, 'lat': 53.1347142, 'lon': 29.2253422, 'tags': {'amenity': 'clinic', 'healthcare': 'clinic', 'name': 'Тари', 'name:be': 'Тары', 'name:ru': 'Тари', 'opening_hours': 'Mo-Fr 08:00-22:00; Sa 08:00-17:00'}}"
"{'type': 'node', 'id': 11129261505, 'lat': 53.2950488, 'lon': 28.6355423, 'tags': {'amenity': 'pharmacy', 'name': 'Аптека №29 Планета Здоровья', 'name:be': 'Аптэка №29 Планета Здароўя', 'name:ru': 'Аптека №29 Планета Здоровья', 'opening_hours': 'Mo-Su 09:00-21:00', 'phone': '8 02235 31-247', 'website': 'https://healthplanet.by/'}}"
"{'type': 'node', 'id': 11629660963, 'lat': 53.1701554, 'lon': 29.2032193, 'tags': {'addr:city': 'Бабруйск', 'addr:housenumber': '135', 'addr:street': 'Мінская вуліца', 'amenity': 'pharmacy', 'healthcare': 'pharmacy', 'name': 'Аптека №7'}}"
"{'type': 'node', 'id': 11981228136, 'lat': 52.7926817, 'lon': 27.9911498, 'tags': {'addr:housenumber': '67', 'addr:street': 'Першамайская вуліца', 'amenity': 'pharmacy', 'healthcare': 'pharmacy', 'name': 'Радикс', 'opening_hours': 'Mo-Su 09:00-21:00', 'operator': 'ООО ""Диалпро""'}}"
"{'type': 'node', 'id': 12014917673, 'lat': 53.1385559, 'lon': 29.2079247, 'tags': {'amenity': 'pharmacy', 'contact:phone': '+375 44 5218868', 'contact:website': 'http://prolife-orto.com', 'healthcare': 'pharmacy', 'name': 'Новая', 'name:be': 'Новая', 'name:ru': 'Новая', 'opening_hours': 'Mo-Su 08:00-21:00'}}"
"{'type': 'node', 'id': 12014917675, 'lat': 53.1415581, 'lon': 29.2232257, 'tags': {'amenity': 'pharmacy', 'contact:phone': '+375 29 6130830', 'contact:website': 'http://prolife-orto.com', 'healthcare': 'pharmacy', 'name': 'Новая', 'name:be': 'Новая', 'name:ru': 'Новая', 'opening_hours': 'Mo-Su 08:00-22:00'}}"
"{'type': 'node', 'id': 12014917676, 'lat': 53.1440091, 'lon': 29.21707, 'tags': {'amenity': 'pharmacy', 'contact:phone': '+375 44 7450290', 'contact:website': 'http://prolife-orto.com', 'healthcare': 'pharmacy', 'name': 'Новая', 'name:be': 'Новая', 'name:ru': 'Новая', 'opening_hours': 'Mo-Su 08:00-20:00'}}"
"{'type': 'node', 'id': 12014917677, 'lat': 53.1318769, 'lon': 29.2256305, 'tags': {'amenity': 'pharmacy', 'contact:phone': '+375 29 3397959', 'contact:website': 'http://prolife-orto.com', 'healthcare': 'pharmacy', 'name': 'Новая', 'name:be': 'Новая', 'name:ru': 'Новая', 'opening_hours': 'Mo-Su 08:00-20:00'}}"
"{'type': 'node', 'id': 12231253248, 'lat': 53.3180326, 'lon': 28.6424994, 'tags': {'addr:city': 'Асiповiчы', 'addr:housenumber': '57А', 'addr:street': 'вуліца Сумчанкі', 'amenity': 'pharmacy', 'contact:email': 'info@d-leki.by', 'contact:instagram': 'https://www.instagram.com/apteka_adel', 'contact:phone': '+375 25 5355757;+375 29 5355757;+375 44 5355757', 'contact:vk': 'https://vk.com/apteka_adel', 'contact:website': 'https://d-leki.by/', 'healthcare': 'pharmacy', 'name': 'Добрыя леки', 'name:be': 'Добрыя лекі', 'name:ru': 'Добрыя леки', 'name:uk': 'Добрі ліки', 'opening_hours': 'Mo-Su 09:00-20:00', 'operator': '""Медфарм""'}}"
"{'type': 'node', 'id': 12244447501, 'lat': 53.7507652, 'lon': 28.0175422, 'tags': {'addr:housenumber': '6', 'addr:postcode': '223216', 'addr:street': 'Студэнцкая вуліца', 'contact:instagram': 'psych_smilovichi', 'email': 'vetaltelo@gmail.com', 'healthcare': 'psychotherapist', 'internet_access': 'wlan', 'name': 'Кабинет психологической помощи (Виталий Мелеш)', 'opening_hours': 'Mo-Sa 00:00-24:00', 'phone': '+375295574099'}}"
