OSM_Data
"{'type': 'node', 'id': 4058574330, 'lat': -3.6764827, 'lon': -45.3788886, 'tags': {'amenity': 'hospital', 'name': 'Hospital Macrorregional de Santa Inês'}}"
"{'type': 'node', 'id': 4061779074, 'lat': -3.6360466, 'lon': -45.1790564, 'tags': {'amenity': 'hospital', 'name': 'Hospital Municipal de Igarapé do Meio'}}"
"{'type': 'node', 'id': 4064104546, 'lat': -3.7078162, 'lon': -45.3433365, 'tags': {'amenity': 'clinic'}}"
"{'type': 'node', 'id': 4064111920, 'lat': -3.664711, 'lon': -45.3845277, 'tags': {'amenity': 'clinic', 'healthcare': 'clinic'}}"
"{'type': 'node', 'id': 4064111921, 'lat': -3.6651194, 'lon': -45.3844397, 'tags': {'addr:city': 'Santa Inês', 'addr:housenumber': '00', 'addr:street': 'Avenida Castelo Branco', 'addr:suburb': 'Canecão', 'amenity': 'hospital', 'emergency': 'yes', 'healthcare': 'hospital', 'healthcare:speciality': 'general', 'name': 'Hospital Municipal de Santa Inês', 'operator': 'Prefeitura Municipal de Santa Inês'}}"
"{'type': 'node', 'id': 4064111922, 'lat': -3.6623525, 'lon': -45.3792243, 'tags': {'amenity': 'hospital', 'healthcare': 'hospital'}}"
"{'type': 'node', 'id': 4064111923, 'lat': -3.6536906, 'lon': -45.3765957, 'tags': {'amenity': 'clinic', 'healthcare': 'clinic'}}"
"{'type': 'node', 'id': 4065397423, 'lat': -3.6672335, 'lon': -45.3672064, 'tags': {'amenity': 'hospital', 'healthcare': 'hospital', 'healthcare:speciality': 'general', 'name': 'INSTITUTO MÉDICO LEGAL - IML'}}"
"{'type': 'node', 'id': 4107774861, 'lat': -3.738455, 'lon': -45.2559372, 'tags': {'amenity': 'clinic'}}"
"{'type': 'node', 'id': 4541328892, 'lat': -4.5067687, 'lon': -44.4589634, 'tags': {'amenity': 'clinic', 'name': 'Unidade de Saúde Dona Mãezinha', 'name:pt': 'Unidade de Saúde Dona Mãezinha'}}"
"{'type': 'node', 'id': 4974293322, 'lat': -3.7399759, 'lon': -45.2560457, 'tags': {'amenity': 'pharmacy', 'name': 'Rua Nova', 'name:en': 'Posto ďe Taxi', 'name:pt': 'Rua do Comércio'}}"
"{'type': 'node', 'id': 4980826599, 'lat': -3.7404683, 'lon': -45.2521361, 'tags': {'addr:postcode': '65335000', 'addr:street': 'Rua do comércio', 'amenity': 'pharmacy'}}"
"{'type': 'node', 'id': 5178272670, 'lat': -4.448427, 'lon': -44.3751144, 'tags': {'addr:street': 'Rua do Cajueiro', 'amenity': 'clinic', 'healthcare': 'clinic'}}"
"{'type': 'node', 'id': 5178340824, 'lat': -4.3517353, 'lon': -44.3719434, 'tags': {'healthcare': 'yes'}}"
"{'type': 'node', 'id': 6219359153, 'lat': -3.6227149, 'lon': -44.5559713, 'tags': {'amenity': 'clinic', 'healthcare': 'clinic'}}"
"{'type': 'node', 'id': 6366021868, 'lat': -4.3788656, 'lon': -44.6735322, 'tags': {'amenity': 'hospital'}}"
"{'type': 'node', 'id': 6558155489, 'lat': -3.6562211, 'lon': -45.376374, 'tags': {'amenity': 'pharmacy', 'brand': 'Pague Menos', 'brand:wikidata': 'Q7124466', 'brand:wikipedia': 'pt:Pague Menos', 'dispensing': 'yes', 'healthcare': 'pharmacy', 'name': 'Pague Menos'}}"
"{'type': 'node', 'id': 6558155494, 'lat': -3.6587935, 'lon': -45.3770419, 'tags': {'amenity': 'hospital', 'healthcare': 'hospital', 'name': 'Medical Santa Inês'}}"
"{'type': 'node', 'id': 6558155495, 'lat': -3.6662187, 'lon': -45.3854909, 'tags': {'amenity': 'clinic', 'healthcare': 'clinic'}}"
"{'type': 'node', 'id': 6558155497, 'lat': -3.6701428, 'lon': -45.3864135, 'tags': {'amenity': 'clinic', 'healthcare': 'clinic'}}"
"{'type': 'node', 'id': 6805890328, 'lat': -4.1450909, 'lon': -45.066714, 'tags': {'addr:city': ""Olho d'Água das Cunhãs"", 'addr:street': 'Rua Antonio Tomaz', 'addr:suburb': 'Centro do José Rodrigues', 'air_conditioning': 'no', 'amenity': 'clinic', 'healthcare': 'clinic', 'healthcare:speciality': 'general', 'name': 'Posto de Saúde de Centro do José Rodrigues', 'opening_hours': 'Mo-Fr 09:00-17:00'}}"
"{'type': 'node', 'id': 7143763546, 'lat': -4.6118581, 'lon': -44.9793081, 'tags': {'amenity': 'hospital', 'healthcare': 'hospital'}}"
"{'type': 'node', 'id': 7367841904, 'lat': -4.0391897, 'lon': -45.2372253, 'tags': {'amenity': 'hospital'}}"
"{'type': 'node', 'id': 9219425857, 'lat': -3.6594102, 'lon': -45.3671818, 'tags': {'amenity': 'clinic', 'healthcare': 'clinic'}}"
"{'type': 'node', 'id': 9224741276, 'lat': -4.5630547, 'lon': -44.6010316, 'tags': {'amenity': 'clinic', 'healthcare': 'clinic'}}"
"{'type': 'node', 'id': 9227228706, 'lat': -3.641689, 'lon': -45.3763783, 'tags': {'amenity': 'clinic', 'healthcare': 'clinic'}}"
"{'type': 'node', 'id': 9257666601, 'lat': -3.6382744, 'lon': -44.3819185, 'tags': {'amenity': 'clinic', 'healthcare': 'clinic'}}"
"{'type': 'node', 'id': 9477474160, 'lat': -4.9601843, 'lon': -45.358484, 'tags': {'amenity': 'clinic', 'healthcare': 'clinic', 'name': 'UBS da Sumaúma'}}"
"{'type': 'node', 'id': 9477474165, 'lat': -4.8799088, 'lon': -45.2966261, 'tags': {'amenity': 'clinic', 'healthcare': 'clinic', 'name': 'UBS da Lagoa do Sindô II'}}"
"{'type': 'node', 'id': 9772472899, 'lat': -4.0479652, 'lon': -44.9367626, 'tags': {'addr:city': 'LAGO VERDE', 'addr:street': 'AVENIDA', 'addr:suburb': 'CENTRO', 'amenity': 'hospital', 'emergency': 'yes', 'healthcare': 'hospital', 'name': 'HOSPITAL JOANA ALMEIDA'}}"
"{'type': 'node', 'id': 9988581098, 'lat': -4.752949, 'lon': -44.9455019, 'tags': {'amenity': 'pharmacy', 'dispensing': 'yes', 'healthcare': 'pharmacy'}}"
"{'type': 'node', 'id': 12465940233, 'lat': -3.6558474, 'lon': -45.3764901, 'tags': {'amenity': 'pharmacy', 'healthcare': 'pharmacy', 'name': 'Globo'}}"
"{'type': 'node', 'id': 12465940234, 'lat': -3.6595572, 'lon': -45.3767446, 'tags': {'amenity': 'hospital', 'healthcare': 'hospital', 'name': 'Medplaza Hospital Dia'}}"
