OSM_Data
"{'type': 'node', 'id': 4443749990, 'lat': 37.2366386, 'lon': 67.2825891, 'tags': {'addr:street': 'улица Алишер Навои', 'amenity': 'pharmacy', 'healthcare': 'pharmacy', 'opening_hours': '24/7', 'operator': 'Арслан', 'phone': '+998903925524'}}"
"{'type': 'node', 'id': 4444992190, 'lat': 37.2466323, 'lon': 67.2744183, 'tags': {'amenity': 'clinic', 'name': 'ЗАРАВУТ', 'name:en': 'ZARAVUT', 'name:ru': 'ЗАРАВУТ', 'operator': 'Xolmatov', 'phone': '+998936340075'}}"
"{'type': 'node', 'id': 4591597110, 'lat': 36.7129656, 'lon': 67.1200477, 'tags': {'amenity': 'clinic', 'healthcare': 'clinic', 'name:en': 'Parween Clinic', 'name:fa': 'كلينيك قابله پروين'}}"
"{'type': 'node', 'id': 4591597198, 'lat': 36.7171099, 'lon': 67.1235538, 'tags': {'amenity': 'pharmacy', 'healthcare': 'pharmacy', 'name:en': 'Razavie'}}"
"{'type': 'node', 'id': 5614604624, 'lat': 36.7035105, 'lon': 67.1142906, 'tags': {'amenity': 'hospital', 'healthcare': 'hospital', 'name:en': 'Aamoon Ophthalmic Center'}}"
"{'type': 'node', 'id': 5700163285, 'lat': 36.7160949, 'lon': 67.1037101, 'tags': {'amenity': 'hospital', 'healthcare': 'hospital', 'name': 'شفاخانه كيشا فارابي', 'name:en': 'kesha HealthCare'}}"
"{'type': 'node', 'id': 5884951189, 'lat': 37.2354316, 'lon': 67.2798173, 'tags': {'amenity': 'pharmacy'}}"
"{'type': 'node', 'id': 5884951894, 'lat': 37.2356257, 'lon': 67.2792477, 'tags': {'amenity': 'pharmacy'}}"
"{'type': 'node', 'id': 5921822888, 'lat': 37.2322965, 'lon': 67.2952087, 'tags': {'amenity': 'pharmacy'}}"
"{'type': 'node', 'id': 5937750547, 'lat': 37.2348621, 'lon': 67.2628404, 'tags': {'amenity': 'clinic', 'name': 'Mashhura', 'operator': 'Termiz Ta`minot'}}"
"{'type': 'node', 'id': 6004367487, 'lat': 36.708792, 'lon': 67.1035568, 'tags': {'addr:street': 'Darwaza ee Balkh, Ghazanfar Square', 'amenity': 'pharmacy', 'email': 'm.admin@asiapharma.af', 'healthcare': 'pharmacy', 'name:en': 'AsiaPharma Medical Equipment Co.,ltd', 'opening_hours': 'Sa-Th 08:00-18:00', 'operator': 'AsiaPharma Company', 'phone': '0093793151601', 'website': 'https://www.asiapharma.af/'}}"
"{'type': 'node', 'id': 6363455859, 'lat': 36.703622, 'lon': 67.1098036, 'tags': {'addr:street': 'كوچه ١٨ چمن', 'amenity': 'dentist', 'healthcare': 'dentist', 'name': 'كلينيك دندان غفوري', 'name:en': 'Ghafoory Dental Clinic', 'opening_hours': 'Mo - Th 08:00 - 19:00, Sa - Su 08:00 - 19:00', 'phone': '+93 050 204 7845', 'website': 'https://dtghafoory.business.site/'}}"
"{'type': 'node', 'id': 6712616886, 'lat': 37.2416989, 'lon': 67.2809384, 'tags': {'amenity': 'pharmacy'}}"
"{'type': 'node', 'id': 6872892109, 'lat': 37.234655, 'lon': 67.2625393, 'tags': {'amenity': 'pharmacy', 'name': 'Mir Apteka', 'opening_hours': '08:00-12:00,13:00-18:00', 'operator': 'Janub Mir Pharm XK'}}"
"{'type': 'node', 'id': 7011800996, 'lat': 37.2394041, 'lon': 67.2931038, 'tags': {'amenity': 'pharmacy', 'check_date:opening_hours': '2024-03-31', 'name': 'Grand pharm', 'opening_hours:signed': 'no', 'operator': 'Grand pharm'}}"
"{'type': 'node', 'id': 7023983326, 'lat': 37.2448683, 'lon': 67.3075971, 'tags': {'amenity': 'pharmacy', 'name': 'Grand pharm'}}"
"{'type': 'node', 'id': 7040347153, 'lat': 37.2317987, 'lon': 67.2958088, 'tags': {'amenity': 'pharmacy', 'name': 'Orzu Madina pharm'}}"
"{'type': 'node', 'id': 7041479310, 'lat': 37.2318553, 'lon': 67.2959087, 'tags': {'amenity': 'pharmacy'}}"
"{'type': 'node', 'id': 7041479312, 'lat': 37.2317235, 'lon': 67.2956774, 'tags': {'amenity': 'pharmacy'}}"
"{'type': 'node', 'id': 7320399455, 'lat': 37.2379713, 'lon': 67.2796431, 'tags': {'amenity': 'pharmacy', 'name': 'Olam Pharm', 'operator': 'Olam Pharm'}}"
"{'type': 'node', 'id': 7321953971, 'lat': 37.2238519, 'lon': 67.2842659, 'tags': {'amenity': 'pharmacy'}}"
"{'type': 'node', 'id': 7321953972, 'lat': 37.2235257, 'lon': 67.2842793, 'tags': {'amenity': 'pharmacy'}}"
"{'type': 'node', 'id': 7321953973, 'lat': 37.2235588, 'lon': 67.2843115, 'tags': {'amenity': 'pharmacy', 'name': 'Dori Darmon #50', 'operator': 'Dori Darmon'}}"
"{'type': 'node', 'id': 7352217543, 'lat': 37.228779, 'lon': 67.2905698, 'tags': {'amenity': 'pharmacy', 'name': 'Chori Pharm'}}"
"{'type': 'node', 'id': 7363123285, 'lat': 37.2343141, 'lon': 67.2885402, 'tags': {'amenity': 'pharmacy', 'name': 'Grandpharm'}}"
"{'type': 'node', 'id': 7363123288, 'lat': 37.2363842, 'lon': 67.2877257, 'tags': {'amenity': 'pharmacy', 'name': 'Grandpharm'}}"
"{'type': 'node', 'id': 7363123385, 'lat': 37.2343515, 'lon': 67.2885854, 'tags': {'amenity': 'hospital', 'name': 'Kardiologiya markazi'}}"
"{'type': 'node', 'id': 7363123388, 'lat': 37.2364722, 'lon': 67.2873994, 'tags': {'amenity': 'hospital', 'name': 'Termiz shahar tibbiyot birlashmasi', 'name:ru': 'Медицинский объединение города Термез'}}"
"{'type': 'node', 'id': 7363126085, 'lat': 37.2363065, 'lon': 67.2875581, 'tags': {'amenity': 'pharmacy'}}"
"{'type': 'node', 'id': 7365236741, 'lat': 37.2361028, 'lon': 67.2874993, 'tags': {'amenity': 'pharmacy'}}"
"{'type': 'node', 'id': 7365236742, 'lat': 37.2361733, 'lon': 67.2874765, 'tags': {'amenity': 'pharmacy'}}"
"{'type': 'node', 'id': 7365236743, 'lat': 37.2362288, 'lon': 67.2874497, 'tags': {'amenity': 'pharmacy'}}"
"{'type': 'node', 'id': 8173674904, 'lat': 37.2363879, 'lon': 67.2923984, 'tags': {'amenity': 'clinic', 'name': 'Muslima Med Shifo'}}"
"{'type': 'node', 'id': 8442131363, 'lat': 36.7101352, 'lon': 67.130548, 'tags': {'addr:street': 'آدرس: سرك دوم تخنيكم، مقابل ليسه افغان- ترك، مزار شريف، افغانستان', 'amenity': 'dentist', 'description': 'https://www.facebook.com/Refahdental/', 'email': 'refahdental@Gmail.com', 'healthcare': 'clinic', 'healthcare:speciality': 'dentist', 'name': 'كلينيك دندانپزشکی رفاه', 'name:en': 'Refah Dental Clinic', 'name:ru': 'Стоматологическая клиника Рефах', 'opening_hours': 'Sa-Th 09:00-19:00', 'phone': 'شماره هاى تماس: ٠٧٨٦٧٣٤٠٧٣ - ٠٥٠٢٠٤٧٦٦٧'}}"
"{'type': 'node', 'id': 8443486100, 'lat': 37.2285857, 'lon': 67.2608542, 'tags': {'amenity': 'clinic', 'name': '4-son oilaviy poliklinika', 'name:en': 'Family polyclinic №4', 'name:ru': 'Семейная поликлиника №4'}}"
"{'type': 'node', 'id': 8461672561, 'lat': 37.2275174, 'lon': 67.272035, 'tags': {'amenity': 'pharmacy'}}"
"{'type': 'node', 'id': 8587894466, 'lat': 37.2360751, 'lon': 67.2870648, 'tags': {'addr:city': 'Termiz', 'addr:country': 'UZ', 'addr:housenumber': '46', 'addr:street': ""Alisher Navoiy shoh ko'chasi"", 'amenity': 'hospital', 'name': 'Termiz shahar markaziy shifoxonasi', 'name:en': 'Termez city central hospital', 'name:ru': 'Термезская городская центральная больница'}}"
"{'type': 'node', 'id': 9271457060, 'lat': 37.2519632, 'lon': 67.3227623, 'tags': {'amenity': 'clinic'}}"
"{'type': 'node', 'id': 9461728893, 'lat': 37.2359619, 'lon': 67.259092, 'tags': {'amenity': 'pharmacy'}}"
