OSM_Data
"{'type': 'node', 'id': 2163440851, 'lat': 4.1417272, 'lon': 9.3028147, 'tags': {'amenity': 'clinic', 'name': 'Maternity'}}"
"{'type': 'node', 'id': 2456192090, 'lat': 4.0572166, 'lon': 9.2278464, 'tags': {'amenity': 'hospital', 'name': 'Moliwe Health Area'}}"
"{'type': 'node', 'id': 2456192101, 'lat': 4.0170965, 'lon': 9.1132931, 'tags': {'amenity': 'clinic', 'name': 'Open Door Medical Clinic'}}"
"{'type': 'node', 'id': 2456192135, 'lat': 4.0227222, 'lon': 9.2098056, 'tags': {'amenity': 'clinic', 'name': 'Saint Luke Medical Foundation'}}"
"{'type': 'node', 'id': 3684296931, 'lat': 4.1562157, 'lon': 9.2881471, 'tags': {'amenity': 'pharmacy', 'code': '2', 'name': 'Amazing Pharmacy', 'object_id': '13'}}"
"{'type': 'node', 'id': 3684296934, 'lat': 4.1576696, 'lon': 9.2400113, 'tags': {'amenity': 'hospital', 'code': '1', 'name': 'Manyemen Hospital', 'object_id': '6'}}"
"{'type': 'node', 'id': 3684296935, 'lat': 4.15834, 'lon': 9.2817593, 'tags': {'amenity': 'clinic', 'code': '2', 'object_id': '18'}}"
"{'type': 'node', 'id': 3684296937, 'lat': 4.1540438, 'lon': 9.3018335, 'tags': {'amenity': 'clinic', 'code': '2', 'name': 'Doctor Danbaba', 'object_id': '40'}}"
"{'type': 'node', 'id': 3684296939, 'lat': 4.154241, 'lon': 9.294362, 'tags': {'amenity': 'clinic', 'code': '2', 'name': 'Good Sheperd Clinic', 'object_id': '8'}}"
"{'type': 'node', 'id': 3684296940, 'lat': 4.1548001, 'lon': 9.2896447, 'tags': {'amenity': 'pharmacy', 'code': '2', 'healthcare': 'pharmacy', 'name': 'Grosmelf Lab', 'object_id': '9'}}"
"{'type': 'node', 'id': 3684296942, 'lat': 4.1570421, 'lon': 9.2846496, 'tags': {'amenity': 'clinic', 'code': '2', 'healthcare': 'clinic', 'name': 'Health Centre', 'name:fr': 'Centre de santé', 'object_id': '22'}}"
"{'type': 'node', 'id': 3684296943, 'lat': 4.1631179, 'lon': 9.2374763, 'tags': {'amenity': 'hospital', 'code': '2', 'name': 'Health District', 'object_id': '25'}}"
"{'type': 'node', 'id': 3684296948, 'lat': 4.155453, 'lon': 9.300537, 'tags': {'amenity': 'clinic', 'code': '2', 'name': 'Kahwa Sumbele Medical Center', 'object_id': '34'}}"
"{'type': 'node', 'id': 3684296956, 'lat': 4.1593564, 'lon': 9.2825108, 'tags': {'amenity': 'pharmacy', 'code': '2', 'name': 'Pharmacy Enamen', 'object_id': '21'}}"
"{'type': 'node', 'id': 3684296957, 'lat': 4.1550198, 'lon': 9.2911344, 'tags': {'amenity': 'pharmacy', 'code': '2', 'object_id': '15'}}"
"{'type': 'node', 'id': 3684296959, 'lat': 4.16007, 'lon': 9.2326857, 'tags': {'amenity': 'clinic', 'code': '2', 'name': 'Presbyterian Church Health Service Dispensary', 'object_id': '24'}}"
"{'type': 'node', 'id': 3684296961, 'lat': 4.1524285, 'lon': 9.2914466, 'tags': {'amenity': 'clinic', 'code': '2', 'healthcare': 'clinic', 'name': 'Restoration Health Centre', 'object_id': '16'}}"
"{'type': 'node', 'id': 3684296962, 'lat': 4.1535901, 'lon': 9.252612, 'tags': {'amenity': 'pharmacy', 'code': '2', 'healthcare': 'pharmacy', 'name': 'Royal Pharmacy', 'object_id': '27'}}"
"{'type': 'node', 'id': 3684296964, 'lat': 4.1544231, 'lon': 9.2603165, 'tags': {'amenity': 'pharmacy', 'code': '2', 'healthcare': 'pharmacy', 'name': 'Salvation Pharmacy', 'object_id': '32'}}"
"{'type': 'node', 'id': 3684296970, 'lat': 4.1539871, 'lon': 9.2574073, 'tags': {'amenity': 'pharmacy', 'code': '2', 'healthcare': 'pharmacy', 'name': ""Winner's Pharmacy"", 'object_id': '30'}}"
"{'type': 'node', 'id': 3698438713, 'lat': 4.1589683, 'lon': 9.2746595, 'tags': {'amenity': 'hospital', 'name': 'Biaka Junction'}}"
"{'type': 'node', 'id': 4352928191, 'lat': 4.7483988, 'lon': 9.4866242, 'tags': {'amenity': 'pharmacy'}}"
"{'type': 'node', 'id': 4358961191, 'lat': 4.8197448, 'lon': 9.4610372, 'tags': {'amenity': 'clinic', 'name': 'Integrated Health Center', 'opening_hours': '24/7'}}"
"{'type': 'node', 'id': 4462243439, 'lat': 4.0110907, 'lon': 9.2076329, 'tags': {'amenity': 'pharmacy', 'name': 'Fako Atlantic Pharmacy'}}"
"{'type': 'node', 'id': 4464702477, 'lat': 4.0151411, 'lon': 9.2065281, 'tags': {'addr:place': 'Gardens-limbé', 'amenity': 'clinic', 'contact:email': 'makarioseye@outlook.com', 'contact:phone': '+237 691 66 12 15 // +237 677 37 36 41', 'name': 'Makarios eye'}}"
"{'type': 'node', 'id': 4464702478, 'lat': 4.0152025, 'lon': 9.2065219, 'tags': {'addr:place': 'Gardens', 'addr:postcode': '785 Limbé', 'amenity': 'pharmacy', 'contact:fax': '33 26 07', 'contact:phone': '233 26 07', 'name': 'Taf pharmacy'}}"
"{'type': 'node', 'id': 4466327247, 'lat': 4.0194024, 'lon': 9.2081498, 'tags': {'amenity': 'pharmacy', 'name': 'Limbe Pharmacy'}}"
"{'type': 'node', 'id': 5671968923, 'lat': 4.6344068, 'lon': 9.441044, 'tags': {'amenity': 'pharmacy', 'healthcare': 'pharmacy', 'name': 'Prestige Pharmacy', 'name:fr': 'Pharmacie Prestige'}}"
"{'type': 'node', 'id': 5759180822, 'lat': 4.6301602, 'lon': 9.4425948, 'tags': {'amenity': 'pharmacy', 'healthcare': 'pharmacy', 'name': 'Wisdom Pharmacy', 'name:fr': 'Pharmacie Wisdom'}}"
"{'type': 'node', 'id': 6698692790, 'lat': 4.0317701, 'lon': 9.1990771, 'tags': {'amenity': 'clinic', 'name': 'Holy Mary Health Care Foundation', 'operator': 'Tanyi Mary', 'phone': '+237675933318'}}"
"{'type': 'node', 'id': 6976300785, 'lat': 4.6444542, 'lon': 9.4276589, 'tags': {'amenity': 'hospital', 'name': 'District Hospital Kumba', 'name:fr': 'Hospital de district de Kumba'}}"
"{'type': 'node', 'id': 7036081571, 'lat': 4.1592459, 'lon': 9.2677456, 'tags': {'amenity': 'clinic', 'name': 'Revival power foundation clinic'}}"
"{'type': 'node', 'id': 7036096371, 'lat': 4.1488037, 'lon': 9.2380502, 'tags': {'amenity': 'clinic', 'name': 'Morgue de buea'}}"
"{'type': 'node', 'id': 7036096372, 'lat': 4.1486962, 'lon': 9.2376331, 'tags': {'amenity': 'clinic', 'name': 'Centre de dialyse'}}"
"{'type': 'node', 'id': 7036103173, 'lat': 4.1456641, 'lon': 9.2482352, 'tags': {'amenity': 'clinic', 'name': '7th Days Adventist'}}"
"{'type': 'node', 'id': 7036110824, 'lat': 4.1539545, 'lon': 9.2473997, 'tags': {'amenity': 'clinic', 'name': 'Garnison millitaire'}}"
"{'type': 'node', 'id': 7066255881, 'lat': 4.2038695, 'lon': 8.9923125, 'tags': {'amenity': 'pharmacy', 'name': 'Idenau pharmacy'}}"
"{'type': 'node', 'id': 7066538011, 'lat': 4.158921, 'lon': 9.2825413, 'tags': {'amenity': 'pharmacy', 'name': 'Enamen pharmacie'}}"
"{'type': 'node', 'id': 7066538014, 'lat': 4.1480206, 'lon': 9.2425223, 'tags': {'amenity': 'clinic', 'name': 'Dr Chuwaga clinique'}}"
"{'type': 'node', 'id': 7066538015, 'lat': 4.1690371, 'lon': 9.2786454, 'tags': {'amenity': 'clinic', 'name': 'BEBETA MEMORIAL COMMUNITY CLINIC BOKOAI'}}"
"{'type': 'node', 'id': 7066538016, 'lat': 4.1529177, 'lon': 9.2997009, 'tags': {'amenity': 'clinic', 'name': 'St albert'}}"
"{'type': 'node', 'id': 7066538017, 'lat': 4.1533478, 'lon': 9.2919495, 'tags': {'amenity': 'clinic', 'name': 'Health for all foundation'}}"
"{'type': 'node', 'id': 7066538018, 'lat': 4.1584344, 'lon': 9.2819752, 'tags': {'amenity': 'clinic'}}"
"{'type': 'node', 'id': 7066538019, 'lat': 4.1564546, 'lon': 9.2650051, 'tags': {'amenity': 'clinic', 'name': 'Mere thetesa'}}"
"{'type': 'node', 'id': 7066538020, 'lat': 4.1538575, 'lon': 9.2605455, 'tags': {'amenity': 'clinic', 'name': 'Hope outreach'}}"
"{'type': 'node', 'id': 7066538021, 'lat': 4.157536, 'lon': 9.2403567, 'tags': {'amenity': 'clinic', 'name': 'Mount mary hospital'}}"
"{'type': 'node', 'id': 7066538022, 'lat': 4.1522859, 'lon': 9.2442711, 'tags': {'amenity': 'clinic'}}"
"{'type': 'node', 'id': 7066538023, 'lat': 4.1541704, 'lon': 9.2333573, 'tags': {'amenity': 'clinic', 'healthcare': 'clinic', 'name': 'Integrated Health Centre', 'name:fr': 'Centre de Santé intégré'}}"
"{'type': 'node', 'id': 7066538024, 'lat': 4.1483858, 'lon': 9.2302899, 'tags': {'amenity': 'clinic', 'name': 'Fako heart center'}}"
"{'type': 'node', 'id': 7066538025, 'lat': 4.1345045, 'lon': 9.2212974, 'tags': {'amenity': 'clinic', 'name': 'Buea health district and cross health center'}}"
"{'type': 'node', 'id': 7069910983, 'lat': 4.0885666, 'lon': 9.3440235, 'tags': {'amenity': 'clinic', 'healthcare': 'clinic', 'name': 'Core pharmacy', 'name:fr': 'Pharmacie Core'}}"
"{'type': 'node', 'id': 7069910984, 'lat': 4.0889548, 'lon': 9.3159204, 'tags': {'amenity': 'clinic', 'name': 'Health center'}}"
"{'type': 'node', 'id': 7069926485, 'lat': 4.072921, 'lon': 9.3658155, 'tags': {'amenity': 'clinic', 'healthcare': 'clinic', 'name': 'Holt fort'}}"
"{'type': 'node', 'id': 7069929284, 'lat': 4.0884389, 'lon': 9.3119693, 'tags': {'amenity': 'clinic', 'name': 'Baptist hospital'}}"
"{'type': 'node', 'id': 7070021019, 'lat': 4.0902089, 'lon': 9.3162779, 'tags': {'amenity': 'pharmacy', 'name': 'Friveralin pharmacy'}}"
"{'type': 'node', 'id': 7070021020, 'lat': 4.0840503, 'lon': 9.3574244, 'tags': {'amenity': 'pharmacy', 'healthcare': 'pharmacy', 'name': 'Thé glory pharmacy'}}"
"{'type': 'node', 'id': 7070021021, 'lat': 4.0699974, 'lon': 9.3695028, 'tags': {'amenity': 'pharmacy', 'healthcare': 'pharmacy', 'name': 'Faith standard pharmacy'}}"
"{'type': 'node', 'id': 7072565591, 'lat': 4.0147677, 'lon': 9.2010324, 'tags': {'amenity': 'pharmacy', 'name': 'Rapha pharmacie'}}"
"{'type': 'node', 'id': 7072565592, 'lat': 4.0176847, 'lon': 9.2090642, 'tags': {'amenity': 'pharmacy'}}"
"{'type': 'node', 'id': 7072565593, 'lat': 4.014957, 'lon': 9.2090347, 'tags': {'amenity': 'pharmacy', 'name': 'Prime pharmacie'}}"
"{'type': 'node', 'id': 7072565594, 'lat': 4.0126867, 'lon': 9.2077166, 'tags': {'amenity': 'pharmacy', 'name': 'Rainbow'}}"
"{'type': 'node', 'id': 7072565595, 'lat': 4.0111107, 'lon': 9.2075151, 'tags': {'amenity': 'pharmacy', 'name': 'Fako Atlantic pharmacy'}}"
"{'type': 'node', 'id': 7072565596, 'lat': 4.0116002, 'lon': 9.2161205, 'tags': {'amenity': 'pharmacy', 'name': 'Grace standart pharmacie'}}"
"{'type': 'node', 'id': 7072565597, 'lat': 4.0123845, 'lon': 9.2175219, 'tags': {'amenity': 'pharmacy', 'name': 'Herbal pharmacie'}}"
"{'type': 'node', 'id': 7072565598, 'lat': 4.0269999, 'lon': 9.1916339, 'tags': {'healthcare': 'laboratory', 'name': 'Grosmelf médical laboratory'}}"
"{'type': 'node', 'id': 7072565599, 'lat': 4.0049246, 'lon': 9.2104898, 'tags': {'healthcare': 'laboratory', 'name': 'Labogenie'}}"
"{'type': 'node', 'id': 7072565602, 'lat': 4.0154566, 'lon': 9.2049008, 'tags': {'amenity': 'clinic', 'name': ""Corn's medical optic""}}"
"{'type': 'node', 'id': 7072565608, 'lat': 4.025851, 'lon': 9.1858311, 'tags': {'amenity': 'clinic', 'name': 'Militry medical center'}}"
"{'type': 'node', 'id': 7072565609, 'lat': 4.0218223, 'lon': 9.1822815, 'tags': {'amenity': 'clinic', 'name': 'Croix rouge'}}"
"{'type': 'node', 'id': 7072565610, 'lat': 4.0257411, 'lon': 9.1936473, 'tags': {'amenity': 'clinic', 'name': 'C.S.C E'}}"
"{'type': 'node', 'id': 10249499610, 'lat': 4.639058, 'lon': 9.4490666, 'tags': {'amenity': 'clinic', 'healthcare': 'clinic', 'name': 'Clinique de Charité', 'name:fr': 'Clinique de Charité'}}"
"{'type': 'node', 'id': 10249499611, 'lat': 4.6390629, 'lon': 9.448743, 'tags': {'amenity': 'pharmacy', 'healthcare': 'pharmacy', 'name': 'Pharmacie Rapido Fiango', 'name:fr': 'Pharmacie Rapido Fiango'}}"
"{'type': 'node', 'id': 10591290105, 'lat': 4.636387, 'lon': 9.472614, 'tags': {'amenity': 'hospital', 'healthcare': 'hospital', 'name': 'General Hospital 3 Corners', 'name:fr': 'Hôpital général 3 Corners'}}"
"{'type': 'node', 'id': 11331079169, 'lat': 4.6027138, 'lon': 9.3292498, 'tags': {'amenity': 'hospital', 'name': 'KOMBONE integrated health Centre'}}"
"{'type': 'node', 'id': 11331180170, 'lat': 4.6105233, 'lon': 9.3858267, 'tags': {'amenity': 'hospital', 'name': 'AAH MOBILE CLINIC SITE'}}"
"{'type': 'node', 'id': 11331189269, 'lat': 4.6245925, 'lon': 9.4189301, 'tags': {'amenity': 'hospital', 'name': 'mortuary'}}"
"{'type': 'node', 'id': 11335541670, 'lat': 5.01015, 'lon': 9.4192567, 'tags': {'amenity': 'hospital', 'name': 'MBAKWA SUPE  INTERGRATED HC'}}"
"{'type': 'node', 'id': 11335551669, 'lat': 5.0608267, 'lon': 9.395705, 'tags': {'amenity': 'hospital', 'name': 'WONE INTERGRATED HC'}}"
"{'type': 'node', 'id': 11338187769, 'lat': 4.9005316, 'lon': 9.4726802, 'tags': {'amenity': 'hospital', 'name': 'KURUME INTERGRATED HC'}}"
"{'type': 'node', 'id': 11340927769, 'lat': 4.72608, 'lon': 9.4880533, 'tags': {'amenity': 'hospital', 'name': 'IKILIWINDI INTERGRATED HC'}}"
"{'type': 'node', 'id': 11971945868, 'lat': 4.5100108, 'lon': 9.5624464, 'tags': {'amenity': 'hospital', 'healthcare': 'hospital'}}"
"{'type': 'node', 'id': 12339390993, 'lat': 4.944117, 'lon': 8.3288663, 'tags': {'addr:housenumber': '12', 'addr:street': 'Atamunu Street', 'amenity': 'hospital', 'healthcare': 'hospital', 'healthcare:speciality': 'general;emergency;paediatrics;surgery;vaccination', 'name': 'Mambo Clinic'}}"
