OSM_Data
"{'type': 'node', 'id': 321448936, 'lat': -23.1476022, 'lon': -50.5176971, 'tags': {'addr:city': 'Santa Mariana', 'addr:housenumber': '550', 'addr:postcode': '86350-000', 'addr:street': 'Rua Manoel da Silva Machado', 'amenity': 'hospital', 'name': 'Hospital Municipal Santa Alice'}}"
"{'type': 'node', 'id': 2336741070, 'lat': -22.7865142, 'lon': -50.2227095, 'tags': {'amenity': 'pharmacy', 'dispensing': 'yes', 'name': 'Farmácia São Benedito'}}"
"{'type': 'node', 'id': 2383598530, 'lat': -23.6208615, 'lon': -50.1707716, 'tags': {'amenity': 'hospital', 'name': 'Hospital Anita Canet'}}"
"{'type': 'node', 'id': 2453506110, 'lat': -23.3784852, 'lon': -50.8407163, 'tags': {'access': 'public', 'amenity': 'clinic', 'name': 'Centro Odontológico e Fisioterápico'}}"
"{'type': 'node', 'id': 2453506112, 'lat': -23.3790778, 'lon': -50.8410149, 'tags': {'access': 'public', 'amenity': 'hospital', 'name': 'Hospital Municipal'}}"
"{'type': 'node', 'id': 2453506113, 'lat': -23.3660653, 'lon': -50.8454757, 'tags': {'access': 'public', 'amenity': 'clinic', 'name': 'Posto de Saúde'}}"
"{'type': 'node', 'id': 2453506114, 'lat': -23.3786953, 'lon': -50.8411634, 'tags': {'access': 'public', 'amenity': 'clinic', 'name': 'Posto de Saúde'}}"
"{'type': 'node', 'id': 2453506115, 'lat': -23.3825779, 'lon': -50.8513433, 'tags': {'access': 'public', 'amenity': 'clinic', 'name': 'Posto de Saúde'}}"
"{'type': 'node', 'id': 2581307272, 'lat': -23.2958166, 'lon': -50.0769689, 'tags': {'amenity': 'pharmacy', 'healthcare': 'pharmacy'}}"
"{'type': 'node', 'id': 2581307273, 'lat': -23.2956541, 'lon': -50.0767247, 'tags': {'amenity': 'pharmacy', 'healthcare': 'pharmacy'}}"
"{'type': 'node', 'id': 2581307274, 'lat': -23.2953875, 'lon': -50.076346, 'tags': {'amenity': 'pharmacy', 'healthcare': 'pharmacy'}}"
"{'type': 'node', 'id': 2581307275, 'lat': -23.296704, 'lon': -50.0762646, 'tags': {'amenity': 'pharmacy', 'healthcare': 'pharmacy'}}"
"{'type': 'node', 'id': 2581307276, 'lat': -23.2951827, 'lon': -50.0773582, 'tags': {'amenity': 'pharmacy'}}"
"{'type': 'node', 'id': 2581307277, 'lat': -23.2949519, 'lon': -50.077022, 'tags': {'amenity': 'pharmacy', 'healthcare': 'pharmacy'}}"
"{'type': 'node', 'id': 2638963812, 'lat': -22.6533182, 'lon': -50.4180055, 'tags': {'addr:city': 'Assis', 'addr:postcode': '19800000', 'addr:street': 'Avenida Dom Antônio', 'amenity': 'pharmacy', 'name': 'Drogaria Ouro Verde'}}"
"{'type': 'node', 'id': 3789266458, 'lat': -23.4957667, 'lon': -50.6489408, 'tags': {'amenity': 'hospital', 'name': 'Hospital de Santo Antonio do Paraíso'}}"
"{'type': 'node', 'id': 4557759295, 'lat': -23.0423436, 'lon': -50.072877, 'tags': {'addr:street': 'Rua Coronel Batista', 'amenity': 'pharmacy', 'name': 'Herbacidus', 'name:pt': 'Herbacidus'}}"
"{'type': 'node', 'id': 4557789494, 'lat': -23.0429053, 'lon': -50.073358, 'tags': {'addr:housenumber': '1282', 'addr:postcode': '86390-000', 'addr:street': 'Avenida Brasil', 'amenity': 'pharmacy', 'name': 'Farmácia Santo Antônio', 'name:pt': 'Farmácia Santo Antônio'}}"
"{'type': 'node', 'id': 4557798691, 'lat': -23.0426809, 'lon': -50.0724008, 'tags': {'addr:street': 'Rua Doutor Genaro Resende', 'amenity': 'pharmacy', 'name': 'DrogaMais - DrogaNova', 'name:pt': 'DrogaMais - DrogaNova'}}"
"{'type': 'node', 'id': 4585634816, 'lat': -23.1604802, 'lon': -51.0241246, 'tags': {'addr:city': 'Ibiporã', 'addr:housenumber': '82', 'addr:postcode': '86200-000', 'addr:street': 'Rua Léa', 'addr:suburb': 'Taquara do Reino', 'amenity': 'clinic', 'healthcare': 'clinic', 'name': 'UBS - Unidade Básica de Saúde - Prefº Mauro José Pierro', 'operator': 'Prefeitura Municipal de Ibiporã'}}"
"{'type': 'node', 'id': 4739837270, 'lat': -23.2015144, 'lon': -50.7932148, 'tags': {'addr:city': 'Uraí', 'addr:postcode': '86280-000', 'addr:street': 'Avenida Brasil', 'addr:suburb': 'Centro', 'amenity': 'pharmacy', 'name': 'Farmacia Nifarma'}}"
"{'type': 'node', 'id': 4770407227, 'lat': -23.2040327, 'lon': -50.7924336, 'tags': {'addr:city': 'Uraí', 'addr:housenumber': '983', 'addr:postcode': '86280-000', 'addr:street': 'Rua Rio de Janeiro', 'addr:suburb': 'Centro', 'amenity': 'doctors', 'healthcare': 'doctor', 'healthcare:speciality': 'general', 'name': 'Consultório Médico Osnir Borghi', 'opening_hours': 'Mo-Sa 08:00-18:00', 'wheelchair': 'yes'}}"
"{'type': 'node', 'id': 4997345125, 'lat': -23.1996327, 'lon': -49.7602124, 'tags': {'amenity': 'hospital', 'healthcare': 'hospital', 'name': 'PSF - Secretaria de Saúde', 'name:pt': 'PSF - Secretaria de Saúde'}}"
"{'type': 'node', 'id': 4997345126, 'lat': -23.1991838, 'lon': -49.7622999, 'tags': {'amenity': 'hospital', 'healthcare': 'hospital', 'name': 'CENTRO DE SAÚDE DR AGNELO', 'name:pt': 'CENTRO DE SAÚDE DR AGNELO'}}"
"{'type': 'node', 'id': 5253955197, 'lat': -23.4392174, 'lon': -50.2467946, 'tags': {'amenity': 'hospital', 'healthcare': 'hospital'}}"
"{'type': 'node', 'id': 5256850086, 'lat': -23.5682004, 'lon': -49.9141245, 'tags': {'amenity': 'clinic', 'healthcare': 'clinic'}}"
"{'type': 'node', 'id': 5256850093, 'lat': -23.5676301, 'lon': -49.9132148, 'tags': {'amenity': 'hospital', 'healthcare': 'hospital'}}"
"{'type': 'node', 'id': 5519452824, 'lat': -23.1980219, 'lon': -50.7930616, 'tags': {'addr:city': 'Uraí', 'addr:postcode': '86280-000', 'addr:street': 'Rua Professora Ana Dias de Souza', 'addr:suburb': 'Centro', 'amenity': 'hospital', 'healthcare': 'hospital', 'name': 'Santa Casa'}}"
"{'type': 'node', 'id': 5618125521, 'lat': -23.18597, 'lon': -50.654295, 'tags': {'addr:city': 'Cornélio Procópio', 'amenity': 'pharmacy', 'name': 'Farmácia', 'wheelchair': 'yes'}}"
"{'type': 'node', 'id': 5666974860, 'lat': -23.1993149, 'lon': -50.7953294, 'tags': {'addr:city': 'Uraí', 'addr:housenumber': '405', 'addr:postcode': '86280-000', 'addr:street': 'Avenida Brasil', 'addr:suburb': 'Centro', 'amenity': 'pharmacy', 'dispensing': 'yes', 'healthcare': 'pharmacy', 'name': 'Drogamais - Wada'}}"
"{'type': 'node', 'id': 5666974879, 'lat': -23.2001256, 'lon': -50.7949069, 'tags': {'addr:city': 'Uraí', 'addr:housenumber': '494', 'addr:postcode': '86280-000', 'addr:street': 'Avenida Brasil', 'addr:suburb': 'Centro', 'amenity': 'pharmacy', 'dispensing': 'yes', 'healthcare': 'pharmacy', 'name': 'Farmácia Avenida', 'phone': '+55 43 3541 1121'}}"
"{'type': 'node', 'id': 5667022752, 'lat': -23.2013175, 'lon': -50.7937409, 'tags': {'addr:city': 'Uraí', 'addr:housenumber': '680', 'addr:postcode': '86280-000', 'addr:street': 'Avenida Brasil', 'addr:suburb': 'Centro', 'amenity': 'pharmacy', 'dispensing': 'yes', 'healthcare': 'pharmacy', 'name': 'Farmácia Central', 'phone': '+55 43 3541 1004'}}"
"{'type': 'node', 'id': 5878668782, 'lat': -23.1824063, 'lon': -50.6513816, 'tags': {'addr:city': 'Cornélio Procópio', 'addr:housenumber': '144', 'addr:postcode': '86300-000', 'addr:street': 'Rua Praça Manoel Ribas', 'addr:suburb': 'Centro', 'amenity': 'hospital', 'healthcare': 'hospital', 'healthcare:speciality': 'general', 'name': 'Casa de Saúde Doutor João Lima'}}"
"{'type': 'node', 'id': 7122171302, 'lat': -23.2555178, 'lon': -50.9804749, 'tags': {'addr:city': 'Jataizinho', 'addr:postcode': '86210-000', 'addr:street': 'Avenida Antônio Brandão de Oliveira', 'addr:suburb': 'Centro', 'amenity': 'pharmacy', 'dispensing': 'yes', 'healthcare': 'pharmacy', 'name': 'Farmácia Popular'}}"
"{'type': 'node', 'id': 9771274326, 'lat': -22.6593746, 'lon': -50.404224, 'tags': {'addr:city': 'Assis', 'addr:housenumber': '965', 'addr:postcode': '19814-470', 'addr:street': 'Avenida Otto Ribeiro', 'addr:suburb': 'Jardim Paulista', 'amenity': 'hospital', 'description': 'Contamos com Estacionamento Grátis, Medidas de Segurança contra COVID 19, Agendamento Fácil Online, Conforto, Comodidade, Segurança, Modernidade, Praticidade e Eficiência.', 'email': 'contato@ortopicos.com.br', 'healthcare': 'hospital', 'healthcare:speciality': 'orthopaedics', 'name': 'Dr. Gabriel Sato Picos - Médico Ortopedista e Traumatologista', 'operator': 'Ortopicos Clínica Médica Ltda. - Assistência Técnica Especializada', 'operator:type': 'private', 'phone': '+55 18 9982 48666', 'ref:CNES': '867519', 'ref:vatin': 'BR24275276000140', 'website': 'https://www.ortopicos.com.br', 'wheelchair': 'yes'}}"
"{'type': 'node', 'id': 9986942216, 'lat': -23.7776913, 'lon': -49.9574119, 'tags': {'amenity': 'clinic', 'healthcare': 'clinic', 'name': 'UBS - Central'}}"
"{'type': 'node', 'id': 9988712545, 'lat': -23.779932, 'lon': -49.9554336, 'tags': {'amenity': 'hospital', 'healthcare': 'hospital', 'name': 'Casa de Caridade Hospital São Vicente de Paula'}}"
"{'type': 'node', 'id': 9988712547, 'lat': -23.7736584, 'lon': -49.9483954, 'tags': {'amenity': 'clinic', 'healthcare': 'clinic', 'name': 'UBS Bairro Alto'}}"
"{'type': 'node', 'id': 10283953204, 'lat': -22.9798393, 'lon': -49.8673625, 'tags': {'addr:city': 'Ourinhos', 'addr:housenumber': '484', 'addr:postcode': '19900-101', 'addr:street': 'Rua Cardoso Ribeiro', 'addr:suburb': 'Centro', 'amenity': 'clinic', 'beauty': 'hair_removal', 'brand': 'Espaçolaser', 'brand:wikidata': 'Q112326409', 'healthcare': 'clinic', 'name': 'Espaçolaser', 'shop': 'beauty'}}"
"{'type': 'node', 'id': 10778880208, 'lat': -22.9787634, 'lon': -49.8692201, 'tags': {'amenity': 'dentist', 'healthcare': 'dentist', 'name': 'Sorria Sim'}}"
"{'type': 'node', 'id': 10778880209, 'lat': -22.9787676, 'lon': -49.8692535, 'tags': {'amenity': 'pharmacy', 'drive_through': 'no', 'healthcare': 'pharmacy', 'name': 'Farmácia Poupamed'}}"
"{'type': 'node', 'id': 10787292685, 'lat': -22.9765926, 'lon': -49.8691847, 'tags': {'addr:city': 'Ourinhos', 'addr:housenumber': '70', 'addr:postcode': '19900-020', 'addr:street': 'Rua Paraná', 'addr:suburb': 'Centro', 'amenity': 'pharmacy', 'dispensing': 'yes', 'drive_through': 'no', 'healthcare': 'pharmacy', 'name': 'Poupamed - Loja Terminal'}}"
"{'type': 'node', 'id': 10856618703, 'lat': -22.9781317, 'lon': -49.8707643, 'tags': {'amenity': 'pharmacy', 'healthcare': 'pharmacy', 'name': 'Nissei Farmácias'}}"
