OSM_Data
"{'type': 'node', 'id': 439726617, 'lat': 40.8441663, 'lon': 14.2321082, 'tags': {'amenity': 'pharmacy', 'name': 'De Benedictis'}}"
"{'type': 'node', 'id': 439726641, 'lat': 40.8437059, 'lon': 14.2310509, 'tags': {'amenity': 'pharmacy'}}"
"{'type': 'node', 'id': 439726733, 'lat': 40.8438506, 'lon': 14.2326631, 'tags': {'amenity': 'pharmacy', 'dispensing': 'yes', 'name': 'Farmacia Cannone', 'operator': 'Dr. Del Vecchio Domenico'}}"
"{'type': 'node', 'id': 454869900, 'lat': 40.9576651, 'lon': 14.2691079, 'tags': {'amenity': 'pharmacy'}}"
"{'type': 'node', 'id': 536513332, 'lat': 40.7605783, 'lon': 14.020801, 'tags': {'amenity': 'hospital', 'name': 'Ospedale Civile Albano Francescano'}}"
"{'type': 'node', 'id': 552390833, 'lat': 40.8436816, 'lon': 14.3440064, 'tags': {'amenity': 'pharmacy', 'name': 'Farmacia Tufarelli'}}"
"{'type': 'node', 'id': 639001312, 'lat': 41.2105959, 'lon': 14.2323918, 'tags': {'amenity': 'pharmacy', 'healthcare': 'pharmacy', 'name': 'Farmacia Salemme'}}"
"{'type': 'node', 'id': 663184971, 'lat': 40.9515562, 'lon': 14.6168935, 'tags': {'amenity': 'pharmacy', 'healthcare': 'pharmacy', 'name': 'Farmacia Masi'}}"
"{'type': 'node', 'id': 708538242, 'lat': 40.2687095, 'lon': 14.9443917, 'tags': {'amenity': 'pharmacy', 'name': 'Farmacia Dott Baldi', 'wheelchair': 'limited'}}"
"{'type': 'node', 'id': 764065395, 'lat': 41.0000244, 'lon': 14.1234941, 'tags': {'amenity': 'pharmacy', 'name': 'S. Cipriano'}}"
"{'type': 'node', 'id': 764075772, 'lat': 41.0027329, 'lon': 14.1317774, 'tags': {'addr:city': ""San Cipriano d'Aversa"", 'addr:street': 'Via Roma', 'amenity': 'pharmacy', 'key': '0007', 'name': 'Tancredi'}}"
"{'type': 'node', 'id': 764075880, 'lat': 41.0047408, 'lon': 14.1365195, 'tags': {'amenity': 'pharmacy', 'key': '0008', 'name': 'De Marco'}}"
"{'type': 'node', 'id': 790306187, 'lat': 40.9037698, 'lon': 14.2820009, 'tags': {'addr:city': 'Casoria', 'addr:housenumber': '69', 'addr:postcode': '80026', 'addr:street': 'Via Alessandro Manzoni', 'amenity': 'pharmacy', 'dispensing': 'yes', 'drive_through': 'no', 'healthcare': 'pharmacy', 'name': 'Farmacia Mandanici', 'opening_hours': '24/7', 'operator': 'Dott.ssa Maglione Alfonsina'}}"
"{'type': 'node', 'id': 790306193, 'lat': 40.8995689, 'lon': 14.2740133, 'tags': {'amenity': 'pharmacy', 'healthcare': 'pharmacy'}}"
"{'type': 'node', 'id': 790306194, 'lat': 40.9014341, 'lon': 14.2755689, 'tags': {'amenity': 'pharmacy', 'healthcare': 'pharmacy'}}"
"{'type': 'node', 'id': 849595685, 'lat': 40.7427448, 'lon': 14.6737015, 'tags': {'amenity': 'pharmacy', 'name': 'Caputo Leonilda'}}"
"{'type': 'node', 'id': 897133179, 'lat': 40.629706, 'lon': 14.4821397, 'tags': {'addr:city': 'Positano', 'addr:housenumber': '290', 'addr:postcode': '84017', 'addr:street': 'Via Guglielmo Marconi', 'amenity': 'pharmacy', 'fax': '+39 089 8123175', 'healthcare': 'pharmacy', 'name': 'Farmacia Rizzo Di Maria E Roberto Rizzo Snc', 'operator': 'Dr. Roberto Rizzo', 'phone': '+39 089 8122088'}}"
"{'type': 'node', 'id': 921267093, 'lat': 41.1923701, 'lon': 14.5483971, 'tags': {'addr:city': 'Solopaca', 'addr:housenumber': '22', 'addr:postcode': '82036', 'addr:street': 'Via Roma', 'amenity': 'pharmacy', 'dispensing': 'yes', 'healthcare': 'pharmacy', 'name': 'Farmacia Dott. Ciarcia'}}"
"{'type': 'node', 'id': 977843711, 'lat': 40.8904758, 'lon': 14.2857249, 'tags': {'amenity': 'pharmacy'}}"
"{'type': 'node', 'id': 977843716, 'lat': 40.8899894, 'lon': 14.2830958, 'tags': {'amenity': 'pharmacy', 'name': 'Farmacia San Pietro', 'opening_hours': 'Mo-Su,PH 00:00-00:00', 'wheelchair': 'yes'}}"
"{'type': 'node', 'id': 1005649081, 'lat': 40.8854867, 'lon': 14.1441368, 'tags': {'amenity': 'pharmacy'}}"
"{'type': 'node', 'id': 1082511059, 'lat': 41.0625284, 'lon': 14.338123, 'tags': {'amenity': 'pharmacy', 'dispensing': 'yes', 'name': 'Farmacia Fugaro', 'opening_hours': 'Mo-Fr 08:30-20:00'}}"
"{'type': 'node', 'id': 1082511068, 'lat': 41.0636294, 'lon': 14.3330104, 'tags': {'amenity': 'pharmacy', 'dispensing': 'yes', 'healthcare': 'pharmacy', 'name': 'Farmacia Odierna'}}"
"{'type': 'node', 'id': 1089138199, 'lat': 40.6150379, 'lon': 14.9726498, 'tags': {'amenity': 'hospital', 'healthcare': 'hospital', 'name': 'Santa Maria della Speranza'}}"
"{'type': 'node', 'id': 1089165704, 'lat': 40.6105505, 'lon': 14.9806008, 'tags': {'amenity': 'pharmacy', 'healthcare': 'pharmacy'}}"
"{'type': 'node', 'id': 1107808246, 'lat': 40.5241118, 'lon': 14.9216431, 'tags': {'amenity': 'hospital', 'name': 'Campolongo Hospital'}}"
"{'type': 'node', 'id': 1117080568, 'lat': 40.880514, 'lon': 14.2711544, 'tags': {'amenity': 'pharmacy'}}"
"{'type': 'node', 'id': 1118783650, 'lat': 40.8039062, 'lon': 14.3551094, 'tags': {'amenity': 'pharmacy'}}"
"{'type': 'node', 'id': 1168616338, 'lat': 40.7377188, 'lon': 14.5626543, 'tags': {'amenity': 'pharmacy', 'name': 'Farmacia Comunale'}}"
"{'type': 'node', 'id': 1203854209, 'lat': 40.5552085, 'lon': 14.9047683, 'tags': {'amenity': 'pharmacy', 'name': 'Farmacia Aulisi'}}"
"{'type': 'node', 'id': 1251191174, 'lat': 40.8511335, 'lon': 14.2273261, 'tags': {'amenity': 'pharmacy', 'name': 'Farmacia Del Vomero'}}"
"{'type': 'node', 'id': 1361511852, 'lat': 41.5130542, 'lon': 13.7721241, 'tags': {'amenity': 'pharmacy'}}"
"{'type': 'node', 'id': 1397679784, 'lat': 40.9812041, 'lon': 14.2308481, 'tags': {'addr:housenumber': '49', 'addr:postcode': '81030', 'addr:street': 'Via Aversa', 'amenity': 'pharmacy', 'name': 'Farmacia Cennamo'}}"
"{'type': 'node', 'id': 1418946258, 'lat': 41.4668899, 'lon': 14.1454225, 'tags': {'amenity': 'pharmacy', 'healthcare': 'pharmacy'}}"
"{'type': 'node', 'id': 1457151225, 'lat': 40.848373, 'lon': 14.4705152, 'tags': {'amenity': 'hospital', 'emergency': 'yes', 'healthcare': 'hospital', 'name': 'Casa di cura Trusso'}}"
"{'type': 'node', 'id': 1462176201, 'lat': 40.8329738, 'lon': 14.4998189, 'tags': {'amenity': 'hospital', 'name': 'Clinica Santa Lucia'}}"
"{'type': 'node', 'id': 1480250881, 'lat': 41.2633467, 'lon': 13.8906714, 'tags': {'amenity': 'pharmacy', 'dispensing': 'no'}}"
"{'type': 'node', 'id': 1487623060, 'lat': 40.887004, 'lon': 14.2671082, 'tags': {'amenity': 'pharmacy'}}"
"{'type': 'node', 'id': 1488413738, 'lat': 40.8928989, 'lon': 14.2667516, 'tags': {'amenity': 'pharmacy'}}"
"{'type': 'node', 'id': 1488872279, 'lat': 40.8827675, 'lon': 14.2708875, 'tags': {'amenity': 'pharmacy'}}"
"{'type': 'node', 'id': 1489362454, 'lat': 40.8476908, 'lon': 14.4733493, 'tags': {'amenity': 'pharmacy'}}"
"{'type': 'node', 'id': 1489362459, 'lat': 40.851777, 'lon': 14.4780807, 'tags': {'amenity': 'pharmacy', 'name': 'Farmacia Scudieri'}}"
"{'type': 'node', 'id': 1489362462, 'lat': 40.8375006, 'lon': 14.5044951, 'tags': {'amenity': 'pharmacy', 'name': 'Farmacia Ambrosio'}}"
"{'type': 'node', 'id': 1489362469, 'lat': 40.8507991, 'lon': 14.4803445, 'tags': {'amenity': 'pharmacy'}}"
"{'type': 'node', 'id': 1489362472, 'lat': 40.8490705, 'lon': 14.4785528, 'tags': {'amenity': 'pharmacy'}}"
"{'type': 'node', 'id': 1493288535, 'lat': 40.9088475, 'lon': 14.261922, 'tags': {'amenity': 'pharmacy'}}"
"{'type': 'node', 'id': 1494126435, 'lat': 40.906325, 'lon': 14.2654379, 'tags': {'amenity': 'pharmacy'}}"
"{'type': 'node', 'id': 1495858577, 'lat': 40.9023451, 'lon': 14.2836793, 'tags': {'amenity': 'pharmacy', 'healthcare': 'pharmacy'}}"
"{'type': 'node', 'id': 1500252203, 'lat': 40.9050502, 'lon': 14.285148, 'tags': {'amenity': 'pharmacy', 'healthcare': 'pharmacy', 'name': 'Farmacia Catapano'}}"
"{'type': 'node', 'id': 1500252266, 'lat': 40.9048658, 'lon': 14.2899625, 'tags': {'amenity': 'pharmacy', 'healthcare': 'pharmacy'}}"
"{'type': 'node', 'id': 1501838977, 'lat': 40.9051376, 'lon': 14.2936682, 'tags': {'amenity': 'pharmacy', 'healthcare': 'pharmacy'}}"
"{'type': 'node', 'id': 1502180417, 'lat': 40.8993759, 'lon': 14.3024119, 'tags': {'amenity': 'pharmacy'}}"
"{'type': 'node', 'id': 1503318100, 'lat': 40.9116902, 'lon': 14.297417, 'tags': {'amenity': 'pharmacy', 'healthcare': 'pharmacy'}}"
"{'type': 'node', 'id': 1518751954, 'lat': 40.9254579, 'lon': 14.3021722, 'tags': {'addr:housenumber': '171', 'addr:postcode': '80021', 'addr:street': 'Via Giovanni Amendola', 'amenity': 'pharmacy', 'healthcare': 'pharmacy', 'name': 'Farmacia Tuccillo', 'operator': 'Tuccillo'}}"
"{'type': 'node', 'id': 1530863787, 'lat': 41.0693737, 'lon': 14.3329093, 'tags': {'addr:city': 'Caserta', 'addr:postcode': '81100', 'addr:street': ""Piazza Sant'Anna"", 'amenity': 'pharmacy', 'check_date': '2024-08-21', 'dispensing': 'yes', 'healthcare': 'pharmacy', 'name': ""Farmacia Sant'Anna""}}"
"{'type': 'node', 'id': 1530863979, 'lat': 41.0687748, 'lon': 14.3412852, 'tags': {'amenity': 'pharmacy', 'dispensing': 'yes', 'healthcare': 'pharmacy', 'name': 'Farmacia Cantelli'}}"
"{'type': 'node', 'id': 1563719991, 'lat': 40.8212621, 'lon': 14.2065799, 'tags': {'amenity': 'pharmacy', 'dispensing': 'yes', 'name': 'Farmacia'}}"
"{'type': 'node', 'id': 1563937439, 'lat': 40.8775373, 'lon': 14.1293239, 'tags': {'amenity': 'pharmacy', 'name': 'Farmacia del Sole'}}"
"{'type': 'node', 'id': 1564848405, 'lat': 40.8788785, 'lon': 14.1450404, 'tags': {'amenity': 'pharmacy'}}"
"{'type': 'node', 'id': 1601416306, 'lat': 40.9653025, 'lon': 14.2023847, 'tags': {'amenity': 'pharmacy', 'healthcare': 'pharmacy'}}"
"{'type': 'node', 'id': 1602933053, 'lat': 40.6190001, 'lon': 14.5537947, 'tags': {'addr:city': 'Furore', 'addr:country': 'IT', 'addr:postcode': '84010', 'addr:province': 'Salerno', 'amenity': 'pharmacy', 'opening_hours': 'Mo-Sa 09:00-13:00, 17:00-20:30'}}"
"{'type': 'node', 'id': 1632687961, 'lat': 40.7007261, 'lon': 14.489974, 'tags': {'amenity': 'pharmacy', 'healthcare': 'pharmacy', 'name': 'Farmacia Gava'}}"
"{'type': 'node', 'id': 1632724507, 'lat': 40.7047299, 'lon': 14.4941153, 'tags': {'addr:city': 'Castellammare di Stabia', 'addr:postcode': '80053', 'addr:street': 'Via Giuseppe Cosenza', 'amenity': 'pharmacy', 'healthcare': 'pharmacy', 'name': 'Farmacia San Carlo'}}"
"{'type': 'node', 'id': 1654202504, 'lat': 40.7366657, 'lon': 13.8579427, 'tags': {'amenity': 'pharmacy', 'healthcare': 'pharmacy'}}"
"{'type': 'node', 'id': 1669498339, 'lat': 40.700554, 'lon': 14.7075713, 'tags': {'amenity': 'pharmacy', 'healthcare': 'pharmacy'}}"
"{'type': 'node', 'id': 1692012109, 'lat': 40.8699228, 'lon': 14.2672847, 'tags': {'amenity': 'pharmacy', 'name': 'Farmacia Ponti Rossi', 'opening_hours': 'Mo-Su,PH 00:00-00:00', 'wheelchair': 'yes'}}"
"{'type': 'node', 'id': 1759748613, 'lat': 41.0177389, 'lon': 13.9530254, 'tags': {'amenity': 'hospital', 'name': 'Clinica Pineta Grande'}}"
"{'type': 'node', 'id': 1762147161, 'lat': 40.6219172, 'lon': 14.3771124, 'tags': {'amenity': 'pharmacy', 'healthcare': 'pharmacy'}}"
"{'type': 'node', 'id': 1788942985, 'lat': 40.8913336, 'lon': 14.2767794, 'tags': {'amenity': 'pharmacy'}}"
"{'type': 'node', 'id': 1788945310, 'lat': 40.8916416, 'lon': 14.2792521, 'tags': {'amenity': 'pharmacy'}}"
"{'type': 'node', 'id': 1788949729, 'lat': 40.889691, 'lon': 14.2762051, 'tags': {'amenity': 'pharmacy'}}"
"{'type': 'node', 'id': 1789021425, 'lat': 40.9241517, 'lon': 14.4807001, 'tags': {'amenity': 'pharmacy', 'healthcare': 'pharmacy'}}"
"{'type': 'node', 'id': 1805973519, 'lat': 40.898836, 'lon': 14.2854198, 'tags': {'amenity': 'pharmacy', 'healthcare': 'pharmacy'}}"
"{'type': 'node', 'id': 1806004762, 'lat': 40.9001193, 'lon': 14.2912536, 'tags': {'amenity': 'pharmacy', 'dispensing': 'yes', 'healthcare': 'pharmacy', 'name': 'Farmacia Eredi dottor Bruno'}}"
"{'type': 'node', 'id': 1813573782, 'lat': 40.8157917, 'lon': 14.6165933, 'tags': {'amenity': 'pharmacy', 'name': 'Farmacia Derkeshli Ahmad Mazen'}}"
"{'type': 'node', 'id': 1813574663, 'lat': 40.8179839, 'lon': 14.6130098, 'tags': {'amenity': 'pharmacy', 'name': 'Farmacia Avallone Gilda'}}"
"{'type': 'node', 'id': 1846482529, 'lat': 40.6316265, 'lon': 14.5400817, 'tags': {'amenity': 'pharmacy', 'opening_hours': 'Mo-Fr 09:00-13:00, 17:00-21:00'}}"
"{'type': 'node', 'id': 1881719136, 'lat': 40.7446438, 'lon': 14.6224262, 'tags': {'amenity': 'pharmacy', 'check_date': '2023-07-16', 'dispensing': 'yes', 'name': ""Farmacia Dell'Aquila"", 'payment:mastercard': 'yes', 'payment:visa': 'yes', 'wheelchair': 'yes'}}"
"{'type': 'node', 'id': 1937030464, 'lat': 41.4851651, 'lon': 14.0497578, 'tags': {'amenity': 'pharmacy', 'dispensing': 'yes', 'healthcare': 'pharmacy', 'name': 'Farmacia Sardella'}}"
"{'type': 'node', 'id': 1937030484, 'lat': 41.4792574, 'lon': 14.0485991, 'tags': {'amenity': 'pharmacy', 'healthcare': 'pharmacy', 'name': 'Parafarmacia Salute e Benessere'}}"
"{'type': 'node', 'id': 1937030487, 'lat': 41.4847927, 'lon': 14.0456183, 'tags': {'amenity': 'pharmacy', 'dispensing': 'yes', 'healthcare': 'pharmacy', 'name': 'Farmacia Del Prete'}}"
"{'type': 'node', 'id': 1992963540, 'lat': 40.822309, 'lon': 14.1209654, 'tags': {'addr:city': 'Pozzuoli', 'addr:housenumber': '49', 'addr:postcode': '80078', 'addr:street': 'Piazza della Repubblica', 'amenity': 'pharmacy', 'name': 'Farmacia Azan'}}"
"{'type': 'node', 'id': 1993099738, 'lat': 40.8252308, 'lon': 14.1211993, 'tags': {'amenity': 'pharmacy'}}"
"{'type': 'node', 'id': 1995752891, 'lat': 40.6310441, 'lon': 14.4069293, 'tags': {'addr:city': ""Sant'Agnello"", 'addr:country': 'IT', 'addr:housenumber': '11,13', 'addr:postcode': '80065', 'addr:street': 'Via San Sergio', 'amenity': 'pharmacy', 'healthcare': 'pharmacy', 'name': 'Farmacia Palagiano', 'ref:msal': '12191'}}"
"{'type': 'node', 'id': 1997295396, 'lat': 40.6294841, 'lon': 14.3949732, 'tags': {'amenity': 'pharmacy', 'dispensing': 'yes', 'healthcare': 'pharmacy', 'name': 'Farmacia Leogrande - Palagiano', 'ref:msal': '12186'}}"
"{'type': 'node', 'id': 1997718684, 'lat': 40.5501881, 'lon': 14.241709, 'tags': {'amenity': 'pharmacy', 'name': 'Farmacia Internazionale'}}"
"{'type': 'node', 'id': 2003522261, 'lat': 40.809812, 'lon': 14.3567261, 'tags': {'amenity': 'pharmacy'}}"
"{'type': 'node', 'id': 2004779810, 'lat': 40.8020261, 'lon': 14.3529652, 'tags': {'amenity': 'pharmacy'}}"
"{'type': 'node', 'id': 2005124028, 'lat': 40.7946361, 'lon': 14.3791486, 'tags': {'amenity': 'pharmacy', 'healthcare': 'pharmacy'}}"
"{'type': 'node', 'id': 2008230697, 'lat': 40.6370865, 'lon': 14.4196645, 'tags': {'amenity': 'pharmacy'}}"
"{'type': 'node', 'id': 2018203587, 'lat': 40.6133187, 'lon': 14.5225724, 'tags': {'addr:city': 'Praiano', 'addr:housenumber': '142', 'addr:postcode': '84010', 'addr:street': 'Via G. Capriglione', 'amenity': 'pharmacy', 'healthcare': 'pharmacy', 'name': 'Farmacia Irace', 'opening_hours': 'Mo-Sa 09:00-13:00, 17:00-20:30', 'phone': '+39 089 874846'}}"
"{'type': 'node', 'id': 2034627961, 'lat': 40.7952971, 'lon': 14.360571, 'tags': {'amenity': 'pharmacy'}}"
"{'type': 'node', 'id': 2057934880, 'lat': 40.7612196, 'lon': 14.537605, 'tags': {'amenity': 'pharmacy'}}"
"{'type': 'node', 'id': 2071973067, 'lat': 41.4824607, 'lon': 14.4730099, 'tags': {'amenity': 'pharmacy', 'dispensing': 'yes', 'name': 'Farmacia Campanella'}}"
"{'type': 'node', 'id': 2071973070, 'lat': 41.4841704, 'lon': 14.4726868, 'tags': {'amenity': 'pharmacy', 'dispensing': 'yes', 'name': 'Farmacia De Blasio'}}"
"{'type': 'node', 'id': 2073924126, 'lat': 40.7219429, 'lon': 14.6963113, 'tags': {'amenity': 'pharmacy'}}"
"{'type': 'node', 'id': 2089567705, 'lat': 40.6344179, 'lon': 14.6019166, 'tags': {'amenity': 'pharmacy'}}"
"{'type': 'node', 'id': 2089775417, 'lat': 40.6499858, 'lon': 14.6135358, 'tags': {'amenity': 'pharmacy'}}"
"{'type': 'node', 'id': 2089784335, 'lat': 40.6383861, 'lon': 14.6122789, 'tags': {'amenity': 'hospital', 'emergency': 'yes', 'healthcare': 'hospital', 'name': 'Ospedale della costa', 'name:en': 'Amalfi Coast Hospital'}}"
"{'type': 'node', 'id': 2125602132, 'lat': 41.1749273, 'lon': 14.6440904, 'tags': {'addr:city': 'Vitulano', 'addr:housenumber': '4-6', 'addr:postcode': '82038', 'addr:street': 'Via Iadonisi', 'amenity': 'pharmacy', 'dispensing': 'yes', 'drive_through': 'no', 'healthcare': 'pharmacy', 'name': 'Farmacia Cusano', 'operator': 'Cusano S.n.c.', 'phone': '+39 0824 871060', 'ref:msal': '11280', 'ref:vatin': 'IT00019090620', 'wheelchair': 'limited'}}"
"{'type': 'node', 'id': 2204200762, 'lat': 40.8780787, 'lon': 14.1370062, 'tags': {'amenity': 'pharmacy', 'healthcare': 'pharmacy', 'name': 'Farmacia Del Corso'}}"
"{'type': 'node', 'id': 2214528195, 'lat': 40.8267932, 'lon': 14.1240411, 'tags': {'amenity': 'pharmacy', 'dispensing': 'yes', 'healthcare': 'pharmacy'}}"
"{'type': 'node', 'id': 2214528199, 'lat': 40.825356, 'lon': 14.1264435, 'tags': {'addr:city': 'Pozzuoli', 'addr:housenumber': '4', 'addr:postcode': '80078', 'addr:street': 'Via Solfatara', 'amenity': 'pharmacy', 'name': 'Farmacia ADAM Dott. Gesualdo', 'phone': '+39 081 526 2364', 'wheelchair': 'no'}}"
"{'type': 'node', 'id': 2214530023, 'lat': 40.8317116, 'lon': 14.1170182, 'tags': {'amenity': 'pharmacy'}}"
"{'type': 'node', 'id': 2219224625, 'lat': 40.9753663, 'lon': 14.2189207, 'tags': {'addr:housenumber': '8', 'addr:postcode': '81031', 'addr:street': ""Via dell'Archeologia"", 'amenity': 'pharmacy', 'name': 'Farmacia Lauro', 'phone': '+39 081 8154014', 'ref:vatin': 'IT02846220610'}}"
"{'type': 'node', 'id': 2222544736, 'lat': 40.8627384, 'lon': 14.0889181, 'tags': {'addr:city': 'Pozzuoli', 'addr:postcode': '80078', 'addr:street': 'Via Monteruscello', 'amenity': 'pharmacy', 'name': 'Farmacia Elisa'}}"
"{'type': 'node', 'id': 2242819104, 'lat': 40.8254381, 'lon': 14.2123097, 'tags': {'amenity': 'pharmacy', 'name': 'Arena'}}"
"{'type': 'node', 'id': 2245099605, 'lat': 40.7814918, 'lon': 14.4131351, 'tags': {'amenity': 'pharmacy'}}"
"{'type': 'node', 'id': 2245346625, 'lat': 40.8289896, 'lon': 14.1324627, 'tags': {'addr:city': 'Pozzuoli', 'addr:housenumber': '115, 117', 'addr:postcode': '80078', 'addr:street': 'Via Solfatara', 'amenity': 'pharmacy', 'name': 'Farmacia Dott. ssa Paola La Marca', 'opening_hours': '24/7', 'phone': '+39 081 526 9023'}}"
"{'type': 'node', 'id': 2246068422, 'lat': 41.0518846, 'lon': 14.8564017, 'tags': {'amenity': 'pharmacy', 'healthcare': 'pharmacy', 'name': 'Farmacia'}}"
"{'type': 'node', 'id': 2277986675, 'lat': 40.6077808, 'lon': 14.9866055, 'tags': {'amenity': 'pharmacy', 'dispensing': 'yes', 'healthcare': 'pharmacy', 'name': 'Farmacia Dottor Langone'}}"
"{'type': 'node', 'id': 2277986678, 'lat': 40.6082492, 'lon': 14.9844182, 'tags': {'amenity': 'pharmacy', 'healthcare': 'pharmacy'}}"
"{'type': 'node', 'id': 2311452925, 'lat': 40.8150572, 'lon': 14.3444962, 'tags': {'amenity': 'hospital', 'healthcare': 'hospital', 'name': 'Guardia medica'}}"
"{'type': 'node', 'id': 2406199626, 'lat': 40.9075757, 'lon': 14.2889911, 'tags': {'amenity': 'pharmacy', 'dispensing': 'yes', 'healthcare': 'pharmacy', 'name': 'Parafarmacia'}}"
"{'type': 'node', 'id': 2428857945, 'lat': 40.8915575, 'lon': 14.0862501, 'tags': {'amenity': 'pharmacy', 'healthcare': 'pharmacy'}}"
"{'type': 'node', 'id': 2452231029, 'lat': 40.6305121, 'lon': 14.5402099, 'tags': {'amenity': 'hospital', 'name': 'Guardia Medica'}}"
"{'type': 'node', 'id': 2455964134, 'lat': 40.9109029, 'lon': 14.2572871, 'tags': {'addr:street': 'Via Silone', 'amenity': 'pharmacy', 'healthcare': 'pharmacy', 'name': 'Farmacia Finelli', 'wheelchair': 'yes'}}"
"{'type': 'node', 'id': 2465270650, 'lat': 41.076755, 'lon': 14.2749578, 'tags': {'addr:city': 'Curti', 'addr:housenumber': '22', 'addr:postcode': '81040', 'addr:street': 'Via Dante Alighieri', 'amenity': 'pharmacy', 'healthcare': 'pharmacy', 'name': 'Farmacia Giffoni', 'wheelchair': 'yes'}}"
"{'type': 'node', 'id': 2465442429, 'lat': 41.4459985, 'lon': 13.8310516, 'tags': {'amenity': 'pharmacy', 'name:en': 'Chemist', 'operator': 'Felici Puccetti'}}"
"{'type': 'node', 'id': 2469062056, 'lat': 41.0816325, 'lon': 14.2731607, 'tags': {'amenity': 'pharmacy', 'healthcare': 'pharmacy', 'name': 'Farmacia Campofreda'}}"
"{'type': 'node', 'id': 2469062776, 'lat': 41.0855431, 'lon': 14.2775936, 'tags': {'addr:city': 'San Prisco', 'addr:postcode': '81054', 'addr:street': 'Via Michele Monaco', 'amenity': 'pharmacy', 'check_date': '2024-09-13', 'healthcare': 'pharmacy', 'name': 'Farmacia Gravino', 'opening_hours': 'Mo-Th 09:00-13:00, 16:00-20:00'}}"
"{'type': 'node', 'id': 2496864396, 'lat': 40.8427467, 'lon': 14.2315773, 'tags': {'amenity': 'pharmacy', 'check_date': '2024-12-05', 'name': 'Farmacia Orlando'}}"
"{'type': 'node', 'id': 2508798093, 'lat': 40.8144039, 'lon': 14.2081084, 'tags': {'amenity': 'pharmacy', 'name': 'San Luigi'}}"
"{'type': 'node', 'id': 2508798096, 'lat': 40.826192, 'lon': 14.2193703, 'tags': {'amenity': 'pharmacy'}}"
"{'type': 'node', 'id': 2508821852, 'lat': 40.8014785, 'lon': 14.1911363, 'tags': {'amenity': 'pharmacy', 'name': 'Farmacia Marechiaro'}}"
"{'type': 'node', 'id': 2622372991, 'lat': 40.9155356, 'lon': 14.7838057, 'tags': {'addr:city': 'Avellino', 'addr:housename': 'c/o Studio Psicologi associati', 'addr:housenumber': '3/1', 'addr:postcode': '83100', 'addr:street': 'Via Sottotenente Giovanni Iannaccone', 'amenity': 'doctors', 'description': 'Psicologa psicoterapeuta cognitivo-comportamentale.', 'healthcare': 'doctor', 'healthcare:speciality': 'psychiatry', 'name': 'Dott.ssa Simona Guglielmucci', 'phone': '+39 347 589 4998'}}"
"{'type': 'node', 'id': 2638359655, 'lat': 41.0617349, 'lon': 14.5580729, 'tags': {'addr:city': 'Airola', 'addr:housenumber': '24', 'addr:postcode': '82011', 'addr:street': 'Corso Montella', 'amenity': 'pharmacy', 'drive_through': 'no', 'name': 'Farmacia Iglio'}}"
"{'type': 'node', 'id': 2638387770, 'lat': 41.0607981, 'lon': 14.5548418, 'tags': {'addr:city': 'Airola', 'addr:housenumber': '24', 'addr:postcode': '82011', 'addr:street': 'Via Roma', 'amenity': 'pharmacy', 'drive_through': 'no', 'name': 'Farmacia Abbatiello Giulia'}}"
"{'type': 'node', 'id': 2663720276, 'lat': 41.0561787, 'lon': 14.5570666, 'tags': {'addr:city': 'Airola', 'addr:street': 'Corso Caudino', 'amenity': 'pharmacy', 'drive_through': 'no', 'healthcare': 'pharmacy', 'name': 'Parafarmacia De Lucia'}}"
"{'type': 'node', 'id': 2681044155, 'lat': 40.8857617, 'lon': 14.6311372, 'tags': {'amenity': 'pharmacy'}}"
"{'type': 'node', 'id': 2737743850, 'lat': 41.4625053, 'lon': 13.6656227, 'tags': {'amenity': 'pharmacy', 'healthcare': 'pharmacy'}}"
"{'type': 'node', 'id': 2737743857, 'lat': 41.4577215, 'lon': 13.6662365, 'tags': {'amenity': 'pharmacy', 'healthcare': 'pharmacy'}}"
"{'type': 'node', 'id': 2778473424, 'lat': 40.860314, 'lon': 14.5302742, 'tags': {'amenity': 'pharmacy', 'name': 'Farmacia Dott. Dichiarante'}}"
"{'type': 'node', 'id': 2778473425, 'lat': 40.8591652, 'lon': 14.5198675, 'tags': {'amenity': 'pharmacy', 'name': 'Farmacia S. Gennaro'}}"
"{'type': 'node', 'id': 2778473426, 'lat': 40.8602336, 'lon': 14.5274927, 'tags': {'amenity': 'hospital', 'name': 'Casa di cura La Madonnina'}}"
"{'type': 'node', 'id': 2778519859, 'lat': 40.7358558, 'lon': 14.5979403, 'tags': {'amenity': 'pharmacy'}}"
"{'type': 'node', 'id': 2790774470, 'lat': 40.7250105, 'lon': 14.5923112, 'tags': {'amenity': 'pharmacy', 'healthcare': 'pharmacy'}}"
"{'type': 'node', 'id': 2865474480, 'lat': 40.7428183, 'lon': 14.6375414, 'tags': {'addr:housenumber': '94', 'addr:street': 'Corso Vittorio Emanuele II', 'alt_name': 'Farmacia del Corso', 'amenity': 'pharmacy', 'dispensing': 'yes', 'name': 'Farmacia Saracino'}}"
"{'type': 'node', 'id': 2865549998, 'lat': 40.7409687, 'lon': 14.6498551, 'tags': {'addr:housenumber': '81', 'addr:street': 'Via Giuseppe Atzori', 'amenity': 'pharmacy', 'dispensing': 'yes', 'name': 'Farmacia Brancati'}}"
"{'type': 'node', 'id': 2869256765, 'lat': 41.2574552, 'lon': 13.7034133, 'tags': {'addr:housenumber': '256', 'addr:postcode': '04028', 'addr:street': 'Via Appia', 'amenity': 'pharmacy', 'dispensing': 'no', 'name': 'Parafarmacia Bembo', 'source': 'Personal knowledge'}}"
"{'type': 'node', 'id': 2874467879, 'lat': 40.8523422, 'lon': 14.2250823, 'tags': {'addr:housenumber': '39', 'addr:postcode': '80131', 'addr:street': 'Via San Giacomo dei Capri', 'amenity': 'pharmacy', 'dispensing': 'yes', 'name': 'Farmacia Laterza', 'source': 'Personal Knowledge'}}"
"{'type': 'node', 'id': 2906962974, 'lat': 40.7713694, 'lon': 14.4763432, 'tags': {'addr:city': 'Boscoreale', 'addr:housenumber': '158', 'addr:postcode': '80041', 'addr:street': 'Via Giovanni della Rocca', 'amenity': 'pharmacy', 'healthcare': 'pharmacy', 'name': 'Farmacia Il Girasole', 'opening_hours': 'Mo-Sa 07:30-21:30; Sa 15:30-21:30; Su 08:30-13:30', 'phone': '+390818586231', 'wheelchair': 'yes'}}"
"{'type': 'node', 'id': 2940150952, 'lat': 40.7375409, 'lon': 13.8599732, 'tags': {'addr:city': 'Forio', 'addr:housenumber': '1', 'addr:street': 'Via Filippo Di Lustro', 'amenity': 'dentist', 'healthcare': 'dentist'}}"
"{'type': 'node', 'id': 2946432084, 'lat': 40.9598766, 'lon': 14.3083462, 'tags': {'amenity': 'pharmacy'}}"
"{'type': 'node', 'id': 2946432085, 'lat': 40.9553623, 'lon': 14.3043806, 'tags': {'amenity': 'pharmacy', 'healthcare': 'pharmacy'}}"
"{'type': 'node', 'id': 2946432086, 'lat': 40.9570542, 'lon': 14.3014327, 'tags': {'amenity': 'pharmacy', 'healthcare': 'pharmacy', 'name': 'Farmacia San Giovanni'}}"
"{'type': 'node', 'id': 2946432087, 'lat': 40.9594294, 'lon': 14.3016781, 'tags': {'amenity': 'pharmacy', 'healthcare': 'pharmacy'}}"
"{'type': 'node', 'id': 2960930375, 'lat': 40.7412193, 'lon': 14.6393402, 'tags': {'addr:housenumber': '60', 'addr:street': 'Via Attilio Barbarulo', 'amenity': 'pharmacy', 'dispensing': 'yes', 'name': 'Farmacia Boscia'}}"
"{'type': 'node', 'id': 2960965636, 'lat': 40.751918, 'lon': 14.6330074, 'tags': {'addr:housenumber': '134', 'addr:street': 'Via Cicalesi', 'amenity': 'pharmacy', 'dispensing': 'yes', 'name': 'Farmacia Corrado'}}"
"{'type': 'node', 'id': 2960991392, 'lat': 40.74618, 'lon': 14.6471645, 'tags': {'addr:housenumber': '67', 'addr:street': 'Via Gianbattista Castaldo', 'amenity': 'pharmacy', 'dispensing': 'yes', 'name': 'Farmacia Criscuolo'}}"
"{'type': 'node', 'id': 2961032941, 'lat': 40.74217, 'lon': 14.6464557, 'tags': {'addr:housenumber': '13', 'addr:street': 'Via Eugenio Siciliano', 'amenity': 'pharmacy', 'dispensing': 'yes', 'name': 'Farmacia Ferrante'}}"
"{'type': 'node', 'id': 2961921344, 'lat': 40.7440978, 'lon': 14.6474455, 'tags': {'addr:housenumber': '64', 'addr:street': 'Via Domenicantonio Siniscalchi', 'amenity': 'pharmacy', 'name': 'Farmacia Vitolo'}}"
"{'type': 'node', 'id': 2961921345, 'lat': 40.7469259, 'lon': 14.6353985, 'tags': {'addr:housenumber': '24', 'addr:street': 'Via Napoli', 'amenity': 'pharmacy', 'name': 'Farmacia Manna'}}"
"{'type': 'node', 'id': 2962300729, 'lat': 40.7440073, 'lon': 14.6363038, 'tags': {'addr:housenumber': '32', 'addr:street': 'Via Giovanni Nicotera', 'amenity': 'pharmacy', 'dispensing': 'yes', 'name': 'Farmacia Palescandolo'}}"
"{'type': 'node', 'id': 2962300731, 'lat': 40.7458934, 'lon': 14.6410655, 'tags': {'addr:housenumber': '64', 'addr:street': 'Via Francesco Solimena', 'amenity': 'pharmacy', 'dispensing': 'yes', 'healthcare': 'pharmacy', 'name': 'Farmacia Mirra'}}"
"{'type': 'node', 'id': 2962300732, 'lat': 40.7437125, 'lon': 14.6422703, 'tags': {'addr:housenumber': '54', 'addr:postcode': '84014', 'addr:street': 'Via Giacomo Canale', 'amenity': 'pharmacy', 'dispensing': 'yes', 'name': 'Farmacia San Rocco'}}"
"{'type': 'node', 'id': 2962320080, 'lat': 40.7489093, 'lon': 14.6489296, 'tags': {'addr:housenumber': '6', 'addr:street': ""Via Giacomo Piccolomini d'Aragona"", 'amenity': 'pharmacy', 'dispensing': 'yes', 'drive_through': 'no', 'healthcare': 'pharmacy', 'name': 'Farmacia Cozzitorto'}}"
"{'type': 'node', 'id': 2980849621, 'lat': 40.721854, 'lon': 14.5438937, 'tags': {'amenity': 'pharmacy', 'name': 'Farmacia del Leone'}}"
"{'type': 'node', 'id': 2985999241, 'lat': 40.7399449, 'lon': 13.9476877, 'tags': {'addr:city': 'Ischia', 'addr:housenumber': '19', 'addr:postcode': '80077', 'addr:street': 'Traversa V. Marone', 'government': 'healthcare', 'healthcare': 'yes', 'name': 'Istituto di Igiene mentale Buzziconia', 'office': 'government', 'wheelchair': 'no'}}"
"{'type': 'node', 'id': 3058728305, 'lat': 40.8139872, 'lon': 14.1663583, 'tags': {'amenity': 'pharmacy'}}"
"{'type': 'node', 'id': 3062007807, 'lat': 40.8516787, 'lon': 14.2704305, 'tags': {'amenity': 'pharmacy'}}"
"{'type': 'node', 'id': 3062790554, 'lat': 41.4841014, 'lon': 14.8356763, 'tags': {'amenity': 'pharmacy', 'name': ""D'Angelo""}}"
"{'type': 'node', 'id': 3062790556, 'lat': 41.4858928, 'lon': 14.8362413, 'tags': {'amenity': 'pharmacy', 'dispensing': 'no', 'name': 'Pettarelli'}}"
"{'type': 'node', 'id': 3076957466, 'lat': 40.7359663, 'lon': 13.8645778, 'tags': {'amenity': 'pharmacy'}}"
"{'type': 'node', 'id': 3077486458, 'lat': 40.7199026, 'lon': 13.8653597, 'tags': {'amenity': 'pharmacy', 'healthcare': 'pharmacy', 'name': 'Parafarmacia'}}"
"{'type': 'node', 'id': 3077504638, 'lat': 40.7429904, 'lon': 13.9443346, 'tags': {'addr:city': 'Ischia', 'addr:postcode': '80077', 'amenity': 'pharmacy', 'dispensing': 'yes', 'healthcare': 'pharmacy', 'name': 'Farmasanitaria Ischia Cosmetici Naturali'}}"
"{'type': 'node', 'id': 3082368097, 'lat': 40.7447826, 'lon': 14.6160688, 'tags': {'addr:city': 'Pagani', 'addr:street': ""Piazza Martiri d'Ungheria"", 'amenity': 'pharmacy', 'dispensing': 'yes', 'name': 'Farmacia Dott. Contaldi'}}"
"{'type': 'node', 'id': 3114648799, 'lat': 41.3561729, 'lon': 14.3704704, 'tags': {'amenity': 'pharmacy', 'name': 'Farmacia Pacella'}}"
"{'type': 'node', 'id': 3114800601, 'lat': 41.355392, 'lon': 14.3721986, 'tags': {'amenity': 'pharmacy', 'name': 'Farmacia del Sannio'}}"
"{'type': 'node', 'id': 3134152384, 'lat': 40.7008837, 'lon': 14.7075068, 'tags': {'amenity': 'pharmacy', 'healthcare': 'pharmacy'}}"
"{'type': 'node', 'id': 3134763503, 'lat': 40.7016579, 'lon': 14.7030879, 'tags': {'amenity': 'pharmacy', 'healthcare': 'pharmacy'}}"
"{'type': 'node', 'id': 3174824010, 'lat': 41.2136475, 'lon': 14.6922056, 'tags': {'amenity': 'dentist', 'healthcare': 'dentist', 'name': 'Centro Odontoiatrico Iannella'}}"
"{'type': 'node', 'id': 3174824019, 'lat': 41.2144277, 'lon': 14.6989857, 'tags': {'addr:housenumber': '49', 'addr:street': 'Via Giuseppe Ocone', 'amenity': 'pharmacy', 'contact:phone': '+39 0824 875756', 'dispensing': 'yes', 'name': 'Farmacia Salerno dr. Adorino'}}"
"{'type': 'node', 'id': 3184654625, 'lat': 41.5160778, 'lon': 14.6742636, 'tags': {'amenity': 'pharmacy', 'dispensing': 'no', 'name': 'Gravili'}}"
"{'type': 'node', 'id': 3371551315, 'lat': 40.7420777, 'lon': 14.6042993, 'tags': {'amenity': 'pharmacy'}}"
"{'type': 'node', 'id': 3371621923, 'lat': 40.7397476, 'lon': 14.5961562, 'tags': {'addr:city': ""Sant'Egidio del Monte Albino"", 'addr:street': 'Via Aniello Califano', 'amenity': 'pharmacy', 'name': 'Giulia Nappi'}}"
"{'type': 'node', 'id': 3389764338, 'lat': 41.4839499, 'lon': 14.4723562, 'tags': {'addr:city': 'Bojano', 'addr:postcode': '86021', 'addr:street': 'Via Barcellona', 'amenity': 'pharmacy', 'source': 'Bing, Local knowledge'}}"
"{'type': 'node', 'id': 3481512768, 'lat': 40.857326, 'lon': 14.3303859, 'tags': {'addr:housenumber': '3', 'addr:street': 'Via Immacolata Concezione', 'amenity': 'pharmacy'}}"
"{'type': 'node', 'id': 3520613783, 'lat': 40.6329099, 'lon': 14.4126107, 'tags': {'addr:city': 'Piano di Sorrento', 'addr:country': 'IT', 'addr:housenumber': '259-261', 'addr:postcode': '80063', 'addr:street': 'Corso Italia', 'amenity': 'pharmacy', 'dispensing': 'yes', 'healthcare': 'pharmacy', 'name': 'Farmacia Internazionale', 'ref:msal': '12182'}}"
"{'type': 'node', 'id': 3578731391, 'lat': 41.0787378, 'lon': 14.5436608, 'tags': {'addr:city': 'Moiano', 'addr:postcode': '82030', 'addr:street': 'Strada Provinciale 16 Via Roma', 'amenity': 'pharmacy', 'healthcare': 'pharmacy', 'name': 'Farmacia Mauro'}}"
"{'type': 'node', 'id': 3632947969, 'lat': 41.4927862, 'lon': 14.349305, 'tags': {'addr:city': 'Roccamandolfi', 'amenity': 'pharmacy', 'fixme': 'sarebbe opportuno recuperare telefono e orario.', 'healthcare': 'pharmacy', 'name': 'Farmacia Comunale', 'source': 'https://www.molisenews24.it/a-roccamandolfi-riapre-la-farmacia-comunale-con-la-nuova-gestione-52225.html'}}"
"{'type': 'node', 'id': 3664327691, 'lat': 40.8573183, 'lon': 14.0825965, 'tags': {'addr:city': 'Pozzuoli', 'addr:housenumber': '65', 'addr:postcode': '80078', 'addr:street': 'Via Monteruscello', 'amenity': 'pharmacy', 'contact:email': 'info@farmaciamonteruscello.it', 'contact:facebook': 'FarmaciaMonteruscelloNotturna', 'healthcare': 'pharmacy', 'name': 'Farmacia Monteruscello', 'opening_hours': 'Mo-Sa 00:00-24:00; Su 00:00-14:00,17:00-24:00', 'phone': '+390815246070', 'ref:vatin': 'IT08887611211', 'website': 'https://www.farmaciamonteruscello.it/'}}"
"{'type': 'node', 'id': 3664333045, 'lat': 40.8631901, 'lon': 14.0820345, 'tags': {'amenity': 'pharmacy', 'name': ""Farmacia Sant'Anna""}}"
"{'type': 'node', 'id': 3675003374, 'lat': 41.0945553, 'lon': 14.3341305, 'tags': {'amenity': 'pharmacy', 'healthcare': 'pharmacy', 'name': 'Farmacia Barca'}}"
"{'type': 'node', 'id': 3724227925, 'lat': 40.9064921, 'lon': 14.7599167, 'tags': {'addr:city': 'Mercogliano', 'addr:housename': 'Villa dei Platani', 'amenity': 'clinic', 'fax': '+39-0825-686700', 'name': 'Diagnostica Medica', 'note': 'Clinica privata specializzata in diagnostica avanzata, convenzionata ASL', 'operator': 'Gruppo Malzoni SpA', 'phone': '+39-0825-686686'}}"
"{'type': 'node', 'id': 3762483426, 'lat': 41.1923528, 'lon': 14.5483632, 'tags': {'amenity': 'hospital', 'healthcare': 'hospital', 'name': 'Covermark Point camouflage'}}"
"{'type': 'node', 'id': 3766047157, 'lat': 41.1946705, 'lon': 14.5507274, 'tags': {'amenity': 'hospital', 'healthcare': 'hospital', 'name': 'Guardia Medica'}}"
"{'type': 'node', 'id': 3766057678, 'lat': 41.1940692, 'lon': 14.5540455, 'tags': {'amenity': 'dentist', 'healthcare': 'dentist', 'name': 'Dentista dr. Mauro Matera'}}"
"{'type': 'node', 'id': 3766063637, 'lat': 41.1957727, 'lon': 14.5576247, 'tags': {'amenity': 'dentist', 'healthcare': 'dentist', 'name': 'Dentista dr. Salvatore Raeta'}}"
"{'type': 'node', 'id': 3766087297, 'lat': 41.1923435, 'lon': 14.5483262, 'tags': {'amenity': 'doctors', 'healthcare': 'doctor', 'name': 'Studio Medico Dr. Perna'}}"
"{'type': 'node', 'id': 3785527934, 'lat': 40.7748346, 'lon': 14.8262089, 'tags': {'addr:city': 'Calvanico', 'addr:housenumber': '3', 'addr:postcode': '84080', 'addr:street': ""Via Vito Antonio D'Orsi"", 'amenity': 'pharmacy', 'healthcare': 'pharmacy', 'name': 'Farmacia Laudati'}}"
"{'type': 'node', 'id': 3793141326, 'lat': 41.5137212, 'lon': 14.0593538, 'tags': {'amenity': 'pharmacy', 'healthcare': 'pharmacy', 'name': ""Farmacia Sant' Anna""}}"
"{'type': 'node', 'id': 3807621908, 'lat': 40.8470762, 'lon': 14.3725862, 'tags': {'amenity': 'clinic', 'healthcare': 'clinic', 'name': 'Casa di Cura ""Nostra Signora di Lourdes""'}}"
"{'type': 'node', 'id': 3832776058, 'lat': 40.5557326, 'lon': 14.2395151, 'tags': {'amenity': 'pharmacy'}}"
"{'type': 'node', 'id': 3832854896, 'lat': 40.8401978, 'lon': 14.2524791, 'tags': {'addr:city': 'Napoli', 'addr:housenumber': '54;55', 'addr:postcode': '80133', 'addr:street': 'Piazza Municipio', 'amenity': 'pharmacy', 'name': 'Farmacia Londra', 'opening_hours': '24/7', 'phone': '+39 081 5523505'}}"
"{'type': 'node', 'id': 3832856061, 'lat': 40.8429444, 'lon': 14.2553968, 'tags': {'amenity': 'pharmacy', 'check_date': '2024-05-20', 'name': 'Farmacia del Centro'}}"
"{'type': 'node', 'id': 3854905269, 'lat': 41.5097024, 'lon': 14.9136291, 'tags': {'amenity': 'pharmacy', 'name': 'Abiuso', 'phone': '+39 0874 713303'}}"
"{'type': 'node', 'id': 3923389672, 'lat': 41.1654119, 'lon': 14.6668901, 'tags': {'addr:city': 'Foglianise', 'addr:housenumber': '83', 'addr:postcode': '82030', 'addr:street': 'Via Silvio Pedicini', 'amenity': 'pharmacy', 'dispensing': 'yes', 'drive_through': 'no', 'healthcare': 'pharmacy', 'name': 'Farmacia Pedicini', 'operator': 'Dottor Tommaselli Lorenzo', 'phone': '+39 0824 878071', 'ref:msal': '11285', 'ref:vatin': 'IT00891210627'}}"
"{'type': 'node', 'id': 3934324084, 'lat': 41.2461426, 'lon': 14.760647, 'tags': {'amenity': 'pharmacy', 'healthcare': 'pharmacy'}}"
"{'type': 'node', 'id': 3937896882, 'lat': 41.3873565, 'lon': 14.7319398, 'tags': {'addr:city': 'Santa Croce del Sannio', 'addr:housenumber': '12', 'addr:postcode': '82020', 'addr:street': 'Piazza Municipio', 'amenity': 'pharmacy', 'dispensing': 'no', 'healthcare': 'pharmacy', 'name': 'Farmacia Santa Croce', 'phone': '+39 0824 950145'}}"
"{'type': 'node', 'id': 3962414432, 'lat': 41.1359267, 'lon': 14.4038171, 'tags': {'amenity': 'pharmacy', 'dispensing': 'yes', 'healthcare': 'pharmacy', 'name': 'Farmacia Mele'}}"
"{'type': 'node', 'id': 3992655071, 'lat': 40.7538931, 'lon': 14.4529405, 'tags': {'addr:city': 'Torre Annunziata', 'addr:housenumber': '134', 'addr:postcode': '80058', 'addr:street': 'Corso Vittorio Emanuele III', 'amenity': 'pharmacy', 'name': 'Farmacia di Turno', 'source': 'survey', 'survey:date': '2016-05-17'}}"
"{'type': 'node', 'id': 3992655084, 'lat': 40.7540018, 'lon': 14.4522256, 'tags': {'addr:city': 'Torre Annunziata', 'addr:housenumber': '160', 'addr:postcode': '80058', 'addr:street': 'Corso Vittorio Emanuele III', 'amenity': 'pharmacy', 'name': 'Farmacia Talamo', 'source': 'survey', 'survey:date': '2016-05-17'}}"
"{'type': 'node', 'id': 4001554315, 'lat': 40.7573128, 'lon': 14.4593135, 'tags': {'addr:city': 'Torre Annunziata', 'addr:housenumber': '218', 'addr:postcode': '80058', 'addr:street': 'Via Vittorio Veneto', 'amenity': 'pharmacy', 'name': 'Farmacia Torre Sud', 'note': 'Nuova Gestione: N° 238', 'source': 'survey', 'survey:date': '2016-05-17'}}"
"{'type': 'node', 'id': 4001554348, 'lat': 40.7581211, 'lon': 14.4570967, 'tags': {'addr:city': 'Torre Annunziata', 'addr:housenumber': '238', 'addr:postcode': '80058', 'addr:street': 'Via Vittorio Veneto', 'amenity': 'pharmacy', 'name': 'Farmacia Torre Sud', 'note': 'Under construction ehile I was there', 'source': 'survey', 'survey:date': '2016-05-17'}}"
"{'type': 'node', 'id': 4007730323, 'lat': 40.7544455, 'lon': 14.4610337, 'tags': {'addr:city': 'Torre Annunziata', 'addr:housenumber': '101', 'addr:postcode': '80058', 'addr:street': 'Via Vittorio Veneto', 'amenity': 'pharmacy', 'name': 'Farmacia Vittorio Veneto', 'operator': 'Farmacie Matachione'}}"
"{'type': 'node', 'id': 4014389082, 'lat': 40.7490131, 'lon': 14.4643786, 'tags': {'addr:city': 'Torre Annunziata', 'addr:housenumber': '26', 'addr:postcode': '80058', 'addr:street': 'Piazza Matteo Roberto Imbriani', 'amenity': 'pharmacy', 'healthcare': 'pharmacy', 'name': 'Farmacia Centrale Palomba', 'phone': '+39 081 862 8425', 'website': 'http://www.farmaciacentralepalomba.it/'}}"
"{'type': 'node', 'id': 4017753774, 'lat': 40.7794186, 'lon': 14.5028839, 'tags': {'addr:city': 'Boscoreale', 'addr:housenumber': '102', 'addr:street': 'Via Passanti Flocco', 'amenity': 'pharmacy', 'name': 'Farmacia dei Passanti'}}"
"{'type': 'node', 'id': 4017875292, 'lat': 40.7742882, 'lon': 14.5420312, 'tags': {'amenity': 'pharmacy', 'healthcare': 'pharmacy', 'name': 'Farmacia Comunale'}}"
"{'type': 'node', 'id': 4042697620, 'lat': 40.7409267, 'lon': 14.501292, 'tags': {'addr:city': 'Pompei', 'addr:housenumber': '22', 'addr:postcode': '80045', 'addr:street': 'Via Macello', 'amenity': 'pharmacy', 'dispensing': 'no', 'healthcare': 'pharmacy', 'name': 'Parafarmacia Conad', 'operator': 'Conad'}}"
"{'type': 'node', 'id': 4057967398, 'lat': 40.7534601, 'lon': 14.4513427, 'tags': {'addr:city': 'Torre Annunziata', 'addr:housenumber': '24', 'addr:postcode': '80058', 'addr:street': 'Via Alfonso de Simone', 'amenity': 'pharmacy', 'source': 'survey', 'survey:date': '2016-05-17'}}"
"{'type': 'node', 'id': 4058146696, 'lat': 40.7544461, 'lon': 14.4498158, 'tags': {'addr:city': 'Torre Annunziata', 'addr:housenumber': '249', 'addr:postcode': '80058', 'addr:street': 'Corso Vittorio Emanuele III', 'amenity': 'pharmacy', 'name': 'Farmacia del Leone', 'phone': '+39 081 861 1302', 'source': 'survey', 'survey:date': '2016-05-17', 'website': 'http://www.farmaciadelleonetorreannunziata.it'}}"
"{'type': 'node', 'id': 4069678405, 'lat': 40.7557297, 'lon': 14.4457524, 'tags': {'addr:city': 'Torre Annunziata', 'addr:housenumber': '421, 423', 'addr:postcode': '80058', 'addr:street': 'Corso Vittorio Emanuele III', 'amenity': 'pharmacy', 'name': 'Farmacia Dott. Giuseppe Iovino', 'source': 'survey', 'survey:date': '2016-05-17'}}"
"{'type': 'node', 'id': 4073406872, 'lat': 40.7565402, 'lon': 14.4454013, 'tags': {'addr:city': 'Torre Annunziata', 'addr:housenumber': '59', 'addr:postcode': '80058', 'addr:street': 'Piazza Ernesto Cesaro', 'amenity': 'pharmacy', 'name': 'Farmacia S. Teresa del Dott. Giovanni Contald', 'phone': '+39 081 861 1766', 'source': 'survey', 'survey:date': '2016-05-17'}}"
"{'type': 'node', 'id': 4076880308, 'lat': 40.700456, 'lon': 14.4831011, 'tags': {'addr:city': 'Castellammare di Stabia', 'addr:postcode': '80053', 'addr:street': 'Corso Vittorio Emanuele', 'amenity': 'pharmacy', 'healthcare': 'pharmacy', 'name': 'Farmacia Cosentini'}}"
"{'type': 'node', 'id': 4088591115, 'lat': 40.7595768, 'lon': 14.4465659, 'tags': {'addr:city': 'Torre Annunziata', 'addr:housenumber': '418', 'addr:postcode': '80058', 'addr:street': 'Via Vittorio Veneto', 'amenity': 'pharmacy', 'name': 'Farmacia Dott. Flavio Mosca', 'source': 'survey', 'survey:date': '2016-05-17'}}"
"{'type': 'node', 'id': 4095883958, 'lat': 40.7568634, 'lon': 14.4429539, 'tags': {'addr:city': 'Torre Annunziata', 'addr:housenumber': '46, 50, 52', 'addr:postcode': '80058', 'addr:street': 'Corso Umberto I', 'amenity': 'pharmacy', 'name': 'Farmacia del Corso', 'opening_hours': 'Mo-Sa 08:30-13:00, 16:00-20:30', 'operator': 'Farmacie Matachione', 'phone': '+39 081 5364090', 'source': 'survey', 'survey:date': '2016-05-17'}}"
"{'type': 'node', 'id': 4121229613, 'lat': 40.8431387, 'lon': 14.2259332, 'tags': {'amenity': 'pharmacy', 'name': 'Farmacia Di Iorio'}}"
"{'type': 'node', 'id': 4122842428, 'lat': 40.8514119, 'lon': 14.2212596, 'tags': {'amenity': 'pharmacy', 'name': 'Farmacia Russo'}}"
"{'type': 'node', 'id': 4123727309, 'lat': 40.7584234, 'lon': 14.4372773, 'tags': {'addr:city': 'Torre Annunziata', 'addr:housenumber': '221d', 'addr:postcode': '80058', 'addr:street': 'Corso Umberto I', 'amenity': 'pharmacy', 'name': 'Farmacia F&G Lavarone', 'operator': 'Farmacie Matachione', 'phone': '+39 081 8613987', 'source': 'survey', 'survey:date': '2016-05-17', 'website': 'http://www.farmaciamatachione.it/farmacie.asp?id_farmacia=13'}}"
"{'type': 'node', 'id': 4123727310, 'lat': 40.7584958, 'lon': 14.4370401, 'tags': {'addr:city': 'Torre Annunziata', 'addr:housenumber': '221', 'addr:postcode': '80058', 'addr:street': 'Corso Umberto I', 'amenity': 'clinic', 'name': 'C.M.O. Centro Polispecialistico - Laboratore di Analisi Biomedico', 'source': 'survey', 'survey:date': '2016-05-17', 'website': 'http://www.cmocentropolispecialistico.it'}}"
"{'type': 'node', 'id': 4124466497, 'lat': 40.8412192, 'lon': 14.2196783, 'tags': {'amenity': 'pharmacy', 'contact:housenumber': '226', 'contact:instagram': 'farmaciasegreto', 'contact:street': 'Via Belvedere', 'contact:whatsapp': '+39 375 673 6058', 'description': 'Assorbenti senza IVA: https://www.fanpage.it/napoli/farmacia-napoli-assorbenti-iva/ Consegna a domicilio gratuita. Covid center. Prenotazioni CUP.', 'email': 'farmaciasegreto@virgilio.it;info@farmaciasegreto.com', 'facebook': 'https://www.facebook.com/FarmaciaSegreto', 'healthcare': 'pharmacy', 'name': 'Farmacia Segreto', 'opening_hours': 'Mo-Sa 8:30-20:30; Su 8:30-13:30', 'operator': 'Farmacia Segreto SAS', 'payment:cash': 'yes', 'payment:mastercard': 'yes', 'payment:visa': 'yes', 'phone': '+39 081 714 6171;+39 375 673 6058', 'website': 'https://www.farmaciasegreto.com/'}}"
"{'type': 'node', 'id': 4124466533, 'lat': 40.8578297, 'lon': 14.2302949, 'tags': {'amenity': 'pharmacy', 'name': 'Farmacia Orlandi'}}"
"{'type': 'node', 'id': 4125803150, 'lat': 40.7556585, 'lon': 14.4325594, 'tags': {'addr:city': 'Torre Annunziata', 'addr:housenumber': '27', 'addr:postcode': '80058', 'addr:street': 'Via Michele Caravelli', 'amenity': 'pharmacy', 'name': 'Farmacia Caravelli Dott. Magliulo Antonella', 'source': 'survey', 'survey:date': '2014-06'}}"
"{'type': 'node', 'id': 4125987201, 'lat': 40.8406177, 'lon': 14.2154605, 'tags': {'amenity': 'clinic', 'name': 'Clinica Sanatrix'}}"
"{'type': 'node', 'id': 4125987214, 'lat': 40.8430492, 'lon': 14.2207229, 'tags': {'amenity': 'pharmacy', 'check_date': '2024-09-21', 'name': 'Farmacia Alfani'}}"
"{'type': 'node', 'id': 4128560745, 'lat': 40.8555351, 'lon': 14.2285263, 'tags': {'amenity': 'pharmacy', 'name': 'Municinò'}}"
"{'type': 'node', 'id': 4140239091, 'lat': 40.7606969, 'lon': 14.4335785, 'tags': {'addr:city': 'Torre Annunziata', 'addr:housenumber': '2d', 'addr:postcode': '80058', 'addr:street': 'Via Giuseppe Tagliamonte', 'amenity': 'pharmacy', 'name': 'Farmacia Esposito', 'phone': '+39 081 861 1053', 'source': 'survey', 'survey:date': '2016-05-17'}}"
"{'type': 'node', 'id': 4141046281, 'lat': 40.8458632, 'lon': 14.2203507, 'tags': {'amenity': 'pharmacy', 'name': 'Farmacia Carella'}}"
"{'type': 'node', 'id': 4141046283, 'lat': 40.8436235, 'lon': 14.2232493, 'tags': {'amenity': 'pharmacy', 'dispensing': 'no', 'name': 'Parafarmacia Biondi'}}"
"{'type': 'node', 'id': 4145043588, 'lat': 40.8536565, 'lon': 14.2300154, 'tags': {'amenity': 'pharmacy', 'name': 'Farmacia De Tommasis'}}"
"{'type': 'node', 'id': 4146652067, 'lat': 40.830035, 'lon': 14.1962537, 'tags': {'addr:housenumber': '142', 'addr:street': 'Via Giacomo Leopardi', 'amenity': 'pharmacy', 'name': 'Farmacia San Paolo'}}"
"{'type': 'node', 'id': 4149557911, 'lat': 40.8314879, 'lon': 14.1555765, 'tags': {'addr:city': 'Pozzuoli', 'addr:housenumber': '45, 47', 'addr:postcode': '80078', 'addr:street': 'Via Pisciarelli', 'amenity': 'pharmacy', 'name': 'Farmacia Cantone'}}"
"{'type': 'node', 'id': 4157604999, 'lat': 40.8591879, 'lon': 14.2613993, 'tags': {'addr:city': 'Napoli', 'addr:housenumber': '201', 'addr:postcode': '80137', 'addr:street': 'Via Foria', 'amenity': 'pharmacy', 'healthcare': 'pharmacy', 'name': 'Farmacia Dottori di Maggio', 'opening_hours': 'Mo-Fr 08:30-13:30,16:00-20:00; Sa 09:00-13:00,16:00-20:00'}}"
"{'type': 'node', 'id': 4157990372, 'lat': 40.8686941, 'lon': 14.2231939, 'tags': {'amenity': 'pharmacy', 'name': 'Farmacia al Policlinico'}}"
"{'type': 'node', 'id': 4157990504, 'lat': 40.868293, 'lon': 14.1929758, 'tags': {'amenity': 'pharmacy', 'healthcare': 'pharmacy', 'name': 'Farmacia Camaldoli'}}"
"{'type': 'node', 'id': 4165875297, 'lat': 41.3001821, 'lon': 13.8140862, 'tags': {'addr:city': 'Santi Cosma e Damiano', 'addr:housenumber': '7', 'addr:postcode': '04020', 'addr:street': 'Via Vittorio Veneto', 'amenity': 'pharmacy', 'name': 'Farmacia', 'phone': '+39 0771 608831'}}"
"{'type': 'node', 'id': 4174698337, 'lat': 40.8688625, 'lon': 14.2462918, 'tags': {'amenity': 'hospital', 'name': 'Centro Traumatologico Ortopedico'}}"
"{'type': 'node', 'id': 4177163443, 'lat': 40.8489388, 'lon': 14.2316169, 'tags': {'amenity': 'hospital', 'name': 'Ospedale Pediatrico Santobono-Pausillipon'}}"
"{'type': 'node', 'id': 4177254562, 'lat': 40.861475, 'lon': 14.2279373, 'tags': {'amenity': 'clinic', 'name': 'Clinica Villa Bianca'}}"
"{'type': 'node', 'id': 4177279426, 'lat': 40.8370593, 'lon': 14.2194481, 'tags': {'amenity': 'clinic', 'name': 'Clinica Ruesch'}}"
"{'type': 'node', 'id': 4177279437, 'lat': 40.8352697, 'lon': 14.2133107, 'tags': {'amenity': 'clinic', 'name': 'Clinica Villa del Sole'}}"
"{'type': 'node', 'id': 4212060591, 'lat': 40.5558197, 'lon': 14.239591, 'tags': {'amenity': 'pharmacy'}}"
"{'type': 'node', 'id': 4225187393, 'lat': 41.3591335, 'lon': 13.7499915, 'tags': {'addr:street': 'Via Marri', 'amenity': 'pharmacy', 'name': 'Farmacia', 'operator': 'dott. Messore'}}"
"{'type': 'node', 'id': 4245925415, 'lat': 40.8430345, 'lon': 14.2292558, 'tags': {'amenity': 'pharmacy', 'name': 'Farmacia Mascia'}}"
"{'type': 'node', 'id': 4255948243, 'lat': 40.8445649, 'lon': 14.2278808, 'tags': {'amenity': 'pharmacy', 'name': 'Farmacia Ramasco'}}"
"{'type': 'node', 'id': 4261100799, 'lat': 40.8588638, 'lon': 14.217648, 'tags': {'amenity': 'pharmacy', 'name': 'Farmacia Garrone'}}"
"{'type': 'node', 'id': 4265820606, 'lat': 40.6688784, 'lon': 14.7231143, 'tags': {'amenity': 'pharmacy'}}"
"{'type': 'node', 'id': 4265862567, 'lat': 40.6724544, 'lon': 14.7283571, 'tags': {'amenity': 'pharmacy'}}"
"{'type': 'node', 'id': 4269529407, 'lat': 40.6720323, 'lon': 14.7284957, 'tags': {'amenity': 'pharmacy', 'name': 'Dott. Trotta'}}"
"{'type': 'node', 'id': 4329879255, 'lat': 40.8217755, 'lon': 14.124865, 'tags': {'addr:city': 'Pozzuoli', 'addr:housenumber': '3', 'addr:postcode': '80078', 'addr:street': 'Via Angelo Compagnone', 'amenity': 'pharmacy', 'name': 'Farmacia Dr.ssa Rossella Petruzzelli', 'opening_hours': 'Mo-Fr 09:30-13:00, 16:00-20:00; Sa 09:30-13:00', 'phone': '+39 081 526 2362'}}"
"{'type': 'node', 'id': 4384340923, 'lat': 41.2153592, 'lon': 14.6911768, 'tags': {'amenity': 'doctors', 'healthcare': 'doctor', 'name': 'Guardia Medica'}}"
"{'type': 'node', 'id': 4392685541, 'lat': 40.9733505, 'lon': 14.2076141, 'tags': {'amenity': 'pharmacy', 'healthcare': 'pharmacy'}}"
"{'type': 'node', 'id': 4425303836, 'lat': 40.7647679, 'lon': 14.4181494, 'tags': {'addr:city': 'Torre del Greco', 'addr:housenumber': '835', 'addr:postcode': '80059', 'addr:street': 'Via Nazionale', 'amenity': 'pharmacy', 'name': 'Farmacia Leopardi'}}"
"{'type': 'node', 'id': 4426438492, 'lat': 40.7613782, 'lon': 14.428769, 'tags': {'addr:city': 'Torre del Greco', 'addr:housenumber': '1006', 'addr:postcode': '80059', 'addr:street': 'Via Nazionale', 'amenity': 'pharmacy', 'name': 'Farmacia delle Erbe'}}"
"{'type': 'node', 'id': 4435046620, 'lat': 40.7669138, 'lon': 14.4124937, 'tags': {'addr:city': 'Torre del Greco', 'addr:housenumber': '717', 'addr:postcode': '80059', 'addr:street': 'Via Nazionale', 'amenity': 'doctors', 'email': 'pc.artemisia@gmail.com', 'healthcare': 'doctor', 'name': 'Analisi Cliniche Artemisia', 'phone': '+39 081 883 56 74'}}"
"{'type': 'node', 'id': 4450387445, 'lat': 40.7673681, 'lon': 14.4114979, 'tags': {'addr:city': 'Torre del Greco', 'addr:housenumber': '701', 'addr:postcode': '80059', 'addr:street': 'Via Nazionale', 'amenity': 'doctors', 'healthcare': 'doctor', 'healthcare:speciality': 'endocrinology', 'name': 'Dott. Anna Nasti Specialista Endocrinologia'}}"
"{'type': 'node', 'id': 4450387889, 'lat': 40.7678691, 'lon': 14.4102998, 'tags': {'addr:city': 'Torre del Greco', 'addr:housenumber': '673', 'addr:postcode': '80059', 'addr:street': 'Via Nazionale', 'amenity': 'pharmacy', 'name': 'Farmacia del Panda', 'opening_hours': 'Mo-Fr 16:30-20:00', 'phone': '+39 081 883 1891'}}"
"{'type': 'node', 'id': 4450749235, 'lat': 41.0578739, 'lon': 14.3037251, 'tags': {'addr:city': 'Recale', 'addr:postcode': '81020', 'addr:street': 'Viale Europa', 'amenity': 'pharmacy', 'dispensing': 'yes', 'healthcare': 'pharmacy', 'name': 'Farmacia Gadola Ovidio'}}"
"{'type': 'node', 'id': 4512561618, 'lat': 40.662812, 'lon': 14.4271199, 'tags': {'amenity': 'pharmacy'}}"
"{'type': 'node', 'id': 4539565594, 'lat': 40.9364685, 'lon': 14.2783923, 'tags': {'addr:housenumber': '140', 'addr:postcode': '80027', 'addr:street': 'Via Padre Mario Vergara', 'amenity': 'clinic', 'email': 'info@clinicamanzo.it', 'internet_access': 'wlan', 'name': 'Manzo Clinica Odontoiatrica', 'name:en': 'Manzo Clinica Odontoiatrica', 'name:it': 'Manzo Clinica Odontoiatrica', 'name:ru': 'Стоматологическая клиника Манзо', 'opening_hours': 'Mo-Fr 09:00-22:00; Sa 09:00-14:00', 'operator': 'Paolo Manzo', 'phone': '+39 081 834 8282', 'website': 'https://www.clinicamanzo.it/'}}"
"{'type': 'node', 'id': 4582937970, 'lat': 41.4660025, 'lon': 13.8837057, 'tags': {'amenity': 'pharmacy', 'healthcare': 'pharmacy', 'level': '0', 'name': 'Farmacia Comunale'}}"
"{'type': 'node', 'id': 4599874802, 'lat': 40.9121721, 'lon': 14.3439282, 'tags': {'addr:city': 'Casalnuovo di Napoli', 'addr:housenumber': '195', 'addr:postcode': '80013', 'addr:street': 'Corso Umberto I', 'amenity': 'pharmacy', 'name': 'Farmacia Dr. Vincenzo Cicchelli', 'phone': '+39 081 8423601'}}"
"{'type': 'node', 'id': 4599874803, 'lat': 40.9077984, 'lon': 14.337684, 'tags': {'addr:city': 'Casalnuovo di Napoli', 'addr:housenumber': '70', 'addr:postcode': '80013', 'addr:street': 'Via Napoli', 'amenity': 'pharmacy', 'name': 'Farmacia Dr. Vespasiano Villano', 'phone': '+39 0815210106'}}"
"{'type': 'node', 'id': 4599874804, 'lat': 40.9012881, 'lon': 14.3466462, 'tags': {'addr:city': 'Casalnuovo di Napoli', 'addr:housenumber': '26', 'addr:postcode': '80013', 'addr:street': 'Via Nazionale delle Puglie', 'amenity': 'pharmacy', 'name': 'Farmacia Dr. Pasquale Brunini', 'phone': '+39 0818423188'}}"
"{'type': 'node', 'id': 4599874805, 'lat': 40.8893156, 'lon': 14.3578371, 'tags': {'addr:city': 'Casalnuovo di Napoli', 'addr:housenumber': '6', 'addr:postcode': '80013', 'addr:street': 'Via Cesare Battisti', 'amenity': 'pharmacy', 'name': 'Farmacia Dr. Elettra Grisi'}}"
"{'type': 'node', 'id': 4599874806, 'lat': 40.9135794, 'lon': 14.3470023, 'tags': {'addr:city': 'Casalnuovo di Napoli', 'addr:housenumber': '399', 'addr:postcode': '80013', 'addr:street': 'Corso Umberto I', 'amenity': 'pharmacy', 'name': 'Farmacia Dr. Ciro Leone', 'phone': '+39 0818423692'}}"
"{'type': 'node', 'id': 4599874807, 'lat': 40.9020715, 'lon': 14.3524824, 'tags': {'addr:city': 'Casalnuovo di Napoli', 'addr:housenumber': '167', 'addr:postcode': '80013', 'addr:street': 'Via Nazionale delle Puglie', 'amenity': 'pharmacy', 'healthcare': 'pharmacy', 'name': 'Farmacia Dr. Carmine Russo', 'phone': '+39 081 8421243'}}"
"{'type': 'node', 'id': 4599874808, 'lat': 40.9064503, 'lon': 14.3451546, 'tags': {'addr:city': 'Casalnuovo di Napoli', 'addr:housenumber': '297', 'addr:postcode': '80013', 'addr:street': 'Via Arcora', 'amenity': 'pharmacy', 'healthcare': 'pharmacy', 'name': 'Farmacia Dr. Anna Terracciano', 'phone': '+39 0815222591'}}"
"{'type': 'node', 'id': 4599874809, 'lat': 40.9155195, 'lon': 14.3546777, 'tags': {'addr:city': 'Casalnuovo di Napoli', 'addr:housenumber': '66', 'addr:postcode': '80013', 'addr:street': 'Via Vittorio Emanuele III', 'amenity': 'pharmacy', 'healthcare': 'pharmacy', 'name': 'Farmacia Dr. Angelo Peluso', 'phone': '+39 081 5223311'}}"
"{'type': 'node', 'id': 4686919566, 'lat': 40.9858039, 'lon': 14.9915574, 'tags': {'addr:city': 'Luogosano', 'addr:postcode': '83040', 'addr:street': 'Via Dante - SP100', 'amenity': 'pharmacy', 'name': 'Farmacia Carbone Maria Laura'}}"
"{'type': 'node', 'id': 4693990915, 'lat': 40.9725016, 'lon': 14.2018719, 'tags': {'amenity': 'pharmacy', 'healthcare': 'pharmacy', 'name': 'La Tassa'}}"
"{'type': 'node', 'id': 4722045382, 'lat': 41.2538333, 'lon': 13.7188409, 'tags': {'amenity': 'pharmacy', 'name': 'Dott.ssa M. Conte Farmaci Da Banco'}}"
"{'type': 'node', 'id': 4726506267, 'lat': 40.7199876, 'lon': 14.9030922, 'tags': {'amenity': 'pharmacy'}}"
"{'type': 'node', 'id': 4793478851, 'lat': 41.1201374, 'lon': 14.4305208, 'tags': {'addr:city': 'Limatola', 'addr:postcode': '82030', 'addr:street': 'Strada Provinciale 119 Limatola', 'amenity': 'doctors', 'healthcare': 'doctor', 'name': 'Guardia Medica Limatola', 'operator': 'ASL Benevento', 'website': 'http://www.aslbenevento1.it', 'wheelchair': 'yes'}}"
"{'type': 'node', 'id': 4809589793, 'lat': 41.0787327, 'lon': 14.3085596, 'tags': {'amenity': 'pharmacy', 'name': 'Farmacia San Michele'}}"
"{'type': 'node', 'id': 4847981423, 'lat': 40.6263145, 'lon': 14.3836804, 'tags': {'addr:housenumber': '171', 'addr:postcode': '80067', 'addr:street': 'Via degli Aranci', 'amenity': 'pharmacy', 'dispensing': 'yes', 'healthcare': 'pharmacy', 'name': 'Farmacia Russo Natale', 'opening_hours': 'Mo-Sa 08:00-13:00, 15:00-20:00'}}"
"{'type': 'node', 'id': 4851137130, 'lat': 40.7260491, 'lon': 13.942069, 'tags': {'amenity': 'pharmacy', 'healthcare': 'pharmacy', 'name': ""Farmacia Sant'Anna""}}"
"{'type': 'node', 'id': 4851138621, 'lat': 40.7622463, 'lon': 14.0308266, 'tags': {'addr:housenumber': '1', 'addr:street': 'Piazza dei Martiri', 'amenity': 'pharmacy', 'check_date': '2024-10-27', 'name': 'Farmacia'}}"
"{'type': 'node', 'id': 4851138722, 'lat': 40.7382403, 'lon': 13.9486301, 'tags': {'addr:city': 'Ischia', 'addr:postcode': '80077', 'amenity': 'pharmacy', 'drive_through': 'no', 'healthcare': 'pharmacy', 'name': 'FD-Pharma'}}"
"{'type': 'node', 'id': 4922619008, 'lat': 40.8432519, 'lon': 14.2606812, 'tags': {'amenity': 'pharmacy', 'dispensing': 'no', 'healthcare': 'pharmacy', 'name': 'Parafarmacia'}}"
"{'type': 'node', 'id': 4922663403, 'lat': 40.7602869, 'lon': 14.0220684, 'tags': {'amenity': 'pharmacy', 'dispensing': 'yes', 'name': 'San Giacomo'}}"
"{'type': 'node', 'id': 4924070722, 'lat': 40.5904093, 'lon': 14.3399797, 'tags': {'addr:city': 'Massa Lubrense', 'addr:country': 'IT', 'addr:housenumber': '4', 'addr:postcode': '80061', 'addr:street': 'Piazza Santa Croce', 'amenity': 'pharmacy', 'check_date': '2024-11-10', 'dispensing': 'yes', 'healthcare': 'pharmacy', 'name': 'Farmacia dei Golfi', 'ref:msal': '12189'}}"
"{'type': 'node', 'id': 4927419576, 'lat': 40.7497699, 'lon': 14.0130908, 'tags': {'amenity': 'hospital', 'healthcare': 'hospital', 'name': 'Ospedale Civile Gaetanina Scotto', 'operator': 'ASL Napoli 2 Nord', 'operator:type': 'public'}}"
"{'type': 'node', 'id': 5044280728, 'lat': 41.49211, 'lon': 13.8323271, 'tags': {'amenity': 'pharmacy', 'healthcare': 'pharmacy', 'name': 'Sanipharma', 'source': 'survey'}}"
"{'type': 'node', 'id': 5086497664, 'lat': 40.6202509, 'lon': 14.5762629, 'tags': {'amenity': 'pharmacy'}}"
"{'type': 'node', 'id': 5106809422, 'lat': 40.9227874, 'lon': 14.3055079, 'tags': {'addr:housenumber': '20', 'addr:postcode': '80021', 'addr:street': 'Corso Vittorio Emanuele III', 'amenity': 'pharmacy', 'healthcare': 'pharmacy', 'name': 'Farmacia De Vita', 'operator': 'De Vita'}}"
"{'type': 'node', 'id': 5106811922, 'lat': 40.9202034, 'lon': 14.307546, 'tags': {'addr:street': 'Via San Felice', 'amenity': 'pharmacy', 'healthcare': 'pharmacy', 'name': 'Farmacia Liguori'}}"
"{'type': 'node', 'id': 5112297722, 'lat': 40.9261625, 'lon': 14.314781, 'tags': {'addr:housenumber': '3', 'addr:postcode': '80021', 'addr:street': 'Via Arena', 'amenity': 'pharmacy', 'name': 'Farmacia Porzio'}}"
"{'type': 'node', 'id': 5112310121, 'lat': 40.9209092, 'lon': 14.3183845, 'tags': {'addr:housenumber': '62', 'addr:postcode': '80021', 'addr:street': 'Via San Marco', 'amenity': 'pharmacy', 'healthcare': 'pharmacy', 'name': 'Farmacia San Marco', 'phone': '+39 0818691380'}}"
"{'type': 'node', 'id': 5137242221, 'lat': 40.6341227, 'lon': 14.6027507, 'tags': {'addr:city': 'Amalfi', 'addr:housenumber': '42', 'addr:place': 'Piazza Duomo', 'addr:postcode': '84011', 'amenity': 'pharmacy', 'healthcare': 'pharmacy', 'name': 'Farmacia Medaglia', 'phone': '+39 089871045'}}"
"{'type': 'node', 'id': 5145137481, 'lat': 40.6079616, 'lon': 14.3734189, 'tags': {'amenity': 'pharmacy', 'check_date': '2023-05-11', 'dispensing': 'no', 'name': 'Parafarmacia Dott. Celentano'}}"
"{'type': 'node', 'id': 5145253527, 'lat': 40.605571, 'lon': 14.3746403, 'tags': {'addr:housenumber': '61b', 'addr:street': ""Corso Sant'Agata"", 'amenity': 'pharmacy', 'defibrillator': 'yes', 'dispensing': 'yes', 'name': 'Farmacie dei Golfi', 'opening_hours': 'Mo-Sa 08:30-13:30,16:00-20:30; Su 09:00-13:30,16:30-20:30', 'operator': 'Dei Golfi di di Martino Nicola e Saverio &Amp; C. S.A.S.', 'phone': '+39 0818 780083', 'ref:msal': '12188', 'ref:vatin': 'IT02781311218', 'source': 'Ministero della Salute', 'source:start_date': '2021-04-01'}}"
"{'type': 'node', 'id': 5180416524, 'lat': 40.6778181, 'lon': 14.7631024, 'tags': {'amenity': 'pharmacy', 'healthcare': 'pharmacy', 'name': 'Farmacia del leone'}}"
"{'type': 'node', 'id': 5193795578, 'lat': 40.764235, 'lon': 14.3915213, 'tags': {'addr:city': 'Torre del Greco', 'addr:housenumber': '54', 'addr:postcode': '80059', 'addr:street': 'Via Litoranea', 'amenity': 'pharmacy', 'healthcare': 'pharmacy', 'name': 'Farmacia Lourdes', 'opening_hours': 'Mo,Tu,Th,Fr 09:00-13:00, 16:00-20:00; Sa 09:00-13:00'}}"
"{'type': 'node', 'id': 5194380335, 'lat': 40.9203692, 'lon': 14.3080944, 'tags': {'amenity': 'doctors', 'healthcare': 'doctor', 'name': 'Studio medico Orefice'}}"
"{'type': 'node', 'id': 5203800405, 'lat': 41.2233751, 'lon': 14.3580043, 'tags': {'amenity': 'pharmacy', 'healthcare': 'pharmacy', 'name': 'Andrisani'}}"
"{'type': 'node', 'id': 5216477557, 'lat': 41.0908415, 'lon': 14.2736796, 'tags': {'amenity': 'dentist', 'healthcare': 'dentist'}}"
"{'type': 'node', 'id': 5243125264, 'lat': 40.7718333, 'lon': 14.4349063, 'tags': {'amenity': 'pharmacy', 'healthcare': 'pharmacy'}}"
"{'type': 'node', 'id': 5254646845, 'lat': 41.0862114, 'lon': 14.3352137, 'tags': {'addr:city': 'Caserta', 'addr:postcode': '81100', 'amenity': 'hospital', 'emergency': 'yes', 'healthcare': 'hospital', 'name': 'Pronto Soccorso Ospedale ""Sant\'Anna e San Sebastiano""'}}"
"{'type': 'node', 'id': 5256502120, 'lat': 40.8383359, 'lon': 14.2482604, 'tags': {'addr:city': 'Napoli', 'addr:housenumber': '252', 'addr:postcode': '80132', 'addr:street': 'Via Toledo', 'amenity': 'pharmacy', 'healthcare': 'pharmacy', 'name': 'Farmacia Aquila Reale', 'opening_hours': 'Mo-Sa 10:00-18:00', 'phone': '+39 081 415524', 'source': 'mapillary'}}"
"{'type': 'node', 'id': 5257721038, 'lat': 40.8387316, 'lon': 14.2480112, 'tags': {'addr:city': 'Napoli', 'addr:housenumber': '260', 'addr:postcode': '80132', 'addr:street': ""Piazzetta Duca d'Aosta"", 'amenity': 'pharmacy', 'check_date': '2024-11-26', 'healthcare': 'pharmacy', 'name': 'Farmacia Augusteo', 'opening_hours': 'Mo-Sa 09:00-20:30', 'phone': '+39 081 416105', 'source': 'mapillary'}}"
"{'type': 'node', 'id': 5261992829, 'lat': 40.9618138, 'lon': 14.1943439, 'tags': {'amenity': 'pharmacy', 'healthcare': 'pharmacy', 'name': 'Farmacia Pisani'}}"
"{'type': 'node', 'id': 5262106824, 'lat': 40.8399158, 'lon': 14.2504002, 'tags': {'addr:city': 'Napoli', 'addr:housenumber': '15', 'addr:housenumber_1': '23;24;25;26;27', 'addr:postcode': '80133', 'addr:street': 'Piazza Municipio', 'addr:street_1': 'Via Paolo Emilio Imbriani', 'amenity': 'pharmacy', 'email': 'info@datri.it', 'healthcare': 'pharmacy', 'name': ""Farmacia D'Atri"", 'source': 'mapillary', 'website': 'http://www.datri.it'}}"
"{'type': 'node', 'id': 5268021699, 'lat': 40.8395874, 'lon': 14.2482229, 'tags': {'addr:city': 'Napoli', 'addr:housenumber': '282', 'addr:postcode': '80132', 'addr:street': 'Via Toledo', 'amenity': 'dentist', 'healthcare': 'dentist', 'name': 'Dott A. Sciortino Dentista', 'source': 'mapillary'}}"
"{'type': 'node', 'id': 5268021706, 'lat': 40.8396985, 'lon': 14.2483271, 'tags': {'addr:city': 'Napoli', 'addr:housenumber': '287', 'addr:postcode': '80132', 'addr:street': 'Via Toledo', 'amenity': 'pharmacy', 'check_date': '2024-11-26', 'email': 'f.cialiguori@alice.it', 'healthcare': 'pharmacy', 'name': 'Farmacia Liguori', 'opening_hours': 'Mo-Fr 09:00-13:00, 16:00-20:00', 'phone': '+39 081 418094', 'source': 'mapillary', 'website': 'https://www.farmacialiguori.it/'}}"
"{'type': 'node', 'id': 5284223180, 'lat': 40.8414367, 'lon': 14.2512579, 'tags': {'addr:city': 'Napoli', 'addr:housenumber': '51', 'addr:postcode': '80133', 'addr:street': 'Via Miguel Cervantes de Savedra', 'amenity': 'pharmacy', 'full_name': 'Banca di Credito Cooperativo di Napoli', 'healthcare': 'pharmacy', 'name': 'Farmacia Cervandes', 'phone': '+39 081 7785111', 'source': 'mapillary', 'website': 'https://www.mps.it/'}}"
"{'type': 'node', 'id': 5306149447, 'lat': 40.9431582, 'lon': 14.2352142, 'tags': {'addr:city': ""Sant'Antimo"", 'addr:housenumber': '33', 'addr:street': 'Via Trieste e Trento', 'amenity': 'pharmacy', 'healthcare': 'pharmacy', 'name': 'Farmacia Papa Antonia'}}"
"{'type': 'node', 'id': 5310589851, 'lat': 40.8422506, 'lon': 14.2515173, 'tags': {'addr:city': 'Napoli', 'addr:housenumber': '13;15;17', 'addr:postcode': '80133', 'addr:street': 'Via Guantai Nuovi', 'amenity': 'doctors', 'healthcare': 'laboratory', 'healthcare:speciality': 'diagnostic', 'name': 'SDN Guantai Nuovi', 'opening_hours': 'Mo-Fr 12:00-17:00; Sa 11:00-12:00', 'phone': '+39 081 2408111', 'source': 'mapillary', 'website': 'https://www.sdn-napoli.it/sedi/via-guantai-nuovi-13-15-17/'}}"
"{'type': 'node', 'id': 5343469507, 'lat': 40.9008962, 'lon': 14.2084451, 'tags': {'amenity': 'pharmacy', 'contact:housenumber': '212', 'contact:street': 'Via Napoli', 'dispensing': 'yes', 'healthcare': 'pharmacy', 'level': '0', 'name': 'Farmacia Chiefalo', 'operator': 'Giuseppe De Stasio', 'phone': '+39 081 1921 0660', 'ref:vatin': 'IT06063371212', 'was:contact:housenumber': '284', 'was:phone': '+39 081 742 6117'}}"
"{'type': 'node', 'id': 5347560725, 'lat': 40.8433099, 'lon': 14.2488094, 'tags': {'addr:city': 'Napoli', 'addr:housenumber': '344;345', 'addr:postcode': '80134', 'addr:street': 'Via Toledo', 'amenity': 'pharmacy', 'healthcare': 'pharmacy', 'name': 'Farmacia Di Gimmelli', 'opening_hours': 'Mo-Fr 09:30-20:30; Sa 09:30-19:00', 'phone': '+39 081 407126', 'source': 'mapillary'}}"
"{'type': 'node', 'id': 5352804061, 'lat': 40.9019262, 'lon': 14.208333, 'tags': {'healthcare': 'centre', 'name': 'ASL Napoli 2 Nord'}}"
"{'type': 'node', 'id': 5363412691, 'lat': 40.5542978, 'lon': 14.2178384, 'tags': {'amenity': 'pharmacy', 'healthcare': 'pharmacy'}}"
"{'type': 'node', 'id': 5363412693, 'lat': 40.5559908, 'lon': 14.2211205, 'tags': {'amenity': 'pharmacy', 'healthcare': 'pharmacy'}}"
"{'type': 'node', 'id': 5377678528, 'lat': 40.703424, 'lon': 14.4867981, 'tags': {'amenity': 'pharmacy', 'healthcare': 'pharmacy', 'name': ""Farmacia Sant'Antonio""}}"
"{'type': 'node', 'id': 5378414122, 'lat': 40.915128, 'lon': 14.3099102, 'tags': {'addr:housenumber': '92', 'addr:postcode': '80021', 'addr:street': 'Via Milano', 'amenity': 'pharmacy', 'healthcare': 'pharmacy', 'name': 'Farmacia Squillante', 'opening_hours': 'Mo-Su 08:00-20:30', 'operator': 'Armando Salvatore', 'phone': '+39 0818694673', 'website': 'https://m.facebook.com/places/map.php?id=1988798694741619'}}"
"{'type': 'node', 'id': 5418692174, 'lat': 40.9536123, 'lon': 14.6087725, 'tags': {'amenity': 'dentist', 'healthcare': 'dentist'}}"
"{'type': 'node', 'id': 5516815191, 'lat': 41.0750143, 'lon': 14.3580382, 'tags': {'addr:city': 'Caserta', 'addr:postcode': '81100', 'addr:street': 'Viale Francesco Cilea', 'amenity': 'dentist', 'healthcare': 'dentist', 'healthcare:speciality': 'orthodontics', 'name': ""Studio Odontoiatrico Dott.ssa Angela D'Amore"", 'operator': ""Dott.ssa Angela D'Amore""}}"
"{'type': 'node', 'id': 5531156897, 'lat': 40.747741, 'lon': 14.604769, 'tags': {'addr:city': 'Pagani', 'addr:housenumber': '262', 'addr:postcode': '84016', 'addr:street': 'Via Nazionale', 'amenity': 'pharmacy', 'dispensing': 'yes', 'healthcare': 'pharmacy', 'name': 'Farmacia Comunale Pagani'}}"
"{'type': 'node', 'id': 5633127413, 'lat': 40.6220153, 'lon': 14.370347, 'tags': {'addr:housenumber': '5', 'addr:street': ""Via Rigolo Sant'Antonio"", 'amenity': 'clinic', 'healthcare': 'dialysis', 'level': '0', 'name': 'Seironos'}}"
"{'type': 'node', 'id': 5639392237, 'lat': 41.2733472, 'lon': 13.6940393, 'tags': {'amenity': 'pharmacy', 'dispensing': 'yes', 'healthcare': 'pharmacy'}}"
"{'type': 'node', 'id': 5779513933, 'lat': 41.1083692, 'lon': 14.1096339, 'tags': {'amenity': 'pharmacy', 'dispensing': 'no', 'healthcare': 'pharmacy', 'name': 'Farmacia Corvino'}}"
"{'type': 'node', 'id': 5866117754, 'lat': 40.7722604, 'lon': 14.7974151, 'tags': {'amenity': 'pharmacy', 'healthcare': 'pharmacy'}}"
"{'type': 'node', 'id': 5866117755, 'lat': 40.7722861, 'lon': 14.797164, 'tags': {'amenity': 'pharmacy', 'dispensing': 'yes', 'healthcare': 'pharmacy', 'name': 'Farmacia Pugliese Dr. Giuseppe'}}"
"{'type': 'node', 'id': 5883093333, 'lat': 40.9330676, 'lon': 14.2465457, 'tags': {'addr:city': 'Casandrino', 'addr:postcode': '80025', 'addr:street': ""Via Don Domenico D'Angelo"", 'amenity': 'pharmacy', 'contact:facebook': 'https://www.facebook.com/farmaciavivomgabriella/', 'dispensing': 'yes', 'drive_through': 'no', 'healthcare': 'pharmacy', 'name': 'Farmacia Vivo', 'opening_hours': 'Mo-Fr 08:30-13:00, Sa-Su 09:00-13:00, Mo-Sa 16:00-20:00', 'phone': '+39 081 395 3023'}}"
"{'type': 'node', 'id': 5885375729, 'lat': 40.9361239, 'lon': 14.2489205, 'tags': {'addr:city': 'Casandrino', 'addr:housenumber': '12', 'addr:postcode': '80025', 'addr:street': 'Piazza Umberto I', 'amenity': 'pharmacy', 'contact:facebook': 'https://www.facebook.com/Farmacia-DAmore-dottssa-Teresa-949971515110619/', 'dispensing': 'yes', 'drive_through': 'no', 'healthcare': 'pharmacy', 'name': ""Farmacia D'Amore"", 'opening_hours': 'Mo-Fr 08:30-13:00; Sa-Su 09:00-13:00; Mo-Su 16:00-20:00', 'phone': '+39 081 830 4740', 'website': 'https://www.farmaciadamoreteresa.it/', 'wheelchair': 'limited'}}"
"{'type': 'node', 'id': 5909955466, 'lat': 40.7645133, 'lon': 14.0290106, 'tags': {'amenity': 'pharmacy', 'name': 'Farmacia Linfa', 'source': 'survey'}}"
"{'type': 'node', 'id': 6033661488, 'lat': 40.8264129, 'lon': 14.2195455, 'tags': {'amenity': 'pharmacy', 'name': 'Farmacia Mediterranea'}}"
"{'type': 'node', 'id': 6132848182, 'lat': 40.6322346, 'lon': 14.4107334, 'tags': {'addr:city': 'Piano di Sorrento', 'addr:housenumber': '88', 'addr:postcode': '80063', 'addr:street': 'Corso Italia', 'amenity': 'pharmacy', 'dispensing': 'yes', 'drive_through': 'no', 'healthcare': 'pharmacy', 'name': 'Farmacia Castellano Dr. Elio', 'ref:msal': '12063'}}"
"{'type': 'node', 'id': 6147293508, 'lat': 40.8562746, 'lon': 14.2439859, 'tags': {'addr:city': 'Napoli', 'addr:housenumber': '15', 'addr:postcode': '80136', 'addr:street': 'Via Guglielmo Appulo', 'amenity': 'pharmacy', 'dispensing': 'yes', 'healthcare': 'pharmacy', 'name': 'Farmacia Dr. Ant. Mirone'}}"
"{'type': 'node', 'id': 6147330864, 'lat': 40.8567812, 'lon': 14.2427923, 'tags': {'addr:city': 'Napoli', 'addr:housenumber': '5', 'addr:postcode': '80136', 'addr:street': 'Via Bartolomeo Caracciolo Detto Carafa', 'amenity': 'dentist', 'healthcare': 'dentist', 'name': 'Dr. Michele Picilli'}}"
"{'type': 'node', 'id': 6253604009, 'lat': 41.4835409, 'lon': 14.4721685, 'tags': {'addr:city': 'Bojano', 'addr:country': 'IT', 'addr:postcode': '86021', 'addr:street': 'Corso Francesco Amatuzio', 'healthcare': 'alternative', 'name': 'Erboristeria Viorna', 'shop': 'herbalist', 'source': 'Bing, Local knowledge'}}"
"{'type': 'node', 'id': 6255382485, 'lat': 40.845805, 'lon': 14.2334222, 'tags': {'addr:housenumber': '43', 'addr:postcode': '80129', 'addr:street': 'Via Torrione S. Martino', 'amenity': 'pharmacy', 'dispensing': 'yes', 'healthcare': 'pharmacy', 'name': 'Larizza Paolo Antonio', 'ref:msal': '11672', 'ref:vatin': 'IT05902581213', 'start_date': '2010-01-09'}}"
"{'type': 'node', 'id': 6315847405, 'lat': 40.911428, 'lon': 14.3134247, 'tags': {'healthcare': 'rehabilitation', 'name': 'AIAS di Afragola'}}"
"{'type': 'node', 'id': 6425688791, 'lat': 40.6754615, 'lon': 14.7707204, 'tags': {'amenity': 'pharmacy', 'check_date': '2024-10-15', 'name': 'Ferrara', 'wheelchair': 'limited'}}"
"{'type': 'node', 'id': 6425993732, 'lat': 40.6795235, 'lon': 14.7528596, 'tags': {'amenity': 'pharmacy', 'name': 'Verdi'}}"
"{'type': 'node', 'id': 6426251725, 'lat': 40.6788501, 'lon': 14.7605984, 'tags': {'amenity': 'pharmacy', 'check_date': '2024-10-14', 'name': 'Aiello', 'wheelchair': 'limited'}}"
"{'type': 'node', 'id': 6440701327, 'lat': 40.632258, 'lon': 14.4074743, 'tags': {'amenity': 'pharmacy', 'healthcare': 'pharmacy', 'name': 'Farmacia Irolla', 'ref:msal': '12179'}}"
"{'type': 'node', 'id': 6516563976, 'lat': 40.7332711, 'lon': 13.9571793, 'tags': {'amenity': 'pharmacy', 'healthcare': 'pharmacy', 'name': 'Farmacia Mirabella'}}"
"{'type': 'node', 'id': 6531712311, 'lat': 41.3090713, 'lon': 14.8778264, 'tags': {'addr:city': 'San Marco dei Cavoti', 'addr:housenumber': '46', 'addr:postcode': '82029', 'addr:street': 'Via Roma', 'amenity': 'pharmacy', 'dispensing': 'yes', 'healthcare': 'pharmacy', 'name': 'Farmacia Bancale Dott. Marcello'}}"
"{'type': 'node', 'id': 6553777244, 'lat': 40.853144, 'lon': 14.2578667, 'tags': {'amenity': 'pharmacy', 'name': 'Farmacia al duomo'}}"
"{'type': 'node', 'id': 6561548196, 'lat': 40.9126321, 'lon': 14.2130744, 'tags': {'amenity': 'pharmacy', 'dispensing': 'yes', 'healthcare': 'pharmacy', 'name': 'San Biagio'}}"
"{'type': 'node', 'id': 6585108272, 'lat': 41.0641774, 'lon': 14.8523623, 'tags': {'amenity': 'pharmacy', 'healthcare': 'pharmacy', 'name': 'Farmacia Del Progresso', 'operator': 'Dott. Campanile'}}"
"{'type': 'node', 'id': 6585147979, 'lat': 41.0629499, 'lon': 14.8529792, 'tags': {'amenity': 'pharmacy', 'healthcare': 'pharmacy', 'name': 'Farmacia Chiavelli'}}"
"{'type': 'node', 'id': 6586137986, 'lat': 41.1296971, 'lon': 14.7832146, 'tags': {'amenity': 'pharmacy', 'healthcare': 'pharmacy', 'name': 'Farmacia del Grosso'}}"
"{'type': 'node', 'id': 6586802042, 'lat': 41.0660224, 'lon': 14.8571838, 'tags': {'healthcare': 'centre', 'name': 'ASL San Giorgio del Sannio'}}"
"{'type': 'node', 'id': 6586818706, 'lat': 41.0643692, 'lon': 14.8563409, 'tags': {'amenity': 'dentist', 'healthcare': 'dentist', 'name': 'Dentista Bocchino'}}"
"{'type': 'node', 'id': 6586823637, 'lat': 41.0709636, 'lon': 14.8568584, 'tags': {'healthcare': 'centre', 'name': 'UCCP'}}"
"{'type': 'node', 'id': 6586873779, 'lat': 41.0622984, 'lon': 14.8447546, 'tags': {'amenity': 'pharmacy', 'name': 'Farmacia Padre Pio'}}"
"{'type': 'node', 'id': 6587248904, 'lat': 41.1302689, 'lon': 14.7805522, 'tags': {'addr:city': 'Benevento', 'addr:housenumber': '25', 'addr:postcode': '82100', 'addr:street': 'Corso Giuseppe Garibaldi', 'amenity': 'pharmacy', 'description:it': 'orari attuale e turno disponibile sul sito web', 'dispensing': 'yes', 'drive_through': 'no', 'healthcare': 'pharmacy', 'name': 'Farmacia Santa Sofia', 'opening_hours': 'Mo-Fr 08:45-13:00, 16:30-20:00; Sa 08:45-13:00; Su, PH off', 'operator': 'Santa Sofia S.N.C.', 'phone': '+39 0824 24862', 'ref:msal': '11273', 'ref:vatin': 'IT01146370620', 'source': 'Ministero della Salute', 'source:start_date': '2010-10-01', 'start_date': '2010-10-01', 'website': 'https://www.farmaciediturno.org/farmacia.asp?idf=11273'}}"
"{'type': 'node', 'id': 6736455575, 'lat': 40.8347919, 'lon': 14.0990048, 'tags': {'addr:city': 'Pozzuoli', 'addr:housenumber': '64', 'addr:postcode': '80078', 'addr:street': 'Via Campi Flegrei', 'amenity': 'pharmacy', 'dispensing': 'yes', 'drive_through': 'no', 'healthcare': 'pharmacy', 'name': 'Farmacia Leone San Marco', 'operator': 'Mo-Fr 08:30-13:30,16-20:45, Sa 09-13:30', 'phone': '+39 081 866 1717', 'website': 'https://www.farmacialeonesanmarco.com/'}}"
"{'type': 'node', 'id': 6743933483, 'lat': 40.8392697, 'lon': 14.0966924, 'tags': {'addr:city': 'Pozzuoli', 'addr:housenumber': '7', 'addr:postcode': '80078', 'addr:street': 'Via Sotto il Monte', 'amenity': 'pharmacy', 'dispensing': 'yes', 'healthcare': 'pharmacy', 'name': 'Farmacie dei Golfi Pozzuoli', 'opening_hours': 'Mo-Fr 08:30-20:30, Sa 09:00-13:30, 16:30-20:30', 'phone': '+39 081 866 2748', 'website': 'https://www.farmaciedeigolfi.it/t/farmacia/pozzuoli'}}"
"{'type': 'node', 'id': 6836174454, 'lat': 40.7704491, 'lon': 14.4396501, 'tags': {'amenity': 'pharmacy', 'dispensing': 'yes', 'name': 'Farmacia Dottor Tordino Margherita', 'phone': '+39 081 5367320'}}"
"{'type': 'node', 'id': 6897243577, 'lat': 40.8000043, 'lon': 14.0790036, 'tags': {'amenity': 'pharmacy', 'name': 'Farmacia Guardascione'}}"
"{'type': 'node', 'id': 6897276415, 'lat': 40.7964007, 'lon': 14.0779395, 'tags': {'amenity': 'pharmacy', 'name': ""Farmacia Sant'Anna""}}"
"{'type': 'node', 'id': 6924507948, 'lat': 40.350846, 'lon': 14.9867354, 'tags': {'addr:city': 'Agropoli', 'addr:street': 'Via Giuseppe Mazzini', 'amenity': 'pharmacy', 'dispensing': 'yes', 'healthcare': 'pharmacy', 'name': 'Parafarmacia Di Adriano'}}"
"{'type': 'node', 'id': 6937146285, 'lat': 40.8578175, 'lon': 14.2840334, 'tags': {'healthcare': 'counselling', 'name': 'Team Service', 'opening_hours': 'Mo-Fr 09:00-18:00', 'phone': '+39 081 5628221', 'website': 'https://www.team-service.it'}}"
"{'type': 'node', 'id': 6982408067, 'lat': 40.8522183, 'lon': 14.2726068, 'tags': {'amenity': 'pharmacy', 'check_date': '2023-08-30', 'dispensing': 'yes', 'healthcare': 'pharmacy', 'level': '0', 'name': 'Leone', 'opening_hours': 'Mo-Sa 07:00-21:00; PH,Su 08:00-20:30', 'phone': '+39 371 4630554', 'website': 'https://www.farmaciadellastazionenapoli.it/'}}"
"{'type': 'node', 'id': 6985813110, 'lat': 41.4901476, 'lon': 13.8583829, 'tags': {'amenity': 'pharmacy', 'dispensing': 'yes', 'healthcare': 'pharmacy', 'name': 'Farmacia Comunale San Bartolomeo'}}"
"{'type': 'node', 'id': 7020597000, 'lat': 40.6199752, 'lon': 14.9455967, 'tags': {'healthcare': 'yes', 'name': 'Guardia Medica'}}"
"{'type': 'node', 'id': 7043796872, 'lat': 40.8342263, 'lon': 14.2203797, 'tags': {'amenity': 'hospital', 'emergency': 'no', 'healthcare': 'hospital', 'healthcare:speciality': 'general', 'name': 'ASL NAP1 Distretto 24 Centro Vaccinale'}}"
"{'type': 'node', 'id': 7043803285, 'lat': 40.8344114, 'lon': 14.2200386, 'tags': {'amenity': 'hospital', 'emergency': 'no', 'healthcare': 'hospital', 'healthcare:speciality': 'general', 'name': 'ASL NAP 1 Presidio Sanitario Polifunzionale'}}"
"{'type': 'node', 'id': 7053991248, 'lat': 40.7057428, 'lon': 14.7034546, 'tags': {'addr:housenumber': '25', 'addr:street': 'Via Eduardo Talamo', 'amenity': 'pharmacy', 'dispensing': 'yes', 'healthcare': 'pharmacy', 'name': 'Farmacia del Leone'}}"
"{'type': 'node', 'id': 7054031422, 'lat': 40.7045208, 'lon': 14.7049788, 'tags': {'addr:housenumber': '37', 'addr:street': 'Corso Giuseppe Mazzini', 'amenity': 'pharmacy', 'dispensing': 'yes', 'healthcare': 'pharmacy', 'name': 'Farmacia del Corso'}}"
"{'type': 'node', 'id': 7054081494, 'lat': 40.703284, 'lon': 14.7077971, 'tags': {'addr:housenumber': '31', 'addr:street': 'Viale Giuseppe Garibaldi', 'amenity': 'pharmacy', 'dispensing': 'yes', 'healthcare': 'pharmacy', 'name': 'Farmacia Bifolco'}}"
"{'type': 'node', 'id': 7080587151, 'lat': 40.8185646, 'lon': 14.2119637, 'tags': {'amenity': 'pharmacy', 'name': 'Farmacia Congedo', 'opening_hours': 'Mo-Fr 09:00-20:00; Sa 09:00-19:00; Su 09:00-13:30', 'phone': '+39 081 575 0655', 'website': 'https://www.farmaciacongedo.com/'}}"
"{'type': 'node', 'id': 7082499436, 'lat': 40.83677, 'lon': 14.2339997, 'tags': {'amenity': 'pharmacy', 'dispensing': 'yes', 'healthcare': 'pharmacy', 'name': 'Farmacia S. Teresa'}}"
"{'type': 'node', 'id': 7086814782, 'lat': 40.830883, 'lon': 14.2200562, 'tags': {'amenity': 'pharmacy', 'name': 'Farmacia Nazionale'}}"
"{'type': 'node', 'id': 7110600593, 'lat': 40.6262949, 'lon': 14.3764131, 'tags': {'addr:city': 'Sorrento', 'addr:country': 'IT', 'addr:housenumber': '171', 'addr:postcode': '80067', 'addr:street': 'Corso Italia', 'amenity': 'pharmacy', 'dispensing': 'no', 'healthcare': 'pharmacy', 'name': 'Farmaci+'}}"
"{'type': 'node', 'id': 7115338284, 'lat': 40.8445884, 'lon': 14.2572366, 'tags': {'amenity': 'pharmacy', 'healthcare': 'pharmacy', 'name': 'Farmacia Mezzocannone'}}"
"{'type': 'node', 'id': 7142669617, 'lat': 40.8528753, 'lon': 14.2459457, 'tags': {'amenity': 'pharmacy', 'dispensing': 'yes', 'healthcare': 'pharmacy'}}"
"{'type': 'node', 'id': 7142669634, 'lat': 40.8556635, 'lon': 14.2556495, 'tags': {'amenity': 'pharmacy', 'dispensing': 'yes', 'healthcare': 'pharmacy', 'name': 'Farmacia Dott. Russo'}}"
"{'type': 'node', 'id': 7142669635, 'lat': 40.8572283, 'lon': 14.2544532, 'tags': {'amenity': 'pharmacy', 'dispensing': 'yes', 'healthcare': 'pharmacy', 'noname': 'yes'}}"
"{'type': 'node', 'id': 7147507125, 'lat': 40.8527186, 'lon': 14.2629012, 'tags': {'amenity': 'pharmacy', 'dispensing': 'yes', 'healthcare': 'pharmacy'}}"
"{'type': 'node', 'id': 7151540869, 'lat': 40.8462042, 'lon': 14.2476671, 'tags': {'amenity': 'pharmacy', 'dispensing': 'yes', 'healthcare': 'pharmacy'}}"
"{'type': 'node', 'id': 7151540872, 'lat': 40.8520893, 'lon': 14.2386037, 'tags': {'amenity': 'pharmacy', 'dispensing': 'yes', 'healthcare': 'pharmacy'}}"
"{'type': 'node', 'id': 7158648844, 'lat': 40.851205, 'lon': 14.2676031, 'tags': {'amenity': 'pharmacy', 'dispensing': 'yes', 'healthcare': 'pharmacy'}}"
"{'type': 'node', 'id': 7158648861, 'lat': 40.8443674, 'lon': 14.256925, 'tags': {'amenity': 'pharmacy', 'dispensing': 'yes', 'healthcare': 'pharmacy'}}"
"{'type': 'node', 'id': 7158648868, 'lat': 40.851179, 'lon': 14.2668614, 'tags': {'amenity': 'pharmacy', 'dispensing': 'yes', 'healthcare': 'pharmacy'}}"
"{'type': 'node', 'id': 7169855293, 'lat': 40.8482669, 'lon': 14.2683615, 'tags': {'amenity': 'pharmacy', 'dispensing': 'yes', 'healthcare': 'pharmacy', 'name': 'Pharmasanitaria Aiesi'}}"
"{'type': 'node', 'id': 7169855305, 'lat': 40.847106, 'lon': 14.2677926, 'tags': {'amenity': 'pharmacy', 'dispensing': 'yes', 'healthcare': 'pharmacy', 'name': 'Farmacia del Carmine', 'opening_hours': 'Mo-Sa 09:00-13:00, Mo-Fr 16:00-20:00'}}"
"{'type': 'node', 'id': 7173760517, 'lat': 40.8492584, 'lon': 14.2736133, 'tags': {'amenity': 'pharmacy', 'check_date': '2023-10-04', 'dispensing': 'yes', 'healthcare': 'pharmacy', 'name': 'Castiello'}}"
"{'type': 'node', 'id': 7175504337, 'lat': 40.8461499, 'lon': 14.2590817, 'tags': {'amenity': 'pharmacy', 'contact:housenumber': '64', 'contact:street': 'Corso Umberto Primo', 'dispensing': 'yes', 'email': 'info@farmacieiuliano.it', 'fax': '+39 081 204 458', 'healthcare': 'pharmacy', 'name': 'Farmacia Del Corso', 'operator': 'Alessandro Iuliano', 'phone': '+39 081 204 458', 'website': 'http://www.farmacieiuliano.it/'}}"
"{'type': 'node', 'id': 7175504355, 'lat': 40.846871, 'lon': 14.2602105, 'tags': {'amenity': 'pharmacy', 'dispensing': 'yes', 'healthcare': 'pharmacy', 'name': 'Farmacia San Francesco'}}"
"{'type': 'node', 'id': 7175603415, 'lat': 40.843335, 'lon': 14.2528649, 'tags': {'amenity': 'pharmacy', 'dispensing': 'yes', 'healthcare': 'pharmacy'}}"
"{'type': 'node', 'id': 7179565923, 'lat': 40.848465, 'lon': 14.2553603, 'tags': {'amenity': 'pharmacy', 'dispensing': 'yes', 'healthcare': 'pharmacy', 'name': 'Lombardi'}}"
"{'type': 'node', 'id': 7193522662, 'lat': 40.8358606, 'lon': 14.2433485, 'tags': {'amenity': 'pharmacy', 'dispensing': 'yes', 'healthcare': 'pharmacy', 'name': 'Farmacia Chiaia'}}"
"{'type': 'node', 'id': 7230768111, 'lat': 40.8365024, 'lon': 14.2383348, 'tags': {'amenity': 'pharmacy', 'dispensing': 'yes', 'healthcare': 'pharmacy'}}"
"{'type': 'node', 'id': 7230768114, 'lat': 40.8356468, 'lon': 14.2417918, 'tags': {'amenity': 'pharmacy', 'check_date': '2022-07-03', 'dispensing': 'yes', 'drive_through': 'no', 'healthcare': 'pharmacy', 'level': '0', 'name': 'Farmacia Filangeri'}}"
"{'type': 'node', 'id': 7230768152, 'lat': 40.8370621, 'lon': 14.2467758, 'tags': {'amenity': 'pharmacy', 'dispensing': 'yes', 'healthcare': 'pharmacy'}}"
"{'type': 'node', 'id': 7230981580, 'lat': 40.8357999, 'lon': 14.2394752, 'tags': {'amenity': 'pharmacy', 'check_date': '2022-07-05', 'dispensing': 'yes', 'healthcare': 'pharmacy'}}"
"{'type': 'node', 'id': 7252225999, 'lat': 40.849327, 'lon': 14.3333338, 'tags': {'addr:city': 'Napoli', 'addr:housenumber': '66', 'addr:postcode': '80147', 'addr:street': 'Via Bartolo Longo', 'amenity': 'pharmacy', 'dispensing': 'yes', 'drive_through': 'no', 'healthcare': 'pharmacy', 'name': 'Farmacia Dott. Giliberti'}}"
"{'type': 'node', 'id': 7278336664, 'lat': 41.203689, 'lon': 13.8521175, 'tags': {'addr:city': 'Cellole', 'addr:housenumber': '22', 'addr:postcode': '81030', 'addr:street': 'Via Raffaello', 'amenity': 'pharmacy', 'dispensing': 'yes', 'healthcare': 'pharmacy', 'name': 'Farmacia De Cesare Mascolo'}}"
"{'type': 'node', 'id': 7278369747, 'lat': 41.2030927, 'lon': 13.8568499, 'tags': {'addr:city': 'Cellole', 'addr:housenumber': '79', 'addr:postcode': '81030', 'addr:street': 'Via Napoli', 'amenity': 'pharmacy', 'dispensing': 'yes', 'healthcare': 'pharmacy', 'name': 'Farmacia Comunale'}}"
"{'type': 'node', 'id': 7286569041, 'lat': 40.769159, 'lon': 14.789629, 'tags': {'addr:city': 'Fisciano', 'addr:postcode': '84084', 'addr:street': 'Viale Galileo Galilei', 'amenity': 'doctors', 'healthcare': 'doctor', 'healthcare:speciality': 'general', 'name': ""Presidio Sanitario Polispecialistico dell'Università di Salerno"", 'operator': 'Università degli Studi di Salerno', 'source': 'local knowledge', 'website': 'https://web.unisa.it/vivere-il-campus/servizi/salute-e-assistenza-sanitaria', 'wheelchair': 'yes'}}"
"{'type': 'node', 'id': 7320381725, 'lat': 40.853545, 'lon': 14.266047, 'tags': {'addr:city': 'Napoli', 'addr:housenumber': '46', 'addr:postcode': '80139', 'addr:street': 'Via Alessandro Poerio', 'amenity': 'pharmacy', 'contact:facebook': 'https://www.facebook.com/Farmacia-Poerio-1972544029437801/', 'dispensing': 'yes', 'ref:msal': '11850', 'ref:vatin': 'IT06410201211', 'start_date': '2017-01-10'}}"
"{'type': 'node', 'id': 7417607008, 'lat': 40.9007999, 'lon': 14.1970992, 'tags': {'amenity': 'pharmacy', 'check_date:opening_hours': '2024-05-27', 'contact:housenumber': '21', 'contact:street': 'Via Giovanni Falcone', 'healthcare': 'pharmacy', 'level': '0', 'name': 'Morrica', 'opening_hours': 'Mo-Su,PH 08:00-24:00; Dec 25 off; Jan 1 off', 'phone': '+39 081 742 9596', 'ref:vatin': 'IT05478851214', 'website': 'http://www.farmaciamorrica.it', 'wheelchair': 'yes'}}"
"{'type': 'node', 'id': 7426739499, 'lat': 40.9203912, 'lon': 14.1960032, 'tags': {'amenity': 'clinic', 'contact:housenumber': '59', 'contact:street': 'Via Enrico Fermi', 'email': 'villamajone@libero.it', 'healthcare': 'clinic', 'healthcare:speciality': 'gynaecology', 'level': '0;1', 'name': 'Villa Maione', 'phone': '+39 081 506 4056;+39 081 894 1104'}}"
"{'type': 'node', 'id': 7500944431, 'lat': 41.480167, 'lon': 13.8109459, 'tags': {'addr:city': 'Cassino', 'addr:housenumber': 'km 140.250', 'addr:postcode': '03043', 'addr:street': 'Via Casilina', 'amenity': 'pharmacy', 'dispensing': 'no', 'healthcare': 'pharmacy', 'name': 'Parafarmacia Conad', 'operator': 'Conad'}}"
"{'type': 'node', 'id': 7522058650, 'lat': 40.9430413, 'lon': 14.2171306, 'tags': {'addr:city': 'Giugliano in Campania', 'addr:housenumber': 'km 18.700', 'addr:postcode': '80014', 'addr:street': 'Strada Statale Appia', 'amenity': 'pharmacy', 'brand': 'Conad', 'brand:wikidata': 'Q639075', 'brand:wikipedia': 'it:Conad', 'dispensing': 'no', 'healthcare': 'pharmacy', 'name': 'Parafarmacia Conad', 'operator': 'Conad'}}"
"{'type': 'node', 'id': 7522097992, 'lat': 40.8362296, 'lon': 14.1912212, 'tags': {'addr:city': 'Napoli', 'addr:postcode': '80126', 'addr:street': 'Via Marco Aurelio', 'amenity': 'pharmacy', 'dispensing': 'no', 'healthcare': 'pharmacy', 'name': 'Parafarmacia Conad', 'opening_hours': 'Mo-Su 09:00-21:00', 'operator': 'Conad'}}"
"{'type': 'node', 'id': 7522142244, 'lat': 41.1185381, 'lon': 14.7571362, 'tags': {'addr:city': 'Benevento', 'addr:postcode': '82100', 'addr:street': 'SS Appia', 'amenity': 'pharmacy', 'dispensing': 'no', 'healthcare': 'pharmacy', 'name': 'Parafarmacia Conad', 'operator': 'Conad'}}"
"{'type': 'node', 'id': 7522828528, 'lat': 40.7117913, 'lon': 14.7024143, 'tags': {'addr:city': 'Cava dei Tirreni', 'addr:housenumber': '32', 'addr:postcode': '84013', 'addr:street': 'Viale Riccardo Romano', 'amenity': 'pharmacy', 'dispensing': 'no', 'healthcare': 'pharmacy', 'name': 'Parafarmacia Conad', 'operator': 'Conad'}}"
"{'type': 'node', 'id': 7522899892, 'lat': 40.9686053, 'lon': 14.171892, 'tags': {'addr:city': 'Trentola Ducenta', 'addr:postcode': '81038', 'addr:street': 'Via Romaniello', 'amenity': 'pharmacy', 'dispensing': 'no', 'drive_through': 'no', 'healthcare': 'pharmacy', 'level': '0', 'name': 'Parafarmacia Conad', 'operator': 'Pianeta Cospea S.r.l.', 'phone': '+39 081 812 5911;+39 081 812 5989', 'ref:vatin': 'IT01967130541'}}"
"{'type': 'node', 'id': 7522923142, 'lat': 40.9204165, 'lon': 14.292608, 'tags': {'addr:city': 'Casoria', 'addr:housenumber': 'km 8', 'addr:postcode': '80026', 'addr:street': 'Strada Statale Sannitica', 'amenity': 'pharmacy', 'dispensing': 'no', 'healthcare': 'pharmacy', 'name': 'Parafarmacia Conad', 'operator': 'Conad'}}"
"{'type': 'node', 'id': 7538296138, 'lat': 41.071797, 'lon': 14.865516, 'tags': {'addr:city': 'Calvi', 'addr:housenumber': '46', 'addr:street': 'Via Roma', 'amenity': 'pharmacy'}}"
"{'type': 'node', 'id': 7540005465, 'lat': 41.0718571, 'lon': 14.8652822, 'tags': {'addr:housenumber': '46', 'addr:street': 'Via Roma', 'amenity': 'pharmacy', 'dispensing': 'yes', 'healthcare': 'pharmacy', 'name': 'Farmacia Santa Maria', 'phone': '+390824 40586'}}"
"{'type': 'node', 'id': 7541297010, 'lat': 41.0791735, 'lon': 14.4149418, 'tags': {'addr:city': 'Valle di Maddaloni', 'addr:postcode': '81020', 'addr:street': 'Via IV Novembre', 'alt_name': 'Farmacia Pagliaro', 'amenity': 'pharmacy', 'dispensing': 'yes', 'healthcare': 'pharmacy', 'name': 'Farmacia comunale', 'opening_hours': 'Mo-Fr 09:00-13:00, Mo-Sa 16:00-20:00, Sa 08:30-12:30; Su off'}}"
"{'type': 'node', 'id': 7544527260, 'lat': 40.7719934, 'lon': 14.4019832, 'tags': {'addr:city': 'Torre del Greco', 'addr:housenumber': '476', 'addr:postcode': '80059', 'addr:street': 'Via Nazionale', 'amenity': 'pharmacy', 'healthcare': 'pharmacy', 'name': 'Farmacia Dott. Boscia'}}"
"{'type': 'node', 'id': 7549962396, 'lat': 41.2344927, 'lon': 14.5029162, 'tags': {'addr:street': 'via Bagni', 'amenity': 'pharmacy', 'healthcare': 'pharmacy', 'name': 'Farmacia Cusano Dr. Tommaso', 'opening_hours': 'Mo-Fr 09:00-13:00, 16:00-20:00; Sa 09:00-13:00', 'phone': '+39 0824 948489', 'wheelchair': 'yes'}}"
"{'type': 'node', 'id': 7553515578, 'lat': 41.2358292, 'lon': 14.4931697, 'tags': {'addr:housenumber': '1', 'addr:street': 'Via Corte Nocera', 'healthcare': 'yes', 'name': 'Health medical center', 'opening_hours': 'Mo-Fr 08:00-12:00,16:00-19:30', 'phone': '+390824947094', 'website': 'https://healthmedicalcenter.wordpress.com/'}}"
"{'type': 'node', 'id': 7600439497, 'lat': 40.7745913, 'lon': 14.3953957, 'tags': {'addr:city': 'Torre del Greco', 'addr:housenumber': '393', 'addr:postcode': '80059', 'addr:street': 'Via Nazionale', 'amenity': 'doctors', 'email': 'sangiorgiotorre@cimasadialisi.it', 'healthcare': 'doctor', 'name': 'Centro Emodialisi San Giorgio', 'operator': 'Gruppo Cimasa', 'phone': '+39 081 881 13 94', 'website': 'http://cimasadialisi.it/it/contenuti/i-centri/torre-del-greco--na---san-giorgio-s-r-l'}}"
"{'type': 'node', 'id': 7610728887, 'lat': 40.817817, 'lon': 14.0710627, 'tags': {'addr:city': 'Bacoli', 'addr:housenumber': '24', 'addr:postcode': '80070', 'addr:street': 'Via Lucullo', 'description': 'Specializzata in riabilitazione posturale secondo Méziéres - Riabilitazione cardio polmonare - Ginnastica correttiva - Chinesiterapia - Linfodrenaggio manuale', 'email': 'assunta.costi86@libero.it', 'healthcare': 'physiotherapist', 'name': 'Fisioterapista Dott.ssa Assunta Costigliola', 'operator': 'Assunta Costigliola'}}"
"{'type': 'node', 'id': 7619525386, 'lat': 40.8306985, 'lon': 14.3122439, 'tags': {'addr:city': 'Napoli', 'addr:housenumber': '2', 'addr:postcode': '80146', 'addr:street': 'Via Bernardo Quaranta', 'amenity': 'hospital', 'healthcare': 'hospital', 'name': 'Azienda Sanitaria Locale NA1 - Distr. 52', 'website': 'https://www.aslnapoli1centro.it/uopc32/'}}"
"{'type': 'node', 'id': 7677343541, 'lat': 41.1951737, 'lon': 14.6667113, 'tags': {'addr:city': 'Paupisi', 'addr:housenumber': '31', 'addr:postcode': '82030', 'amenity': 'pharmacy', 'dispensing': 'yes', 'healthcare': 'pharmacy', 'name': ""Farmacia Sant'Antonio""}}"
"{'type': 'node', 'id': 7692395245, 'lat': 41.1266766, 'lon': 14.6274341, 'tags': {'addr:city': 'Tocco Caudio', 'addr:housenumber': '13', 'addr:postcode': '82030', 'addr:street': 'Via La Riola', 'amenity': 'pharmacy', 'dispensing': 'yes', 'drive_through': 'no', 'healthcare': 'pharmacy', 'name': 'Farmacia Napoli', 'opening_hours': 'Mo-Fr 08:30-13:00,16:30-20:00; Sa 08:30-13:00; Su off', 'operator': 'Dott. Antonio Napoli', 'phone': '+39 0824 888296', 'ref:msal': '11284', 'ref:vatin': 'IT00600550628'}}"
"{'type': 'node', 'id': 7761410243, 'lat': 41.1479642, 'lon': 14.6424394, 'tags': {'addr:city': 'Cautano', 'addr:postcode': '82030', 'addr:street': 'Via Trieste', 'healthcare': 'clinic', 'healthcare:speciality': 'cardiology;endocrinology;dermatology;geriatrics;neurology;orthopaedics;rheumatology;urology;otolaryngology', 'name': 'Poliambulatorio di Cautano', 'operator': 'ASL Benevento', 'phone': '+390824880303', 'source': 'http://www.aslbenevento1.it/modules.php?name=Encyclopedia&op=content&tid=168', 'website': 'http://www.aslbenevento1.it/modules.php?name=Sections&op=viewarticle&artid=233'}}"
"{'type': 'node', 'id': 7761434373, 'lat': 41.1510082, 'lon': 14.6462549, 'tags': {'addr:city': 'Cautano', 'addr:housenumber': '38a', 'addr:postcode': '82030', 'addr:street': 'Viale Principe Umberto', 'amenity': 'pharmacy', 'dispensing': 'yes', 'drive_through': 'no', 'healthcare': 'pharmacy', 'name': 'Farmacia Saviano', 'opening_hours': 'Mo-Sa 08:30-13:00, 16:00-20:00', 'operator': 'Maria Lora Saviano', 'phone': '+39 0824 880202', 'ref:msal': '11281', 'ref:vatin': 'IT01730610621'}}"
"{'type': 'node', 'id': 7783655086, 'lat': 40.8037288, 'lon': 14.2007141, 'tags': {'amenity': 'pharmacy'}}"
"{'type': 'node', 'id': 7787407540, 'lat': 40.8151931, 'lon': 14.2061495, 'tags': {'amenity': 'pharmacy'}}"
"{'type': 'node', 'id': 7788139070, 'lat': 40.8540895, 'lon': 14.2549082, 'tags': {'addr:city': 'Napoli', 'addr:housenumber': '50', 'addr:postcode': '80138', 'addr:street': 'Via Maria Longo', 'amenity': 'hospital', 'healthcare': 'hospital', 'name': 'Ospedale Santa Maria del Popolo degli Incurabili', 'wikidata': 'Q1030158', 'wikipedia': 'it:Complesso degli Incurabili'}}"
"{'type': 'node', 'id': 7788152939, 'lat': 40.8512633, 'lon': 14.2437395, 'tags': {'addr:city': 'Napoli', 'addr:housenumber': '1', 'addr:postcode': '80135', 'addr:street': 'Via Domenico Cotugno', 'amenity': 'hospital', 'healthcare': 'hospital', 'name': 'ex Ospedale Clinico Gesù e Maria', 'operator': 'Azienda Sanitaria Locale Napoli 1 centro'}}"
"{'type': 'node', 'id': 7791911059, 'lat': 41.4917224, 'lon': 14.4092758, 'tags': {'addr:city': 'San Massimo', 'addr:housenumber': '4', 'addr:postcode': '86027', 'addr:street': 'Via F. Selvaggi', 'amenity': 'pharmacy', 'dispensing': 'yes', 'healthcare': 'pharmacy', 'name': 'Castrilli Dr. Anna Giovannina'}}"
"{'type': 'node', 'id': 7796786359, 'lat': 40.8214103, 'lon': 14.0618981, 'tags': {'amenity': 'pharmacy', 'name': ""Farmacia dell'Arco""}}"
"{'type': 'node', 'id': 7807234135, 'lat': 40.8132177, 'lon': 14.0515733, 'tags': {'amenity': 'pharmacy', 'healthcare': 'pharmacy', 'name': 'Farmacia Comunale'}}"
"{'type': 'node', 'id': 7814049873, 'lat': 40.9198166, 'lon': 14.1903236, 'tags': {'amenity': 'pharmacy', 'dispensing': 'yes', 'healthcare': 'pharmacy', 'name': 'Punto baby'}}"
"{'type': 'node', 'id': 7814049874, 'lat': 40.9231894, 'lon': 14.1861433, 'tags': {'amenity': 'pharmacy', 'dispensing': 'yes', 'healthcare': 'pharmacy'}}"
"{'type': 'node', 'id': 7814049875, 'lat': 40.8979973, 'lon': 14.2028408, 'tags': {'amenity': 'pharmacy', 'dispensing': 'no', 'healthcare': 'pharmacy', 'name': 'Parafarmacia Moderna'}}"
"{'type': 'node', 'id': 7814049876, 'lat': 40.9239861, 'lon': 14.1960845, 'tags': {'amenity': 'pharmacy', 'dispensing': 'no', 'healthcare': 'pharmacy'}}"
"{'type': 'node', 'id': 7814049879, 'lat': 40.9083582, 'lon': 14.2119231, 'tags': {'amenity': 'pharmacy', 'contact:housenumber': '10', 'contact:street': 'Via Salvatore Quasimodo', 'dispensing': 'yes', 'email': 'info@farmaciapaloschi.it', 'healthcare': 'pharmacy', 'level': '0', 'name': 'Paloschi', 'operator': 'Farmacia Paloschi SAS', 'phone': '+39 081 576 4616', 'ref:vatin': 'IT08527871217', 'website': 'https://www.farmaciapaloschi.it/', 'whatsapp': '+39 346 108 9154'}}"
"{'type': 'node', 'id': 7823252883, 'lat': 40.700176, 'lon': 14.7105933, 'tags': {'addr:city': ""Cava de' Tirreni"", 'addr:housenumber': '10', 'addr:postcode': '84013', 'addr:street': 'Via Principe Tommaso di Savoia', 'amenity': 'pharmacy', 'dispensing': 'yes', 'healthcare': 'pharmacy', 'name': 'Parafarmacia Dott.ssa Bisogno'}}"
"{'type': 'node', 'id': 7832886903, 'lat': 40.8178089, 'lon': 14.0713259, 'tags': {'amenity': 'pharmacy', 'dispensing': 'yes', 'healthcare': 'pharmacy', 'name': 'Farmacia del Porto'}}"
"{'type': 'node', 'id': 7858810077, 'lat': 41.0028549, 'lon': 14.4436491, 'tags': {'addr:city': 'Botteghino', 'addr:street': 'Via Napoli', 'amenity': 'pharmacy', 'dispensing': 'yes', 'healthcare': 'pharmacy', 'name': 'Farmacia'}}"
"{'type': 'node', 'id': 7865152280, 'lat': 40.9817286, 'lon': 14.4676494, 'tags': {'addr:city': 'Polvica di Nola', 'addr:postcode': '84010', 'addr:street': 'Via Capitolo', 'amenity': 'pharmacy', 'dispensing': 'yes', 'healthcare': 'pharmacy', 'name': 'Farmacia'}}"
"{'type': 'node', 'id': 7899991347, 'lat': 41.0037351, 'lon': 14.1931729, 'tags': {'addr:city': 'Casaluce', 'addr:street': 'Via Salvador Allende', 'healthcare': 'laboratory', 'name': 'Guardia Medica - Servizio di Continuità Assistenziale'}}"
"{'type': 'node', 'id': 7931893843, 'lat': 40.9934992, 'lon': 14.2538888, 'tags': {'access': 'private', 'amenity': 'hospital', 'healthcare': 'hospital', 'name': 'Ospedale Marines USA', 'name:en': 'Hospital Marines USA'}}"
"{'type': 'node', 'id': 7944696266, 'lat': 40.7478859, 'lon': 14.6149278, 'tags': {'addr:city': 'Pagani', 'addr:housenumber': '149', 'addr:postcode': '84016', 'addr:street': 'Via Alcide De Gasperi', 'amenity': 'pharmacy', 'healthcare': 'pharmacy', 'name': 'Farmacia Dott.ri Borrelli'}}"
"{'type': 'node', 'id': 7976422648, 'lat': 40.8335169, 'lon': 14.2202037, 'tags': {'addr:city': 'Napoli', 'addr:housenumber': '14', 'addr:postcode': '80122', 'addr:street': 'Viale Villa Santa Maria', 'amenity': 'doctors', 'email': 'skcapo@tin.it', 'healthcare': 'doctor', 'healthcare:speciality': 'ophthalmology', 'name': 'Dr. Salvatore Capobianco Oculista Pediatrico'}}"
"{'type': 'node', 'id': 8044014524, 'lat': 40.7908079, 'lon': 14.3651733, 'tags': {'addr:city': 'Torre del Greco', 'addr:housenumber': '149', 'addr:postcode': '80059', 'addr:street': 'Corso Vittorio Emanuele', 'amenity': 'pharmacy', 'healthcare': 'pharmacy', 'name': 'Farma Shop S.r.l. - La Sanitaria'}}"
"{'type': 'node', 'id': 8070831806, 'lat': 40.9129515, 'lon': 14.3054411, 'tags': {'addr:housenumber': '1', 'addr:street': 'Via Vincenzo Cuoco', 'amenity': 'pharmacy', 'healthcare': 'pharmacy', 'name': ""Farmacia Sant'Antonio dei dottori A. & M Della Camera"", 'opening_hours': 'Mo-Fr 09:00-13:30; Sa 09:00-13:30'}}"
"{'type': 'node', 'id': 8122244665, 'lat': 40.9035187, 'lon': 14.2806489, 'tags': {'addr:city': 'Casavatore', 'addr:housenumber': '73', 'addr:postcode': '80020', 'addr:street': 'Via Antonio Locatelli', 'amenity': 'dentist', 'healthcare': 'dentist', 'name': 'Studio Dentistico Di Caprio (Casavatore)', 'operator': 'Dott.ssa Maria Patrizia Di Caprio'}}"
"{'type': 'node', 'id': 8122244666, 'lat': 40.8441332, 'lon': 14.2335182, 'tags': {'addr:city': 'Napoli', 'addr:housenumber': '44', 'addr:postcode': '80127', 'addr:street': 'Via Alessandro Scarlatti', 'amenity': 'dentist', 'healthcare': 'dentist', 'name': 'Studio Dentistico Di Caprio'}}"
"{'type': 'node', 'id': 8196220122, 'lat': 40.842856, 'lon': 14.220563, 'tags': {'addr:city': 'Napoli', 'addr:housenumber': '112', 'addr:postcode': '80127', 'addr:street': 'Via Francesco Cilea', 'amenity': 'dentist', 'contact:facebook': 'https://www.facebook.com/dottcarlo.deldeo', 'email': 'studio.deldeo@gmail.com', 'healthcare': 'dentist', 'name': 'Studio Del Deo', 'operator': 'Carlo Del Deo', 'phone': '+39 081 560 31 49', 'phone:mobile': '+39 377 189 13 03', 'website': 'https://www.studiodeldeo.it/'}}"
