OSM_Data
"{'type': 'node', 'id': 364496915, 'lat': 45.3525259, 'lon': 19.0014475, 'tags': {'amenity': 'pharmacy', 'dispensing': 'no', 'healthcare': 'pharmacy', 'name': 'Joukhadar'}}"
"{'type': 'node', 'id': 525355913, 'lat': 44.5280645, 'lon': 18.6417758, 'tags': {'amenity': 'pharmacy', 'name': 'Apoteka Lijek'}}"
"{'type': 'node', 'id': 652432382, 'lat': 44.5343143, 'lon': 18.6947751, 'tags': {'amenity': 'pharmacy', 'healthcare': 'pharmacy', 'name': 'Mediflor'}}"
"{'type': 'node', 'id': 652432384, 'lat': 44.5340229, 'lon': 18.6964374, 'tags': {'amenity': 'pharmacy', 'drive_through': 'no', 'healthcare': 'pharmacy', 'name': 'Galenplant'}}"
"{'type': 'node', 'id': 652432385, 'lat': 44.5380263, 'lon': 18.6969963, 'tags': {'amenity': 'pharmacy', 'healthcare': 'pharmacy', 'name': 'Eurofarm Edal'}}"
"{'type': 'node', 'id': 652432386, 'lat': 44.5313882, 'lon': 18.708086, 'tags': {'amenity': 'pharmacy', 'name': 'DurPharm'}}"
"{'type': 'node', 'id': 652432388, 'lat': 44.5343097, 'lon': 18.6876801, 'tags': {'amenity': 'pharmacy', 'name': 'Bosnafarm'}}"
"{'type': 'node', 'id': 652432390, 'lat': 44.5348923, 'lon': 18.690681, 'tags': {'amenity': 'pharmacy', 'name': 'Mara Pečet'}}"
"{'type': 'node', 'id': 652432392, 'lat': 44.5343827, 'lon': 18.6899492, 'tags': {'amenity': 'pharmacy', 'name': 'DurPharm'}}"
"{'type': 'node', 'id': 652432394, 'lat': 44.5406463, 'lon': 18.6686161, 'tags': {'amenity': 'pharmacy', 'name': 'Ibn Sina Slatina'}}"
"{'type': 'node', 'id': 652432396, 'lat': 44.5421383, 'lon': 18.6666158, 'tags': {'amenity': 'pharmacy', 'name': 'Higia'}}"
"{'type': 'node', 'id': 652432397, 'lat': 44.5384133, 'lon': 18.6734796, 'tags': {'amenity': 'pharmacy', 'name': 'Apoteka Tabašnice'}}"
"{'type': 'node', 'id': 652432398, 'lat': 44.5375495, 'lon': 18.6773748, 'tags': {'amenity': 'pharmacy', 'healthcare': 'pharmacy', 'name': 'Gradske apoteke Tuzla'}}"
"{'type': 'node', 'id': 652432399, 'lat': 44.5356748, 'lon': 18.6533153, 'tags': {'amenity': 'pharmacy', 'healthcare': 'pharmacy', 'name': 'Tuzlafarm'}}"
"{'type': 'node', 'id': 652432400, 'lat': 44.5388978, 'lon': 18.6582031, 'tags': {'amenity': 'pharmacy', 'healthcare': 'pharmacy', 'name': 'Apoteka Ibn-Sina'}}"
"{'type': 'node', 'id': 652432402, 'lat': 44.5405742, 'lon': 18.6676131, 'tags': {'amenity': 'pharmacy', 'healthcare': 'pharmacy', 'name': 'Gradske Apoteke Tuzla', 'wheelchair': 'no'}}"
"{'type': 'node', 'id': 652432403, 'lat': 44.540826, 'lon': 18.6686268, 'tags': {'amenity': 'pharmacy', 'name': 'Bosnafarm Slatina'}}"
"{'type': 'node', 'id': 653208950, 'lat': 44.5343679, 'lon': 18.6985543, 'tags': {'amenity': 'pharmacy', 'healthcare': 'pharmacy', 'name': 'IbnSina'}}"
"{'type': 'node', 'id': 659721553, 'lat': 44.5523074, 'lon': 18.6935299, 'tags': {'amenity': 'pharmacy', 'name': 'Apoteka Anea'}}"
"{'type': 'node', 'id': 676046499, 'lat': 45.2905882, 'lon': 18.8178797, 'tags': {'amenity': 'pharmacy', 'name': 'Ljekarna Šibalić', 'opening_hours': '24/7'}}"
"{'type': 'node', 'id': 706164315, 'lat': 45.3083757, 'lon': 18.4110465, 'tags': {'amenity': 'pharmacy', 'healthcare': 'pharmacy'}}"
"{'type': 'node', 'id': 797916653, 'lat': 45.3058618, 'lon': 18.4141649, 'tags': {'addr:housenumber': '24', 'addr:postcode': '31400', 'addr:street': 'Pavićeva', 'amenity': 'pharmacy'}}"
"{'type': 'node', 'id': 811038351, 'lat': 44.7913932, 'lon': 18.4746205, 'tags': {'amenity': 'clinic', 'name': 'Ambulanta Srnice Donje', 'operator': 'Dom zdravlja Gradačac'}}"
"{'type': 'node', 'id': 969213794, 'lat': 45.5340409, 'lon': 19.1282488, 'tags': {'amenity': 'pharmacy'}}"
"{'type': 'node', 'id': 1250883771, 'lat': 44.4132965, 'lon': 18.5313442, 'tags': {'addr:city': 'Banovići', 'addr:housenumber': '5', 'addr:postcode': '75290', 'addr:street': 'Alije Dostovića', 'amenity': 'clinic', 'contact:email': 'jzudz.banovici@bih.net.ba', 'contact:fax': '+387 35 871011', 'contact:phone': '+387 35 875525', 'contact:website': 'http://www.dzbanovici.ba', 'name': 'Dom zdravlja Banovići'}}"
"{'type': 'node', 'id': 1261954915, 'lat': 45.0736579, 'lon': 18.6919804, 'tags': {'amenity': 'doctors', 'emergency': 'no', 'healthcare': 'doctor', 'name': 'Poliklinika Panaceja'}}"
"{'type': 'node', 'id': 1312974377, 'lat': 44.8564206, 'lon': 19.1441195, 'tags': {'amenity': 'clinic', 'contact:phone': '+387 55 415222', 'healthcare': 'clinic', 'name': 'Ambulanta Crnjelovo Donje', 'opening_hours': 'Mo-Fr 07:00-14:30', 'operator': 'Dom zdravlja Bijeljina', 'start_date': '1988'}}"
"{'type': 'node', 'id': 1318770103, 'lat': 45.4511929, 'lon': 18.6575999, 'tags': {'amenity': 'pharmacy', 'healthcare': 'pharmacy'}}"
"{'type': 'node', 'id': 1334645140, 'lat': 44.4502617, 'lon': 18.650115, 'tags': {'amenity': 'pharmacy'}}"
"{'type': 'node', 'id': 1334645142, 'lat': 44.4493579, 'lon': 18.6502979, 'tags': {'amenity': 'pharmacy', 'name': 'Gradska Apoteka'}}"
"{'type': 'node', 'id': 1398552355, 'lat': 44.3120301, 'lon': 18.6940862, 'tags': {'amenity': 'clinic', 'healthcare': 'clinic', 'healthcare:speciality': 'general;stomatology', 'name': 'Ambulanta Stupari', 'operator': 'Dom zdravlja Kladanj', 'operator:type': 'government'}}"
"{'type': 'node', 'id': 1485440079, 'lat': 44.5107574, 'lon': 18.8319545, 'tags': {'amenity': 'clinic', 'emergency': 'yes', 'name': 'Ambulanta Hrasno'}}"
"{'type': 'node', 'id': 1557943738, 'lat': 44.5376182, 'lon': 18.527926, 'tags': {'amenity': 'pharmacy', 'name': 'Apoteka Adonis Lukavac'}}"
"{'type': 'node', 'id': 1578206732, 'lat': 44.6361452, 'lon': 18.8412099, 'tags': {'amenity': 'clinic', 'name': 'Dom zdravlja Lopare'}}"
"{'type': 'node', 'id': 1578206739, 'lat': 44.6374846, 'lon': 18.8440062, 'tags': {'amenity': 'pharmacy'}}"
"{'type': 'node', 'id': 1596676070, 'lat': 44.4390464, 'lon': 18.1447063, 'tags': {'amenity': 'pharmacy', 'healthcare': 'pharmacy'}}"
"{'type': 'node', 'id': 1635558238, 'lat': 44.6324779, 'lon': 18.8430299, 'tags': {'amenity': 'pharmacy', 'dispensing': 'no'}}"
"{'type': 'node', 'id': 1693429183, 'lat': 45.5359685, 'lon': 18.6354346, 'tags': {'amenity': 'pharmacy', 'healthcare': 'pharmacy', 'name': 'Ljekarna Hauska'}}"
"{'type': 'node', 'id': 1693969125, 'lat': 44.876993, 'lon': 18.7985212, 'tags': {'amenity': 'pharmacy'}}"
"{'type': 'node', 'id': 1719176112, 'lat': 44.5409768, 'lon': 18.6686421, 'tags': {'amenity': 'pharmacy', 'healthcare': 'pharmacy', 'name': 'Adonis'}}"
"{'type': 'node', 'id': 1719177928, 'lat': 44.5333307, 'lon': 18.6403338, 'tags': {'amenity': 'pharmacy', 'name': 'Apoteka Solana'}}"
"{'type': 'node', 'id': 1725890869, 'lat': 44.5305484, 'lon': 18.5374708, 'tags': {'amenity': 'pharmacy'}}"
"{'type': 'node', 'id': 1758041639, 'lat': 44.8761597, 'lon': 18.7963729, 'tags': {'amenity': 'pharmacy', 'name': 'Apoteka Onion'}}"
"{'type': 'node', 'id': 1758057062, 'lat': 44.7859986, 'lon': 18.697595, 'tags': {'amenity': 'clinic', 'emergency': 'yes', 'name': 'Ambulanta Gornji Rahić'}}"
"{'type': 'node', 'id': 1777845653, 'lat': 44.6428937, 'lon': 18.3765405, 'tags': {'amenity': 'clinic', 'contact:phone': '+387 35 369045', 'name': 'Ambulanta Donja Orahovica', 'operator': 'Dom zdravlja Gračanica'}}"
"{'type': 'node', 'id': 1813925548, 'lat': 44.8755695, 'lon': 18.4291102, 'tags': {'addr:city': 'Gradačac', 'addr:country': 'BA', 'addr:housenumber': 'bb', 'addr:postcode': '76250', 'addr:street': 'Josipa Šibera', 'amenity': 'clinic', 'contact:email': 'dz.grad@bih.net.ba', 'contact:phone': '+387 35 817110', 'contact:website': 'http://dzgradacac.com', 'emergency': 'yes', 'name': 'Dom zdravlja Gradačac'}}"
"{'type': 'node', 'id': 1823016138, 'lat': 44.5370151, 'lon': 18.6774471, 'tags': {'amenity': 'doctors', 'contact:email': 'pasic@vid.ba', 'contact:phone': '+387 61185385', 'emergency': 'yes', 'healthcare': 'doctor', 'healthcare:speciality': 'ophthalmology', 'level': '1', 'name': 'Očna ordinacija Dr Pašić', 'opening_hours': 'Mo,We,Fr 10:00-14:00; Sa 09:00-14:00', 'website': 'http://www.vid.ba'}}"
"{'type': 'node', 'id': 1847112138, 'lat': 44.7615022, 'lon': 19.2257978, 'tags': {'amenity': 'pharmacy', 'drive_through': 'no', 'name': 'Lawanda', 'wheelchair': 'no'}}"
"{'type': 'node', 'id': 2021917543, 'lat': 44.753018, 'lon': 19.218012, 'tags': {'addr:city': 'Bijeljina', 'addr:country': 'BA', 'addr:housenumber': '14a', 'addr:postcode': '76000', 'addr:street': 'Srpske vojske', 'amenity': 'clinic', 'contact:phone': '+387 55 207480', 'contact:website': 'http://medical-bn.com', 'emergency': 'no', 'name': 'Specijalistička ambulanta medicine rada Medical', 'opening_hours': 'Mo-Fr 08:00-12:00, 15:00-18:00; Sa 08:00-13:00'}}"
"{'type': 'node', 'id': 2070602512, 'lat': 44.6984606, 'lon': 18.3031349, 'tags': {'addr:city': 'Gračanica', 'addr:country': 'BA', 'addr:housenumber': '50', 'addr:postcode': '75320', 'addr:street': 'Mehmeda Ahmedbegovića', 'amenity': 'hospital', 'contact:email': 'kontakt@bolnica-gracanica.com', 'contact:phone': '+387 35 702032', 'contact:website': 'http://www.obgr.net', 'emergency': 'yes', 'image': 'http://bkc-gracanica.ba/wp-content/uploads/2015/07/onama2.jpg', 'name': 'Opća bolnica dr. Mustafa Beganović Gračanica'}}"
"{'type': 'node', 'id': 2091907612, 'lat': 45.2203608, 'lon': 19.3641566, 'tags': {'addr:city': 'Ilok', 'addr:housenumber': '49', 'addr:postcode': '32236', 'addr:street': 'Ulica Josipa Jurja Strossmayera', 'amenity': 'doctors', 'healthcare': 'doctor', 'healthcare:speciality': 'general', 'name': 'Ambulanta', 'operator': 'Dom zdravlja Vukovar', 'operator:type': 'public'}}"
"{'type': 'node', 'id': 2262134069, 'lat': 44.4428668, 'lon': 18.8739498, 'tags': {'amenity': 'pharmacy', 'name': 'Apoteka'}}"
"{'type': 'node', 'id': 2262362055, 'lat': 44.4791788, 'lon': 18.7864488, 'tags': {'amenity': 'clinic', 'name': 'Ambulanta Tojšići', 'operator': 'Dom zdravlja Kalesija'}}"
"{'type': 'node', 'id': 2267528213, 'lat': 44.8298787, 'lon': 18.7243942, 'tags': {'amenity': 'pharmacy', 'name': 'Apoteka Zdravlje 9'}}"
"{'type': 'node', 'id': 2271222653, 'lat': 44.8300557, 'lon': 18.7226856, 'tags': {'amenity': 'pharmacy', 'name': 'Apoteka Onion'}}"
"{'type': 'node', 'id': 2301991427, 'lat': 45.2938153, 'lon': 19.1389057, 'tags': {'healthcare': 'centre', 'healthcare:speciality': 'general', 'int_name': 'Ambulanta', 'name': 'Амбуланта', 'name:sr': 'Амбуланта', 'name:sr-Latn': 'Ambulanta'}}"
"{'type': 'node', 'id': 2301991437, 'lat': 45.2938323, 'lon': 19.139048, 'tags': {'amenity': 'pharmacy', 'dispensing': 'yes', 'healthcare': 'pharmacy'}}"
"{'type': 'node', 'id': 2308953138, 'lat': 44.4727387, 'lon': 18.7686344, 'tags': {'amenity': 'clinic', 'emergency': 'no', 'name': 'Ambulanta Masle'}}"
"{'type': 'node', 'id': 2371645062, 'lat': 44.5324645, 'lon': 18.7013227, 'tags': {'amenity': 'clinic', 'emergency': 'yes', 'name': 'Ambulanta Sjenjak'}}"
"{'type': 'node', 'id': 2390508608, 'lat': 45.1247609, 'lon': 19.2241813, 'tags': {'addr:city': 'Шид', 'addr:postcode': '22240', 'addr:street': 'Алексе Сантића', 'amenity': 'pharmacy', 'healthcare': 'pharmacy', 'name': 'Lek', 'phone': '+381 22 716 769', 'website': 'http://www.connectura.rs/'}}"
"{'type': 'node', 'id': 2458293952, 'lat': 44.8713781, 'lon': 18.8178876, 'tags': {'amenity': 'dentist', 'healthcare': 'dentist', 'name': 'Stomatološka ordinacija ""Dr Branislav""'}}"
"{'type': 'node', 'id': 2597389951, 'lat': 45.4108715, 'lon': 19.2991991, 'tags': {'amenity': 'hospital', 'emergency': 'no', 'int_name': 'Ambulanta', 'name': 'Амбуланта', 'name:sk': 'Dom zdravia', 'name:sr': 'Амбуланта', 'name:sr-Latn': 'Ambulanta', 'phone': '+38121774144'}}"
"{'type': 'node', 'id': 2603568031, 'lat': 44.7201798, 'lon': 18.8215012, 'tags': {'addr:city': 'Čelić', 'addr:country': 'BA', 'addr:housenumber': '41', 'addr:postcode': '75246', 'addr:street': 'Šadić Zlatana Zlaje', 'amenity': 'clinic', 'contact:email': 'domzdravljacelic@bih.net.ba', 'contact:fax': '+387 35 366301', 'contact:phone': '+387 35 366300', 'contact:website': 'http://dzcelic.com', 'name': 'Dom zdravlja Čelić'}}"
"{'type': 'node', 'id': 2623487278, 'lat': 44.7212416, 'lon': 18.8193905, 'tags': {'amenity': 'pharmacy', 'name': 'Centar'}}"
"{'type': 'node', 'id': 2623487279, 'lat': 44.7199691, 'lon': 18.8218768, 'tags': {'amenity': 'pharmacy', 'name': 'Alma'}}"
"{'type': 'node', 'id': 2654439102, 'lat': 44.7200111, 'lon': 18.8213215, 'tags': {'amenity': 'clinic'}}"
"{'type': 'node', 'id': 2677944900, 'lat': 44.7221561, 'lon': 18.8261938, 'tags': {'amenity': 'pharmacy', 'name': 'Poljoprivredna apoteka'}}"
"{'type': 'node', 'id': 2693527007, 'lat': 44.729896, 'lon': 18.816423, 'tags': {'amenity': 'pharmacy', 'name': 'Poljoprivredna apoteka'}}"
"{'type': 'node', 'id': 2743638811, 'lat': 44.6876705, 'lon': 18.6917967, 'tags': {'addr:city': 'Šibošnica', 'addr:country': 'BA', 'addr:housenumber': '3', 'addr:place': 'Humci', 'addr:postcode': '75245', 'addr:street': 'Alosmana Bašića', 'amenity': 'clinic', 'contact:phone': '+387 35 366324', 'name': 'Područna ambulanta Humci', 'opening_hours': '07:30-10:00, 10:30-16:00', 'operator': 'Dom zdravlja Čelić'}}"
"{'type': 'node', 'id': 2743638814, 'lat': 44.68768, 'lon': 18.6917216, 'tags': {'amenity': 'pharmacy', 'name': 'Zdravstveni dom'}}"
"{'type': 'node', 'id': 2757221312, 'lat': 44.739164, 'lon': 18.7522878, 'tags': {'addr:housenumber': '31', 'addr:postcode': '75246', 'addr:street': 'Mr Abdulaha Kovačevića', 'amenity': 'clinic', 'contact:phone': '+387 35 366325', 'name': 'Ambulanta Vražići', 'opening_hours': '07:30-10:00, 10:30-16:00', 'operator': 'Dom zdravlja Čelić'}}"
"{'type': 'node', 'id': 2757221316, 'lat': 44.7391049, 'lon': 18.7524327, 'tags': {'amenity': 'pharmacy'}}"
"{'type': 'node', 'id': 2781164109, 'lat': 45.2098315, 'lon': 18.4055517, 'tags': {'amenity': 'pharmacy', 'healthcare': 'pharmacy'}}"
"{'type': 'node', 'id': 2849475659, 'lat': 44.5310597, 'lon': 18.6905781, 'tags': {'amenity': 'pharmacy', 'name': 'Eurofarm Edal', 'wheelchair': 'yes'}}"
"{'type': 'node', 'id': 2849475660, 'lat': 44.5310213, 'lon': 18.6923194, 'tags': {'amenity': 'pharmacy', 'name': 'Ibn Sina', 'wheelchair': 'yes'}}"
"{'type': 'node', 'id': 2979268513, 'lat': 45.3754813, 'lon': 18.9539638, 'tags': {'amenity': 'pharmacy', 'healthcare': 'pharmacy', 'name': 'Ljekarne Joukhadar'}}"
"{'type': 'node', 'id': 2995040514, 'lat': 45.4860685, 'lon': 18.982451, 'tags': {'amenity': 'pharmacy', 'healthcare': 'pharmacy'}}"
"{'type': 'node', 'id': 3010080113, 'lat': 45.4105662, 'lon': 19.3001575, 'tags': {'amenity': 'pharmacy', 'healthcare': 'pharmacy', 'name': 'Janja'}}"
"{'type': 'node', 'id': 3111851200, 'lat': 45.3755753, 'lon': 18.9638323, 'tags': {'amenity': 'pharmacy', 'dispensing': 'no'}}"
"{'type': 'node', 'id': 3114958018, 'lat': 45.1637797, 'lon': 19.1561124, 'tags': {'addr:city': 'Tovarnik', 'addr:housenumber': '29', 'addr:postcode': '32249', 'addr:street': 'Ulica bana Josipa Jelačića', 'amenity': 'pharmacy', 'healthcare': 'pharmacy', 'name': 'Ljekarna Jonagold', 'phone': '032 52 49 90', 'website': 'https://www.ljekarne-joukhadar.hr/'}}"
"{'type': 'node', 'id': 3139898000, 'lat': 45.225319, 'lon': 18.7404449, 'tags': {'addr:city': 'Andrijaševci', 'addr:housenumber': '19', 'addr:postcode': '32271', 'addr:street': 'Ulica Matije Gupca', 'amenity': 'pharmacy', 'healthcare': 'pharmacy', 'name': 'Tripolski'}}"
"{'type': 'node', 'id': 3172338389, 'lat': 45.23407, 'lon': 18.653331, 'tags': {'addr:housenumber': '2', 'addr:street': 'Braće Radić', 'amenity': 'doctors', 'healthcare': 'doctor', 'healthcare:speciality': 'general', 'name': 'Ambulanta Retkovci', 'operator': 'Dom zdravlja Vinkovci', 'operator:type': 'public'}}"
"{'type': 'node', 'id': 3220288380, 'lat': 45.2560558, 'lon': 18.9113541, 'tags': {'amenity': 'pharmacy'}}"
"{'type': 'node', 'id': 3287221472, 'lat': 45.5437534, 'lon': 18.7189739, 'tags': {'amenity': 'pharmacy', 'name': 'Ljekarna'}}"
"{'type': 'node', 'id': 3298393848, 'lat': 45.2267322, 'lon': 19.1681562, 'tags': {'amenity': 'doctors', 'healthcare': 'doctor', 'healthcare:speciality': 'general', 'name': 'Ambulanta Lovas', 'operator': 'Dom zdravlja Vukovar', 'operator:type': 'public', 'website': 'https://dzvukovar.hr/2014/09/11/tatjana-lipovac-dr-med-spec-oftalmolog/'}}"
"{'type': 'node', 'id': 3299929997, 'lat': 45.1146307, 'lon': 18.5365382, 'tags': {'addr:housenumber': '5', 'addr:street': 'Ulica kralja Tomislava', 'amenity': 'doctors', 'healthcare': 'doctor', 'healthcare:speciality': 'general', 'name': 'Ordinacija opće medicine', 'operator': 'Dom zdravlja Županja', 'operator:type': 'public'}}"
"{'type': 'node', 'id': 3529390269, 'lat': 44.5314935, 'lon': 19.2230328, 'tags': {'addr:city': 'Лозница', 'addr:housenumber': '7', 'addr:postcode': '15300', 'addr:street': 'Гимназијска', 'amenity': 'pharmacy', 'name': 'Galen', 'name:en': 'Galen', 'name:sr': 'Гален', 'opening_hours': 'Mo-Sa 07:00-21:00', 'phone': '+38115877356'}}"
"{'type': 'node', 'id': 3529399933, 'lat': 44.5316967, 'lon': 19.2229687, 'tags': {'addr:city': 'Лозница', 'addr:postcode': '15300', 'addr:street': 'Гимназијска', 'amenity': 'pharmacy', 'healthcare': 'pharmacy'}}"
"{'type': 'node', 'id': 3611401737, 'lat': 44.5295374, 'lon': 18.6907321, 'tags': {'addr:city': 'Tuzla', 'addr:country': 'BA', 'addr:housenumber': 'B5', 'addr:place': 'Stupine', 'addr:postcode': '75000', 'amenity': 'clinic', 'contact:email': 'mediscan@mediscan.ba', 'contact:phone': '+387 35 261254', 'contact:website': 'http://www.mediscan.ba', 'emergency': 'no', 'name': 'Poliklinika Mediscan', 'opening_hours': 'Mo-Sa 09:00-18:00', 'wheelchair': 'yes'}}"
"{'type': 'node', 'id': 3623394326, 'lat': 45.2265256, 'lon': 18.7412284, 'tags': {'addr:city': 'Andrijaševci', 'addr:housenumber': '2', 'addr:postcode': '32271', 'addr:street': 'Ulica Matije Gupca', 'amenity': 'doctors', 'healthcare': 'doctor', 'name': 'Ambulanta', 'operator': 'Dom zdravlja Vinkovci', 'operator:type': 'public'}}"
"{'type': 'node', 'id': 3631681769, 'lat': 44.9593712, 'lon': 18.301628, 'tags': {'addr:city': 'Modriča', 'addr:country': 'BA', 'addr:housenumber': '15', 'addr:postcode': '74480', 'addr:street': 'Svetosavska', 'amenity': 'clinic', 'contact:phone': '+387 53 811722', 'contact:website': 'https://www.facebook.com/jzudzmodrica', 'name': 'Dom zdravlja Modriča'}}"
"{'type': 'node', 'id': 3631681776, 'lat': 44.9588313, 'lon': 18.301682, 'tags': {'amenity': 'pharmacy', 'name': 'Apoteka'}}"
"{'type': 'node', 'id': 3631682866, 'lat': 44.9599021, 'lon': 18.3022443, 'tags': {'amenity': 'pharmacy', 'name': 'Apoteka'}}"
"{'type': 'node', 'id': 3644027919, 'lat': 44.8449231, 'lon': 18.9557053, 'tags': {'amenity': 'clinic', 'healthcare': 'clinic', 'name': 'Porodična ambulanta Brezovo Polje'}}"
"{'type': 'node', 'id': 3764519355, 'lat': 44.4890718, 'lon': 18.5684847, 'tags': {'amenity': 'pharmacy', 'name': 'Eurofarm'}}"
"{'type': 'node', 'id': 3786901234, 'lat': 44.698168, 'lon': 18.3016637, 'tags': {'addr:city': 'Gračanica', 'addr:country': 'BA', 'addr:housenumber': '40', 'addr:postcode': '75320', 'addr:street': 'Mehmeda Ahmedbegovića', 'amenity': 'clinic', 'contact:email': 'info@dzgracanica.com', 'contact:fax': '+387 35 369201', 'contact:phone': '+387 35 369209', 'contact:website': 'http://www.dzgracanica.com', 'name': 'Dom zdravlja Gračanica'}}"
"{'type': 'node', 'id': 3790100348, 'lat': 44.3872791, 'lon': 19.1013692, 'tags': {'addr:city': 'Zvornik', 'addr:country': 'BA', 'addr:housenumber': '2', 'addr:postcode': '75400', 'addr:street': 'Sime Perića', 'amenity': 'hospital', 'contact:email': 'obzv3@teol.net', 'contact:phone': '+387 56 211112', 'contact:website': 'http://www.bolnicazvornik.com', 'emergency': 'no', 'name': 'Bolnica Zvornik'}}"
"{'type': 'node', 'id': 3792107947, 'lat': 44.7030431, 'lon': 18.3101145, 'tags': {'addr:city': 'Gračanica', 'addr:postcode': '75320', 'addr:street': '22. divizije', 'amenity': 'pharmacy', 'name': 'Apoteka Ćerimagić'}}"
"{'type': 'node', 'id': 3796139680, 'lat': 44.7103956, 'lon': 18.3104845, 'tags': {'addr:city': 'Gračanica', 'addr:street': 'Koturaška', 'amenity': 'pharmacy', 'name': 'Apoteka Lamele'}}"
"{'type': 'node', 'id': 3810040409, 'lat': 44.5360614, 'lon': 18.5282037, 'tags': {'addr:city': 'Lukavac', 'addr:postcode': '75300', 'addr:street': 'Sarajevska bb', 'amenity': 'pharmacy', 'name': 'Dežurna apoteka Adonis', 'opening_hours': '00:00-24:00'}}"
"{'type': 'node', 'id': 3994104353, 'lat': 44.7701692, 'lon': 18.6588756, 'tags': {'addr:housenumber': 'bb', 'addr:place': 'Maoča', 'addr:postcode': '76208', 'amenity': 'clinic', 'healthcare': 'clinic', 'name': 'Zdravstvena stanica Maoča', 'opening_hours': 'Mo-Su 08:00-20:00', 'operator': 'Zdravstveni centar Brčko', 'phone': '+387 49 520902'}}"
"{'type': 'node', 'id': 4024229902, 'lat': 44.5439528, 'lon': 18.6624414, 'tags': {'addr:city': 'Tuzla', 'addr:country': 'BA', 'addr:housenumber': '25', 'addr:place': 'Dragodol', 'addr:postcode': '75000', 'amenity': 'doctors', 'contact:email': 'ordinacijasalustuzla@gmail.com', 'contact:phone': '+387 35 289500', 'contact:website': 'http://www.salustuzla.com.ba', 'emergency': 'no', 'healthcare': 'doctor', 'healthcare:speciality': 'general', 'name': 'Ordinacija Salus', 'official_name': 'Privatna ordinacija porodične medicine Salus', 'opening_hours': 'Mo-Fr 08:00-15:30'}}"
"{'type': 'node', 'id': 4084815074, 'lat': 44.5413057, 'lon': 18.6680995, 'tags': {'amenity': 'pharmacy', 'name': 'Gradske apoteke'}}"
"{'type': 'node', 'id': 4090168310, 'lat': 44.5382092, 'lon': 18.6772436, 'tags': {'addr:city': 'Tuzla', 'addr:country': 'BA', 'addr:housenumber': '5', 'addr:postcode': '75000', 'addr:street': 'Turalibegova', 'amenity': 'clinic', 'contact:email': 'berz@bih.net.ba', 'contact:phone': '+387 62202201', 'contact:website': 'https://drberberovic.ba', 'healthcare': 'clinic', 'healthcare:speciality': 'plastic_surgery', 'name': 'Berberović', 'opening_hours': '09:30-17:30'}}"
"{'type': 'node', 'id': 4095097081, 'lat': 44.5335232, 'lon': 18.6917318, 'tags': {'addr:housenumber': '31', 'addr:street': 'Aleja Alije Izetbegovića', 'amenity': 'pharmacy', 'name': 'Apotheke'}}"
"{'type': 'node', 'id': 4128377039, 'lat': 45.0584731, 'lon': 18.5896636, 'tags': {'addr:city': 'Domaljevac', 'addr:housenumber': 'bb', 'addr:postcode': '76233', 'addr:street': '104. brigade Hrvatskog vijeća odbrane', 'amenity': 'clinic', 'emergency': 'yes', 'name': 'Dom zdravlja Domaljevac-Šamac'}}"
"{'type': 'node', 'id': 4176309397, 'lat': 45.1298516, 'lon': 19.2278379, 'tags': {'amenity': 'pharmacy', 'healthcare': 'pharmacy', 'int_name': 'Herba', 'name': 'Херба'}}"
"{'type': 'node', 'id': 4176368600, 'lat': 45.1264205, 'lon': 19.2246594, 'tags': {'amenity': 'pharmacy', 'brand': 'Benu', 'brand:wikidata': 'Q62562792', 'healthcare': 'pharmacy', 'name': 'Benu'}}"
"{'type': 'node', 'id': 4201954761, 'lat': 44.6364873, 'lon': 18.841698, 'tags': {'amenity': 'pharmacy'}}"
"{'type': 'node', 'id': 4201958238, 'lat': 44.6369654, 'lon': 18.8428869, 'tags': {'amenity': 'pharmacy'}}"
"{'type': 'node', 'id': 4239242589, 'lat': 45.1860997, 'lon': 18.2959798, 'tags': {'amenity': 'pharmacy', 'healthcare': 'pharmacy', 'name': 'Ljekarne Brod'}}"
"{'type': 'node', 'id': 4303844986, 'lat': 44.5321141, 'lon': 18.7001876, 'tags': {'addr:city': 'Tuzla', 'addr:country': 'BA', 'addr:housenumber': '26', 'addr:postcode': '75000', 'addr:street': 'Ismeta Mujezinovića', 'amenity': 'clinic', 'contact:email': 'info@vasezdravlje.ba', 'contact:phone': '+387 35 277291', 'contact:website': 'http://www.vasezdravlje.ba', 'description': 'Privatna zdravstvena ustanova Poliklinika VAŠE ZDRAVLJE Tuzla www.vasezdravlje.ba/v2/ 035277291', 'name': 'Poliklinika Vaše zdravlje'}}"
"{'type': 'node', 'id': 4304194129, 'lat': 44.5278807, 'lon': 18.7066893, 'tags': {'addr:city': 'Tuzla', 'addr:country': 'BA', 'addr:housenumber': '8', 'addr:postcode': '75000', 'addr:street': 'Alekse Šantića', 'amenity': 'hospital', 'contact:email': 'info@mib.institute', 'contact:phone': '+387 35 309100', 'contact:website': 'https://mib.institute/', 'emergency': 'yes', 'healthcare': 'hospital', 'healthcare:speciality': 'cardiology;orthodontics;radiology;plastic_surgery;abortion;gastroenterology;blood_check;gynaecology;urology;cardiothoracic_surgery;pulmonology', 'name': 'Medical Institute Bayer', 'name:en': 'Medical institute Bayer', 'opening_hours': 'Mo-Fr 07:00-18:00'}}"
"{'type': 'node', 'id': 4304230705, 'lat': 44.5285946, 'lon': 18.729954, 'tags': {'addr:city': 'Tuzla', 'addr:housenumber': '7', 'addr:postcode': '75207', 'addr:street': '3.Tuzlanske brigade', 'amenity': 'clinic', 'contact:email': 'info@plavapoliklinika.ba', 'contact:phone': '+387 35 393111', 'contact:website': 'http://www.plavapoliklinika.ba', 'description': 'Porodična zdravstvena ustanova sa centralnim sjedištem u Tuzli i manjom ispostavom u Sarajevu Sklopljen ugovor sa Zavodom za javno zdravstvo o pružanju CT i MRI pretraga Radi preko 200 zdravstvenih pretraga', 'emergency': 'yes', 'healthcare:speciality': 'general', 'name': 'Plava poliklinika', 'official_name': 'Porodična zdravstvena ustanova Plava poliklinika', 'opening_hours': 'Mo-Sa 08:00-19:00; Su 09:00-17:00'}}"
"{'type': 'node', 'id': 4304343650, 'lat': 44.5324896, 'lon': 18.7002954, 'tags': {'addr:city': 'Tuzla', 'addr:housenumber': '28', 'addr:postcode': '75000', 'addr:street': 'Ismeta Mujezinovića', 'amenity': 'pharmacy', 'check_date:opening_hours': '2023-04-13', 'description': 'apoteka_sjenjak@bih.net.ba', 'drive_through': 'no', 'name': ""Apoteka 'Sjenjak'"", 'opening_hours': '08:00-19:00', 'operator': ""JZU 'Gradske Apoteke' Tuzla""}}"
"{'type': 'node', 'id': 4304494617, 'lat': 44.5283547, 'lon': 18.7046716, 'tags': {'addr:city': 'Tuzla', 'addr:country': 'BA', 'addr:housenumber': 'bb', 'addr:postcode': '75000', 'addr:street': 'Izeta Sarajlića', 'amenity': 'clinic', 'contact:phone': '+387 35 306646', 'healthcare': 'clinic', 'healthcare:speciality': 'pulmonology', 'name': 'Klinika za plućne bolesti', 'operator': 'Univerzitetski klinički centar Tuzla'}}"
"{'type': 'node', 'id': 4304693103, 'lat': 44.5329773, 'lon': 18.700911, 'tags': {'addr:city': 'Tuzla', 'addr:housenumber': '29', 'addr:postcode': '75000', 'addr:street': 'Ismeta Mujezinovića', 'amenity': 'pharmacy', 'check_date:opening_hours': '2023-04-13', 'description': '035 278-183', 'drive_through': 'no', 'name': 'Apoteka Sjenjak', 'opening_hours': '08:00-20:00', 'operator': 'PZU APOTEKA IBN-SINA'}}"
"{'type': 'node', 'id': 4337607089, 'lat': 44.3650791, 'lon': 19.3635054, 'tags': {'amenity': 'pharmacy', 'healthcare': 'pharmacy', 'int_name': 'ZU Loznica', 'name': 'ЗУ Лозница', 'name:sr-Latn': 'ZU Loznica'}}"
"{'type': 'node', 'id': 4339552147, 'lat': 45.0552973, 'lon': 18.461057, 'tags': {'addr:city': 'Šamac', 'addr:country': 'BA', 'addr:housenumber': '70', 'addr:postcode': '76230', 'addr:street': 'Cara Dušana', 'amenity': 'clinic', 'contact:fax': '+387 54 621652', 'contact:phone': '+387 54 621650', 'contact:website': 'https://www.nephrocare.rs', 'emergency': 'no', 'healthcare': 'clinic', 'healthcare:speciality': 'endocrinology', 'name': 'Centar za dijalizu', 'operator': 'Fresenius Medical Care'}}"
"{'type': 'node', 'id': 4356109089, 'lat': 44.8311273, 'lon': 18.7197486, 'tags': {'amenity': 'clinic', 'name': 'Ambulanta Brka'}}"
"{'type': 'node', 'id': 4375893397, 'lat': 44.5307894, 'lon': 19.2217597, 'tags': {'addr:postcode': '15300', 'addr:street': 'Јована Цвијића', 'amenity': 'pharmacy', 'name': 'TG Pharm Melem', 'name:en': 'TG Pharm Melem', 'opening_hours': 'Mo-Sa 07:00-21:00', 'phone': '+38115884178'}}"
"{'type': 'node', 'id': 4375893697, 'lat': 44.652889, 'lon': 19.3112058, 'tags': {'addr:housenumber': '10', 'addr:postcode': '15307', 'addr:street': 'Краља Петра 1.', 'amenity': 'pharmacy', 'name': 'TG Pharm MENTA', 'name:en': 'TG Pharm MENTA', 'name:sr-Latn': 'TG Pharm MENTA', 'opening_hours': 'Mo-Sa 07:00-21:00', 'phone': '+38115840161', 'ref:RS:kucni_broj': '5103805'}}"
"{'type': 'node', 'id': 4375928692, 'lat': 44.3653042, 'lon': 19.3639842, 'tags': {'addr:housenumber': '4', 'addr:postcode': '15314', 'addr:street': 'Владе Зечевића', 'amenity': 'pharmacy', 'healthcare': 'pharmacy', 'name': 'TG Pharm Melisa', 'name:en': 'TG Pharm Melisa', 'name:sr-Latn': 'TG Pharm Melisa', 'opening_hours': 'Mo-Sa 07:00-21:00', 'phone': '+38115583036', 'ref:RS:kucni_broj': '4960271'}}"
"{'type': 'node', 'id': 4375944789, 'lat': 44.5330629, 'lon': 19.2149601, 'tags': {'addr:postcode': '15300', 'amenity': 'pharmacy', 'name': 'TG Pharm HERBA', 'name:en': 'TG Pharm HERBA', 'name:sr-Latn': 'TG Pharm HERBA', 'opening_hours': 'Mo-Sa 07:00-20:00', 'phone': '+38115881007'}}"
"{'type': 'node', 'id': 4375947389, 'lat': 44.5149116, 'lon': 19.1539089, 'tags': {'addr:housenumber': '122', 'addr:postcode': '15316', 'addr:street': 'Маршала Тита', 'amenity': 'pharmacy', 'name': 'TG Pharm ALTEA', 'name:en': 'TG Pharm ALTEA', 'name:sr-Latn': 'TG Pharm ALTEA', 'opening_hours': 'Mo-Sa 07:00-21:00', 'phone': '+38115820216', 'ref:RS:kucni_broj': '5107053'}}"
"{'type': 'node', 'id': 4376023090, 'lat': 44.6975962, 'lon': 18.3012143, 'tags': {'addr:city': 'Gračanica', 'addr:country': 'BA', 'addr:housenumber': 'bb', 'addr:postcode': '75320', 'addr:street': 'Patriotske lige', 'amenity': 'pharmacy', 'description': 'dežurna apoteka', 'name': 'Gradska apoteka', 'opening_hours': '24/7', 'phone': '+387 35 702066', 'ref': '1'}}"
"{'type': 'node', 'id': 4414731301, 'lat': 44.5355508, 'lon': 19.236458, 'tags': {'addr:housenumber': '52', 'addr:postcode': '15300', 'addr:street': 'Војводе Путника', 'amenity': 'pharmacy', 'healthcare': 'pharmacy', 'name': 'TG Pharm KALE 4', 'name:en': 'TG Pharm KALE 4', 'name:sr-Latn': 'TG Pharm KALE 4', 'opening_hours': 'Mo-Sa 07:00-21:00', 'phone': '+38115878710', 'ref:RS:kucni_broj': '5111101'}}"
"{'type': 'node', 'id': 4594880024, 'lat': 44.4410156, 'lon': 18.616253, 'tags': {'amenity': 'clinic', 'name': 'Ambulanta Živinice Gornje'}}"
"{'type': 'node', 'id': 4689995842, 'lat': 44.5343463, 'lon': 18.6882319, 'tags': {'amenity': 'clinic', 'healthcare': 'clinic', 'name': 'Ambulanta Mikrostanica', 'wheelchair': 'yes'}}"
"{'type': 'node', 'id': 4707366593, 'lat': 44.9578654, 'lon': 18.2989418, 'tags': {'addr:postcode': '74480', 'addr:street': 'Gavrila Principa', 'amenity': 'pharmacy', 'name': 'Mentha', 'name:en': 'Mentha', 'opening_hours': 'Mo-Sa 08:00-21:00'}}"
"{'type': 'node', 'id': 4790620860, 'lat': 45.2552132, 'lon': 18.3994757, 'tags': {'addr:city': 'Piškorevci', 'addr:housenumber': '3', 'addr:postcode': '31417', 'addr:street': 'Preobraženski trg', 'amenity': 'clinic', 'healthcare': 'clinic', 'name': 'Lokalna ambulanta Piškorevci'}}"
"{'type': 'node', 'id': 4824429022, 'lat': 45.0283407, 'lon': 18.7044624, 'tags': {'addr:street': 'Vikend put', 'amenity': 'clinic', 'name': 'Poliklinika Sunce', 'opening_hours': 'Mo-Sa'}}"
"{'type': 'node', 'id': 5032818228, 'lat': 44.7097674, 'lon': 19.4229553, 'tags': {'amenity': 'pharmacy'}}"
"{'type': 'node', 'id': 5381209599, 'lat': 44.7054253, 'lon': 18.49041, 'tags': {'amenity': 'pharmacy'}}"
"{'type': 'node', 'id': 5385730174, 'lat': 44.5327139, 'lon': 18.6397755, 'tags': {'amenity': 'clinic', 'contact:phone': '+387 35 303630', 'fixme': 'fix position within building', 'healthcare': 'clinic', 'healthcare:speciality': 'physiatry', 'name': 'Klinika za fizikalnu terapiju i rehabilitaciju', 'operator': 'Univerzitetski klinički centar Tuzla'}}"
"{'type': 'node', 'id': 5385730175, 'lat': 44.5326412, 'lon': 18.6395583, 'tags': {'amenity': 'clinic', 'fixme': 'fix position within building', 'healthcare': 'clinic', 'healthcare:speciality': 'orthotics', 'name': 'Odjeljenje za protetiku i ortotiku', 'operator': 'Univerzitetski klinički centar Tuzla'}}"
"{'type': 'node', 'id': 5567608421, 'lat': 44.53492, 'lon': 18.68697, 'tags': {'amenity': 'pharmacy', 'name': 'Apoteka'}}"
"{'type': 'node', 'id': 5597217321, 'lat': 44.6692582, 'lon': 18.7338425, 'tags': {'amenity': 'pharmacy', 'healthcare': 'pharmacy', 'name': 'Medex-Pharm', 'opening_hours': 'Mo-Fr 07:30-16:00'}}"
"{'type': 'node', 'id': 5625338152, 'lat': 44.5358248, 'lon': 18.6533085, 'tags': {'amenity': 'pharmacy', 'dispensing': 'yes', 'healthcare': 'pharmacy', 'name': 'Medex-Pharm'}}"
"{'type': 'node', 'id': 5647950519, 'lat': 45.5028895, 'lon': 19.2573933, 'tags': {'amenity': 'pharmacy', 'dispensing': 'yes', 'healthcare': 'pharmacy'}}"
"{'type': 'node', 'id': 5647950520, 'lat': 45.5073748, 'lon': 19.2604271, 'tags': {'amenity': 'pharmacy', 'dispensing': 'yes', 'healthcare': 'pharmacy'}}"
"{'type': 'node', 'id': 5760307621, 'lat': 44.8077858, 'lon': 19.4338837, 'tags': {'amenity': 'pharmacy', 'healthcare': 'pharmacy', 'name': 'Rajić'}}"
"{'type': 'node', 'id': 5764507906, 'lat': 45.2937816, 'lon': 18.8077086, 'tags': {'amenity': 'pharmacy', 'name': 'Kalenić'}}"
"{'type': 'node', 'id': 5764596835, 'lat': 44.7858053, 'lon': 19.371922, 'tags': {'amenity': 'pharmacy'}}"
"{'type': 'node', 'id': 5775482777, 'lat': 45.3667208, 'lon': 18.9749457, 'tags': {'amenity': 'pharmacy'}}"
"{'type': 'node', 'id': 5908841347, 'lat': 44.6910472, 'lon': 18.9933604, 'tags': {'amenity': 'doctors', 'healthcare': 'doctor'}}"
"{'type': 'node', 'id': 6132159070, 'lat': 44.5377455, 'lon': 18.6548331, 'tags': {'amenity': 'pharmacy', 'dispensing': 'yes', 'healthcare': 'pharmacy', 'name': 'Apoteka Ibn-Sina'}}"
"{'type': 'node', 'id': 6167605344, 'lat': 44.5302566, 'lon': 18.6947927, 'tags': {'amenity': 'dentist', 'healthcare': 'dentist'}}"
"{'type': 'node', 'id': 6176726022, 'lat': 44.5310166, 'lon': 18.7154831, 'tags': {'check_date': '2023-04-11', 'healthcare': 'hospice', 'name': 'Ambulanta Slavinovići'}}"
"{'type': 'node', 'id': 6327134986, 'lat': 44.5294019, 'lon': 18.6942843, 'tags': {'addr:street': 'Mehmedalije Maka Dizdara', 'amenity': 'pharmacy', 'name': 'Ibn Sina'}}"
"{'type': 'node', 'id': 6388743381, 'lat': 44.5312893, 'lon': 18.6891483, 'tags': {'check_date': '2023-04-13', 'healthcare': 'yes', 'name': '""Dr Jahić"" - kardiovaskularni centar'}}"
"{'type': 'node', 'id': 6418946900, 'lat': 45.4876387, 'lon': 18.6731192, 'tags': {'amenity': 'pharmacy', 'dispensing': 'yes', 'email': 'antunovac@ljekarne-srce.hr', 'healthcare': 'pharmacy', 'name': 'Ljekarna Antunovac', 'operator': 'Ljekarne Srce', 'phone': '+385 (0)31 278 471'}}"
"{'type': 'node', 'id': 6419359233, 'lat': 44.5310185, 'lon': 18.6498449, 'tags': {'amenity': 'clinic', 'healthcare': 'clinic', 'name': 'Poliklinika Azabagić'}}"
"{'type': 'node', 'id': 6461096729, 'lat': 44.5365494, 'lon': 18.6853909, 'tags': {'addr:city': 'Tuzla', 'addr:housenumber': '5', 'addr:postcode': '75000', 'addr:street': '2. tuzlanske brigade', 'amenity': 'dentist', 'healthcare': 'dentist', 'healthcare:speciality': 'oral_surgery;general', 'name': 'Dental Hairlahovic', 'opening_hours': 'Mo-Tu 10:00-18:00, We-Th 10:00-19:00, Fr 09:00-15:00', 'operator': 'Dr Kemal Hairlahović', 'payment:cards': 'yes', 'payment:cash': 'yes', 'payment:contactless': 'yes', 'payment:credit_cards': 'yes', 'payment:debit_cards': 'yes', 'payment:maestro': 'yes', 'payment:mastercard': 'yes', 'payment:visa': 'yes', 'payment:visa_debit': 'yes', 'payment:visa_electron': 'yes', 'phone': '+387 61 161000', 'website': 'https://www.dentalh.ba'}}"
"{'type': 'node', 'id': 6502405347, 'lat': 45.0388813, 'lon': 18.6879562, 'tags': {'amenity': 'pharmacy'}}"
"{'type': 'node', 'id': 6502405348, 'lat': 45.0392482, 'lon': 18.6869949, 'tags': {'amenity': 'pharmacy', 'healthcare': 'pharmacy'}}"
"{'type': 'node', 'id': 6502413993, 'lat': 45.0259356, 'lon': 18.6995589, 'tags': {'amenity': 'pharmacy', 'healthcare': 'pharmacy', 'name': 'Moja apoteka', 'opening_hours': 'Mo-Su 08:30-21:00'}}"
"{'type': 'node', 'id': 6672570803, 'lat': 44.7883997, 'lon': 18.5620424, 'tags': {'addr:city': 'Bijela', 'amenity': 'hospital', 'healthcare': 'hospital', 'name': 'Zdravstvena stanica Bijela', 'operator': 'JZU „Zdravstveni centar Brčko“', 'operator:type': 'public'}}"
"{'type': 'node', 'id': 7013702538, 'lat': 44.5279132, 'lon': 18.6929031, 'tags': {'amenity': 'dentist', 'healthcare': 'dentist', 'name': 'Alabajči'}}"
"{'type': 'node', 'id': 7173225889, 'lat': 44.7269299, 'lon': 19.4508453, 'tags': {'amenity': 'hospital', 'healthcare': 'hospital'}}"
"{'type': 'node', 'id': 7415675948, 'lat': 44.3801611, 'lon': 18.3590489, 'tags': {'amenity': 'hospital', 'emergency': 'no', 'healthcare': 'hospital', 'healthcare:speciality': 'general'}}"
"{'type': 'node', 'id': 7563344235, 'lat': 44.8740337, 'lon': 18.8167409, 'tags': {'addr:city': 'Brčko', 'addr:housenumber': '13', 'addr:postcode': '76100', 'addr:street': 'Alekse Šantića', 'amenity': 'hospital', 'email': 'ortofizik@gmail.com', 'healthcare': 'hospital', 'healthcare:speciality': 'orthopaedics;osteopathy;physiotherapy;clinic', 'name': 'Ortofizik'}}"
"{'type': 'node', 'id': 7597608786, 'lat': 44.8753536, 'lon': 18.8114871, 'tags': {'addr:housenumber': '10', 'addr:postcode': '76100', 'addr:street': 'Branislava Nušića', 'amenity': 'dentist', 'email': 'reljic.aleksandra@gmail.com', 'healthcare': 'dentist', 'name': 'Centar moderne stomatologije A-Dent', 'opening_hours': 'Mo-Fr 08:00-17:00', 'phone': '065622400', 'website': 'http://a-adent.com/o-nama/'}}"
"{'type': 'node', 'id': 7645436285, 'lat': 44.7818339, 'lon': 19.2338531, 'tags': {'addr:housenumber': '15', 'addr:postcode': '76300', 'addr:street': 'Komitska', 'amenity': 'hospital', 'internet_access': 'wlan', 'name': 'Галамедика', 'name:en': 'Galamedica', 'opening_hours': 'Mo-Fr 07:30-20:00; Sa 08:00-15:00', 'website': 'https://zugalamedica.com/'}}"
"{'type': 'node', 'id': 7671951285, 'lat': 44.6108634, 'lon': 18.4426686, 'tags': {'amenity': 'pharmacy', 'name:de': 'Apoteka'}}"
"{'type': 'node', 'id': 7917437917, 'lat': 45.0586219, 'lon': 18.5859294, 'tags': {'amenity': 'pharmacy', 'healthcare': 'pharmacy', 'name': 'Ljekarna Vukić'}}"
"{'type': 'node', 'id': 8350165728, 'lat': 45.1398406, 'lon': 19.0388828, 'tags': {'amenity': 'doctors', 'healthcare': 'doctor', 'healthcare:speciality': 'general', 'name': 'Medicinska ambulanta Nijemci', 'operator': 'Dom zdravlja Vinkovci', 'operator:type': 'public'}}"
"{'type': 'node', 'id': 8356196500, 'lat': 45.2224996, 'lon': 19.3776298, 'tags': {'amenity': 'pharmacy', 'name': 'Ljekarna'}}"
"{'type': 'node', 'id': 8513604558, 'lat': 44.439074, 'lon': 18.146523, 'tags': {'amenity': 'pharmacy', 'dispensing': 'yes', 'healthcare': 'pharmacy'}}"
"{'type': 'node', 'id': 8524529201, 'lat': 44.4414311, 'lon': 18.2108585, 'tags': {'healthcare': 'yes'}}"
"{'type': 'node', 'id': 8565528888, 'lat': 44.4391232, 'lon': 18.1478074, 'tags': {'amenity': 'pharmacy', 'healthcare': 'pharmacy'}}"
"{'type': 'node', 'id': 8597533684, 'lat': 44.536681, 'lon': 18.6558918, 'tags': {'amenity': 'pharmacy', 'dispensing': 'yes', 'healthcare': 'pharmacy', 'name': 'Apoteka'}}"
"{'type': 'node', 'id': 8597547430, 'lat': 44.5359063, 'lon': 18.6543162, 'tags': {'amenity': 'clinic', 'healthcare': 'clinic', 'name': 'Poliklinika Irac'}}"
"{'type': 'node', 'id': 8666715086, 'lat': 44.5300919, 'lon': 18.6906233, 'tags': {'amenity': 'pharmacy', 'dispensing': 'yes', 'healthcare': 'pharmacy', 'name': 'Ibn Sina apoteka'}}"
"{'type': 'node', 'id': 8670587205, 'lat': 44.5419693, 'lon': 18.6680273, 'tags': {'amenity': 'clinic', 'healthcare': 'clinic', 'name': 'Plava poliklinika'}}"
"{'type': 'node', 'id': 8695921590, 'lat': 44.5405667, 'lon': 18.6620417, 'tags': {'amenity': 'pharmacy', 'dispensing': 'yes', 'healthcare': 'pharmacy', 'name': 'Ibn Sina'}}"
"{'type': 'node', 'id': 8695973044, 'lat': 44.5374317, 'lon': 18.6687343, 'tags': {'amenity': 'pharmacy', 'dispensing': 'yes', 'healthcare': 'pharmacy', 'name': 'Ibn Sina'}}"
"{'type': 'node', 'id': 8695980929, 'lat': 44.5355134, 'lon': 18.6529688, 'tags': {'amenity': 'pharmacy', 'dispensing': 'yes', 'healthcare': 'pharmacy', 'name': 'Apoteka'}}"
"{'type': 'node', 'id': 8695980930, 'lat': 44.5353987, 'lon': 18.6529393, 'tags': {'amenity': 'pharmacy', 'dispensing': 'yes', 'healthcare': 'pharmacy', 'name': 'Apoteka'}}"
"{'type': 'node', 'id': 8695984169, 'lat': 44.5347057, 'lon': 18.6947313, 'tags': {'amenity': 'pharmacy', 'dispensing': 'yes', 'healthcare': 'pharmacy', 'name': 'Apoteka'}}"
"{'type': 'node', 'id': 8829533817, 'lat': 44.4097616, 'lon': 18.530761, 'tags': {'addr:postcode': '75290', 'addr:street': 'Alije Dostovića 5', 'amenity': 'clinic', 'name': 'J.Z.U Dom zdravlja Banovići', 'website': 'http://dzbanovici.ba'}}"
"{'type': 'node', 'id': 8946938032, 'lat': 44.5150762, 'lon': 19.1529464, 'tags': {'addr:city': 'Бања Ковиљача', 'addr:housenumber': '126a', 'addr:postcode': '15316', 'addr:street': 'Маршала Тита', 'amenity': 'pharmacy', 'name': 'Galenus', 'name:en': 'Galenus', 'name:sr': 'Галенус', 'name:sr-Latn': 'Galenus', 'phone': '+38115892612', 'ref:RS:kucni_broj': '5124592', 'shop': 'hairdresser_supply'}}"
"{'type': 'node', 'id': 8946940630, 'lat': 44.5152193, 'lon': 19.1549201, 'tags': {'addr:city': 'Бања Ковиљача', 'addr:postcode': '15316', 'addr:street': 'Маршала Тита', 'air_conditioning': 'yes', 'amenity': 'pharmacy', 'dispensing': 'yes', 'healthcare': 'pharmacy', 'name': 'Др Лаза Лазаревић', 'name:en': 'Dr Laza Lazarević', 'name:sr': 'Др Лаза Лазаревић', 'name:sr-Latn': 'Dr Laza Lazarević', 'payment:cash': 'yes', 'payment:debit_cards': 'yes', 'payment:mastercard': 'yes', 'payment:visa': 'yes', 'phone': '+38115819212', 'shop': 'medical_supply'}}"
"{'type': 'node', 'id': 8983721950, 'lat': 44.810232, 'lon': 19.0666197, 'tags': {'addr:city': 'Dragaljevac Donji', 'amenity': 'pharmacy', 'dispensing': 'yes', 'email': 'apotekarosicbr5@gmail.com', 'healthcare': 'pharmacy', 'name': 'Apoteka Rosić br. 5', 'opening_hours': 'Mo-Fr 08:00-16:00; Sa 08:00-13:00', 'phone': '+387 55 490 141', 'website': 'https://rosic.ba/apoteke/apoteke/6/apoteka-rosic-br-5'}}"
"{'type': 'node', 'id': 9146533786, 'lat': 44.8797925, 'lon': 18.4211414, 'tags': {'amenity': 'pharmacy', 'healthcare': 'pharmacy'}}"
"{'type': 'node', 'id': 9455366335, 'lat': 44.5353113, 'lon': 19.2287182, 'tags': {'addr:city': 'Лозница', 'addr:country': 'RS', 'addr:postcode': '15300', 'amenity': 'pharmacy', 'email': 'apoteka1lo@eunet.rs', 'government': 'healthcare', 'healthcare': 'pharmacy', 'name': 'Лозница I', 'name:sr-Latn': 'Loznica I', 'office': 'government', 'opening_hours': '24/7', 'phone': '+38115891928', 'website': 'https://www.apotekaloznica.com/'}}"
"{'type': 'node', 'id': 9893459117, 'lat': 44.5391064, 'lon': 18.6919631, 'tags': {'addr:postcode': '75000', 'addr:street': 'Prof. dr. Ibre Pašića', 'amenity': 'hospital', 'healthcare': 'hospital', 'name': 'UKC Tuzla - Poliklinika za transfuziologiju', 'opening_hours': '24/7', 'phone': '+38735303523', 'website': 'https://www.ukctuzla.ba/ukctuzla/?lang=bs'}}"
"{'type': 'node', 'id': 10224184617, 'lat': 44.5408958, 'lon': 18.662727, 'tags': {'amenity': 'pharmacy', 'healthcare': 'pharmacy'}}"
"{'type': 'node', 'id': 10554314215, 'lat': 44.8618421, 'lon': 18.8272132, 'tags': {'addr:city': 'Brčko', 'addr:housenumber': '69', 'addr:postcode': '76100', 'addr:street': 'Bijeljinska', 'amenity': 'pharmacy', 'healthcare': 'pharmacy', 'name': 'Ljekarna / Apoteka', 'opening_hours': 'Mo-Sa 08:00-21:00; Su 08:00-18:00'}}"
"{'type': 'node', 'id': 10587580366, 'lat': 44.8625316, 'lon': 18.8112337, 'tags': {'healthcare': 'laboratory', 'name': 'BioMedica Laboratorija', 'opening_hours': 'Mo-Sa 07:00-15:00', 'phone': '+387 49 206 129;+387 66 712 331', 'website': 'https://www.biomedicalaboratorija.ba/'}}"
"{'type': 'node', 'id': 10587580367, 'lat': 44.8629547, 'lon': 18.8113637, 'tags': {'addr:postcode': '76100', 'amenity': 'pharmacy', 'healthcare': 'pharmacy', 'name': 'Apoteka Lekovita', 'opening_hours': 'Mo-Fr 07:30-20:00; Sa 08:00-20:00; Su 08:00-14:00'}}"
"{'type': 'node', 'id': 10587580369, 'lat': 44.8640839, 'lon': 18.8095677, 'tags': {'amenity': 'pharmacy', 'healthcare': 'pharmacy'}}"
"{'type': 'node', 'id': 10589849505, 'lat': 44.8739469, 'lon': 18.8097663, 'tags': {'amenity': 'pharmacy', 'healthcare': 'pharmacy', 'name': 'Apoteka Ibn Sina'}}"
"{'type': 'node', 'id': 10589849705, 'lat': 44.8740935, 'lon': 18.8097297, 'tags': {'amenity': 'pharmacy', 'healthcare': 'pharmacy', 'name': 'Apoteka Zdravlje'}}"
"{'type': 'node', 'id': 10591246305, 'lat': 44.9686277, 'lon': 18.301105, 'tags': {'amenity': 'pharmacy', 'name': 'Expera Pharmacy', 'opening_hours': 'Mo-Sa 08:00-20:30; Su 08:00-12:00'}}"
"{'type': 'node', 'id': 10606488224, 'lat': 44.5311527, 'lon': 19.2231472, 'tags': {'amenity': 'pharmacy', 'healthcare': 'pharmacy', 'name': 'Family Pharm'}}"
"{'type': 'node', 'id': 10678112705, 'lat': 44.8707404, 'lon': 18.8166768, 'tags': {'addr:housenumber': '36/B', 'addr:postcode': '76100', 'addr:street': 'Uzunovića', 'healthcare': 'laboratory', 'name': 'Dr Pajić Medical', 'opening_hours': 'Mo-Su 07:30-15:30', 'phone': '+38749490283'}}"
"{'type': 'node', 'id': 10724619187, 'lat': 44.5324929, 'lon': 18.6527364, 'tags': {'amenity': 'pharmacy', 'healthcare': 'pharmacy', 'name': 'Super Apoteka'}}"
"{'type': 'node', 'id': 10774278097, 'lat': 44.5358208, 'lon': 19.2249061, 'tags': {'amenity': 'pharmacy', 'brand': 'Benu', 'brand:wikidata': 'Q62562792', 'healthcare': 'pharmacy', 'name': 'Benu', 'name:sr': 'Бену', 'name:sr-Latn': 'Benu'}}"
"{'type': 'node', 'id': 10783870162, 'lat': 44.6207084, 'lon': 18.599308, 'tags': {'addr:street': 'Donja Dragunja', 'amenity': 'pharmacy', 'dispensing': 'yes', 'healthcare': 'pharmacy'}}"
"{'type': 'node', 'id': 10783870163, 'lat': 44.6206592, 'lon': 18.5992662, 'tags': {'addr:street': 'Donja Dragunja', 'amenity': 'doctors', 'healthcare': 'doctor', 'healthcare:speciality': 'general'}}"
"{'type': 'node', 'id': 10853244021, 'lat': 44.5296423, 'lon': 19.2249401, 'tags': {'addr:city': 'Лозница', 'addr:housenumber': '6', 'addr:postcode': '15300', 'addr:street': 'Вука Караџића', 'amenity': 'doctors', 'healthcare': 'physiotherapist', 'name': 'Bueno', 'name:sr': 'Буено', 'name:sr-Latn': 'Bueno', 'ref:RS:kucni_broj': '5115249'}}"
"{'type': 'node', 'id': 10858010793, 'lat': 45.287093, 'lon': 18.753873, 'tags': {'amenity': 'pharmacy', 'healthcare': 'pharmacy', 'name': 'Mandis Pharm'}}"
"{'type': 'node', 'id': 10967599306, 'lat': 44.7553604, 'lon': 19.2162282, 'tags': {'addr:postcode': '76300', 'amenity': 'pharmacy', 'name': 'Gradska apoteka Vivamedic'}}"
"{'type': 'node', 'id': 11113323486, 'lat': 44.9656853, 'lon': 19.2909442, 'tags': {'amenity': 'pharmacy', 'healthcare': 'pharmacy'}}"
"{'type': 'node', 'id': 11114695406, 'lat': 44.8602509, 'lon': 18.8175911, 'tags': {'addr:postcode': '76100', 'amenity': 'pharmacy', 'name': 'Apoteka „Lekovita“', 'opening_hours': 'Mo-Fr 07:30-20:00; Sa 08:00-20:00; Su 08:00-14:00'}}"
"{'type': 'node', 'id': 11114746005, 'lat': 44.8628786, 'lon': 18.8181322, 'tags': {'addr:postcode': '76100', 'amenity': 'pharmacy', 'name': 'Apoteka „Zdravlje“', 'opening_hours': 'Mo-Sa 09:00-16:00'}}"
"{'type': 'node', 'id': 11146748405, 'lat': 44.86111, 'lon': 18.8110801, 'tags': {'addr:postcode': '76100', 'amenity': 'clinic', 'name': 'Ambulanta Grčica', 'opening_hours': 'Mo-Th 07:30-15:30; Fr 07:00-15:00'}}"
"{'type': 'node', 'id': 11154436977, 'lat': 44.374266, 'lon': 19.1063848, 'tags': {'amenity': 'dentist', 'healthcare': 'dentist', 'name': 'Stomatološka ordinacija ""Dr. Vladić""'}}"
"{'type': 'node', 'id': 11177359487, 'lat': 44.527233, 'lon': 19.2245835, 'tags': {'amenity': 'dentist', 'healthcare': 'dentist', 'int_name': 'Dr Boris Vladic', 'name': 'Др Борис Владић', 'name:sr': 'Др Борис Владић', 'name:sr-Latn': 'Dr Boris Vladić'}}"
"{'type': 'node', 'id': 11177359497, 'lat': 44.535277, 'lon': 19.2198929, 'tags': {'healthcare': 'laboratory', 'int_name': 'Dijagnosticki Centar Loznica', 'name': 'Дијагностички Центар Лозница', 'name:sr': 'Дијагностички Центар Лозница', 'name:sr-Latn': 'Dijagnostički Centar Loznica'}}"
"{'type': 'node', 'id': 11229753314, 'lat': 44.5349472, 'lon': 19.2244484, 'tags': {'amenity': 'pharmacy', 'healthcare': 'pharmacy', 'name': 'Belladonna', 'name:sr': 'Беладона', 'name:sr-Latn': 'Beladona', 'opening_hours': 'Mo-Fr 08:00-20:00; Sa 08:00-18:00'}}"
"{'type': 'node', 'id': 11229799798, 'lat': 44.5290671, 'lon': 19.226176, 'tags': {'amenity': 'dentist', 'healthcare': 'dentist', 'int_name': 'Dr Ema Popovic', 'name': 'Др Ема Поповић', 'name:sr': 'Др Ема Поповић', 'name:sr-Latn': 'Dr Ema Popović'}}"
"{'type': 'node', 'id': 11229805770, 'lat': 44.5323688, 'lon': 19.2258964, 'tags': {'amenity': 'doctors', 'healthcare': 'doctor', 'healthcare:speciality': 'gynaecology', 'int_name': 'Dr Vucicevic', 'name': 'Др Вучићевић', 'name:sr': 'Др Вучићевић', 'name:sr-Latn': 'Dr Vučićević'}}"
"{'type': 'node', 'id': 11489040340, 'lat': 44.5359748, 'lon': 19.2282065, 'tags': {'healthcare': 'laboratory', 'name': 'Aqualab', 'name:sr': 'Аквалаб', 'name:sr-Latn': 'Akvalab'}}"
"{'type': 'node', 'id': 11590202036, 'lat': 45.0390934, 'lon': 18.5278308, 'tags': {'addr:city': 'Grebnice', 'addr:housenumber': 'bb', 'addr:street': 'Posavskih branitelja', 'healthcare': 'rehabilitation', 'healthcare:speciality': 'physiatry;rehabilitacija_djece', 'name': 'Dnevni centar Angelus', 'phone': '+387 31 795 315', 'website': 'https://angelus.ba'}}"
"{'type': 'node', 'id': 11603216834, 'lat': 44.5251435, 'lon': 18.6279512, 'tags': {'amenity': 'pharmacy', 'healthcare': 'pharmacy', 'name': 'Apoteka Rose Pharm'}}"
"{'type': 'node', 'id': 11740953257, 'lat': 45.3430686, 'lon': 19.0024048, 'tags': {'amenity': 'pharmacy'}}"
"{'type': 'node', 'id': 11748411131, 'lat': 44.9447846, 'lon': 18.8311167, 'tags': {'addr:housenumber': '121', 'addr:street': 'Ulica Matije Gupca', 'amenity': 'doctors', 'healthcare': 'doctor', 'healthcare:speciality': 'general', 'name': 'Ambulanta Posavski Podgajci', 'operator': 'Dom zdravlja Županja', 'operator:type': 'public'}}"
"{'type': 'node', 'id': 11748416679, 'lat': 45.0937236, 'lon': 18.6366328, 'tags': {'addr:housenumber': '2A', 'addr:street': 'Školska ulica', 'amenity': 'doctors', 'healthcare': 'doctor', 'healthcare:speciality': 'general', 'name': 'Ambulanta Štitar', 'operator': 'Dom zdravlja Županja', 'operator:type': 'public'}}"
"{'type': 'node', 'id': 11748441575, 'lat': 44.951186, 'lon': 18.9706742, 'tags': {'addr:housenumber': '12', 'addr:street': 'Vrbanjska ulica', 'amenity': 'doctors', 'healthcare': 'doctor', 'healthcare:speciality': 'general', 'name': 'Zdravstvena stanica Soljani', 'operator': 'Dom zdravlja Županja', 'operator:type': 'public'}}"
"{'type': 'node', 'id': 11748485323, 'lat': 44.8803532, 'lon': 18.915758, 'tags': {'amenity': 'doctors', 'healthcare': 'doctor', 'healthcare:speciality': 'general', 'name': 'Ambulanta Račinovci - Đurići', 'operator': 'Dom zdravlja Županja', 'operator:type': 'public'}}"
"{'type': 'node', 'id': 11748544646, 'lat': 45.1500039, 'lon': 18.7066662, 'tags': {'addr:housenumber': '4', 'addr:street': 'Ulica kralja Tomislava', 'amenity': 'doctors', 'healthcare': 'doctor', 'healthcare:speciality': 'general', 'name': 'Ambulanta Gradište', 'operator': 'Dom zdravlja Županja', 'operator:type': 'public'}}"
"{'type': 'node', 'id': 11748620604, 'lat': 45.188657, 'lon': 18.6887475, 'tags': {'addr:housenumber': '9', 'addr:street': 'Šetalište dr. Franje Tuđmana', 'amenity': 'doctors', 'healthcare': 'doctor', 'healthcare:speciality': 'general', 'name': 'Ambulanta Cerna', 'operator': 'Dom zdravlja Županja', 'operator:type': 'public'}}"
"{'type': 'node', 'id': 11748656214, 'lat': 44.9809388, 'lon': 18.9279488, 'tags': {'addr:housenumber': '7', 'addr:street': 'Ulica kneza Ljudevita Posavskog', 'amenity': 'doctors', 'healthcare': 'doctor', 'healthcare:speciality': 'general', 'name': 'Dom zdravlja Vrbanja', 'operator': 'Dom zdravlja Županja', 'operator:type': 'public'}}"
"{'type': 'node', 'id': 11748666579, 'lat': 45.0494428, 'lon': 18.7572752, 'tags': {'amenity': 'doctors', 'healthcare': 'doctor', 'healthcare:speciality': 'general', 'name': 'Dom zdravlja Bošnjaci', 'operator': 'Dom zdravlja Županja', 'operator:type': 'public'}}"
"{'type': 'node', 'id': 11748676590, 'lat': 44.9208259, 'lon': 18.9142752, 'tags': {'addr:housenumber': '16', 'addr:street': 'Veliki Šor', 'amenity': 'doctors', 'healthcare': 'doctor', 'healthcare:speciality': 'general', 'name': 'Dom zdravlja Drenovci', 'operator': 'Dom zdravlja Županja', 'operator:type': 'public'}}"
"{'type': 'node', 'id': 11749030062, 'lat': 45.3494982, 'lon': 19.0029459, 'tags': {'addr:city': 'Vukovar', 'addr:housenumber': '2', 'addr:postcode': '32000', 'addr:street': 'Trg kralja Tomislava', 'amenity': 'doctors', 'healthcare': 'doctor', 'healthcare:speciality': 'general;paediatrics;stomatology', 'name': 'Ambulanta 1', 'operator': 'Dom zdravlja Vukovar', 'operator:type': 'public', 'website': 'https://dzvukovar.hr/vukovar-trg-kralja-tomislava/'}}"
"{'type': 'node', 'id': 11749121113, 'lat': 45.3457195, 'lon': 19.0076825, 'tags': {'amenity': 'pharmacy'}}"
"{'type': 'node', 'id': 11751675431, 'lat': 45.402287, 'lon': 18.9786453, 'tags': {'addr:housenumber': '5', 'addr:street': 'Glavna ulica', 'amenity': 'doctors', 'healthcare': 'doctor', 'healthcare:speciality': 'general;stomatology', 'name': 'Ambulanta Borovo', 'operator': 'Dom zdravlja Vukovar', 'operator:type': 'public', 'website': 'https://dzvukovar.hr/borovo/'}}"
"{'type': 'node', 'id': 11752377753, 'lat': 45.2878498, 'lon': 18.9458961, 'tags': {'addr:city': 'Petrovci', 'addr:housenumber': '1', 'addr:street': 'Vukovarska', 'amenity': 'doctors', 'healthcare': 'doctor', 'healthcare:speciality': 'general', 'name': 'Ambulanta Petrovci', 'operator': 'Dom zdravlja Vukovar', 'operator:type': 'public', 'website': 'https://dzvukovar.hr/2014/09/11/koricic-sanja-dr-med-spec-obiteljske-medicine/'}}"
"{'type': 'node', 'id': 11752377887, 'lat': 45.3382064, 'lon': 18.9300731, 'tags': {'addr:housenumber': '2', 'addr:street': 'Matije Gupca', 'amenity': 'doctors', 'healthcare': 'doctor', 'healthcare:speciality': 'general', 'name': 'Ambulanta Bogdanovci', 'operator': 'Dom zdravlja Vukovar', 'operator:type': 'public', 'website': 'https://dzvukovar.hr/2014/09/11/koricic-sanja-dr-med-spec-obiteljske-medicine/'}}"
"{'type': 'node', 'id': 11752686957, 'lat': 45.2606497, 'lon': 19.1709375, 'tags': {'amenity': 'doctors', 'healthcare': 'doctor', 'healthcare:speciality': 'general', 'name': 'Ambulanta Opatovac', 'operator': 'Dom zdravlja Vukovar', 'operator:type': 'public', 'website': 'https://dzvukovar.hr/2014/09/11/tatjana-lipovac-dr-med-spec-oftalmolog/'}}"
"{'type': 'node', 'id': 11752695642, 'lat': 45.1990741, 'lon': 19.2622392, 'tags': {'amenity': 'doctors', 'healthcare': 'doctor', 'healthcare:speciality': 'general', 'name': 'Ambulanta Bapska', 'operator': 'Dom zdravlja Vukovar', 'operator:type': 'public', 'website': 'https://dzvukovar.hr/2014/09/11/ordinacija-opce-obiteljske-medicine-tim-bez-nositelja/'}}"
"{'type': 'node', 'id': 11752733139, 'lat': 45.1820419, 'lon': 19.0944245, 'tags': {'amenity': 'doctors', 'healthcare': 'doctor', 'healthcare:speciality': 'general', 'name': 'Ambulanta Ilača', 'operator': 'Dom zdravlja Vukovar', 'operator:type': 'public', 'website': 'https://dzvukovar.hr/2014/09/11/mijic-melita-dr-med-spec-obiteljske-med/'}}"
"{'type': 'node', 'id': 11752774310, 'lat': 45.4213948, 'lon': 18.8565119, 'tags': {'amenity': 'doctors', 'healthcare': 'doctor', 'healthcare:speciality': 'general', 'name': 'Ambulanta Bobota', 'operator': 'Dom zdravlja Vukovar', 'operator:type': 'public', 'website': 'https://dzvukovar.hr/2014/09/11/mitrovic-sinisa-dr-med-spec-obiteljske-med/'}}"
"{'type': 'node', 'id': 11752790933, 'lat': 45.3612069, 'lon': 18.9044134, 'tags': {'amenity': 'doctors', 'healthcare': 'doctor', 'healthcare:speciality': 'general', 'name': 'Ambulanta Bršadin', 'operator': 'Dom zdravlja Vukovar', 'operator:type': 'public', 'website': 'https://dzvukovar.hr/2014/09/10/kacar-slobodan-dr-med/'}}"
"{'type': 'node', 'id': 11752796372, 'lat': 45.2372042, 'lon': 19.0581046, 'tags': {'amenity': 'doctors', 'healthcare': 'doctor', 'healthcare:speciality': 'general', 'name': 'Ambulanta Čakovci', 'operator': 'Dom zdravlja Vukovar', 'operator:type': 'public', 'website': 'https://dzvukovar.hr/2014/09/11/nad-ivanka-dr-med-spec-obiteljske-medicine/'}}"
"{'type': 'node', 'id': 11752804878, 'lat': 45.2335677, 'lon': 19.2857756, 'tags': {'amenity': 'doctors', 'healthcare': 'doctor', 'healthcare:speciality': 'general', 'name': 'Ambulanta Šarengrad', 'operator': 'Dom zdravlja Vukovar', 'operator:type': 'public', 'website': 'https://dzvukovar.hr/2014/09/11/ordinacija-opce-obiteljske-medicine-tim-bez-nositelja/'}}"
"{'type': 'node', 'id': 11752808856, 'lat': 45.1666748, 'lon': 19.1537539, 'tags': {'amenity': 'doctors', 'healthcare': 'doctor', 'healthcare:speciality': 'general', 'name': 'Ambulanta Tovarnik', 'operator': 'Dom zdravlja Vukovar', 'operator:type': 'public', 'website': 'https://dzvukovar.hr/2014/09/11/mijic-melita-dr-med-spec-obiteljske-med/'}}"
"{'type': 'node', 'id': 11752818173, 'lat': 45.2513247, 'lon': 19.0853942, 'tags': {'amenity': 'doctors', 'healthcare': 'doctor', 'healthcare:speciality': 'general', 'name': 'Ambulanta Mikluševci', 'operator': 'Dom zdravlja Vukovar', 'operator:type': 'public', 'website': 'https://dzvukovar.hr/2014/09/11/nad-ivanka-dr-med-spec-obiteljske-medicine/'}}"
"{'type': 'node', 'id': 11752822578, 'lat': 45.3720364, 'lon': 18.8477025, 'tags': {'amenity': 'doctors', 'healthcare': 'doctor', 'healthcare:speciality': 'general', 'name': 'Ambulanta Pačetin', 'operator': 'Dom zdravlja Vukovar', 'operator:type': 'public', 'website': 'https://dzvukovar.hr/2014/09/11/mitrovic-sinisa-dr-med-spec-obiteljske-med/'}}"
"{'type': 'node', 'id': 11753154689, 'lat': 45.2946406, 'lon': 18.8079485, 'tags': {'addr:city': 'Vinkovci', 'addr:housenumber': '53', 'addr:postcode': '32100', 'addr:street': 'Ulica kralja Zvonimira', 'amenity': 'clinic', 'healthcare': 'clinic', 'healthcare:speciality': 'general;paediatrics;stomatology;biochemistry;psychiatry;gynaecology;dental_oral_maxillo_facial_surgery;orthodontics;palliative', 'name': 'Dom zdravlja Vinkovci', 'operator': 'Dom zdravlja Vinkovci', 'operator:type': 'public'}}"
"{'type': 'node', 'id': 11753717933, 'lat': 45.2961287, 'lon': 18.8157511, 'tags': {'addr:housenumber': '76', 'addr:street': 'Ulica Hrvatskih kraljeva', 'amenity': 'doctors', 'healthcare': 'doctor', 'healthcare:speciality': 'general', 'name': 'Ambulanta obiteljske medicine', 'operator': 'Dom zdravlja Vinkovci', 'operator:type': 'public'}}"
"{'type': 'node', 'id': 11753717934, 'lat': 45.2962534, 'lon': 18.8158633, 'tags': {'amenity': 'pharmacy', 'healthcare': 'pharmacy'}}"
"{'type': 'node', 'id': 11753718437, 'lat': 45.2963714, 'lon': 18.8160025, 'tags': {'addr:housenumber': '76H', 'addr:street': 'Ulica Hrvatskih kraljeva', 'amenity': 'doctors', 'healthcare': 'doctor', 'healthcare:speciality': 'general', 'name': 'Ambulanta obiteljske medicine', 'operator': 'Dom zdravlja Vinkovci', 'operator:type': 'public'}}"
"{'type': 'node', 'id': 11753873497, 'lat': 45.3324962, 'lon': 18.8423818, 'tags': {'addr:housenumber': '36', 'addr:street': 'Ulica Križnog puta', 'amenity': 'doctors', 'healthcare': 'doctor', 'healthcare:speciality': 'general', 'name': 'Ambulanta Nuštar', 'operator': 'Dom zdravlja Vinkovci', 'operator:type': 'public'}}"
"{'type': 'node', 'id': 11753918635, 'lat': 45.1463016, 'lon': 18.8841757, 'tags': {'addr:city': 'Otok', 'addr:postcode': '32252', 'addr:street': 'Ulica kralja Petra Krešimira IV.', 'amenity': 'pharmacy', 'healthcare': 'pharmacy'}}"
"{'type': 'node', 'id': 11753918636, 'lat': 45.1463993, 'lon': 18.8842087, 'tags': {'addr:housenumber': '1', 'addr:street': 'Ulica kralja Petra Krešimira IV.', 'amenity': 'doctors', 'healthcare': 'doctor', 'healthcare:speciality': 'general', 'name': 'Ambulanta Otok', 'operator': 'Dom zdravlja Vinkovci', 'operator:type': 'public'}}"
"{'type': 'node', 'id': 11753956344, 'lat': 45.2200932, 'lon': 18.9487086, 'tags': {'addr:city': 'Slakovci', 'addr:housenumber': '52', 'addr:postcode': '32242', 'addr:street': 'Petra Preradovića', 'amenity': 'doctors', 'healthcare': 'doctor', 'healthcare:speciality': 'general', 'name': 'Ambulanta Slakovci', 'operator': 'Dom zdravlja Vinkovci', 'operator:type': 'public'}}"
"{'type': 'node', 'id': 11753973212, 'lat': 45.3698122, 'lon': 18.7958083, 'tags': {'addr:housenumber': '1', 'addr:street': 'Trg hrvatskih žrtava', 'amenity': 'doctors', 'healthcare': 'doctor', 'healthcare:speciality': 'general', 'name': 'Ambulanta Tordinci', 'operator': 'Dom zdravlja Vinkovci', 'operator:type': 'public'}}"
"{'type': 'node', 'id': 11753989178, 'lat': 45.1493668, 'lon': 18.9469207, 'tags': {'addr:city': 'Komletinci', 'addr:housenumber': '13a', 'addr:postcode': '32253', 'addr:street': 'Ulica braće Radić', 'amenity': 'doctors', 'healthcare': 'doctor', 'name': 'Ambulanta Komletinci', 'operator': 'Dom zdravlja Vinkovci', 'operator:type': 'public'}}"
"{'type': 'node', 'id': 11753989816, 'lat': 45.192619, 'lon': 18.837123, 'tags': {'amenity': 'doctors', 'healthcare': 'doctor', 'healthcare:speciality': 'general', 'name': 'Ambulanta', 'operator': 'Dom zdravlja Vinkovci', 'operator:type': 'public'}}"
"{'type': 'node', 'id': 11762388638, 'lat': 45.2891966, 'lon': 18.7685903, 'tags': {'addr:housenumber': '109', 'addr:street': 'Ulica Alojzija Stepinca', 'amenity': 'doctors', 'healthcare': 'doctor', 'healthcare:speciality': 'general', 'name': 'Ambulanta Novo Selo', 'operator': 'Dom zdravlja Vinkovci', 'operator:type': 'public'}}"
"{'type': 'node', 'id': 11762435409, 'lat': 45.3116242, 'lon': 18.8566457, 'tags': {'addr:housenumber': '4', 'addr:street': 'Ivana Meštrovića', 'amenity': 'doctors', 'healthcare': 'doctor', 'healthcare:speciality': 'general', 'name': 'Ambulanta Cerić', 'operator': 'Dom zdravlja Vinkovci', 'operator:type': 'public'}}"
"{'type': 'node', 'id': 11931091466, 'lat': 45.3396978, 'lon': 19.0229442, 'tags': {'addr:city': 'Vukovar', 'addr:street': 'Zagrebačka 1a', 'amenity': 'pharmacy', 'healthcare': 'pharmacy', 'name': 'Mandis Pharm'}}"
"{'type': 'node', 'id': 11962689349, 'lat': 44.5920982, 'lon': 18.6826725, 'tags': {'amenity': 'pharmacy', 'opening_hours': 'Mo-Fr 08:00-15:00'}}"
"{'type': 'node', 'id': 12066807720, 'lat': 45.3916814, 'lon': 19.2304949, 'tags': {'amenity': 'pharmacy', 'brand': 'Dr. Max', 'brand:wikidata': 'Q56317371', 'healthcare': 'pharmacy', 'name': 'Dr. Max', 'operator': 'Dr.Max'}}"
"{'type': 'node', 'id': 12120038424, 'lat': 45.5446797, 'lon': 18.2847108, 'tags': {'addr:housenumber': '1', 'addr:street': 'Ulica Matije Gupca', 'amenity': 'pharmacy', 'healthcare': 'pharmacy', 'name': 'Prima Pharme', 'opening_hours': 'Mo-Fr 08:30-16:00; Sa-Su off'}}"
"{'type': 'node', 'id': 12188874661, 'lat': 45.0155196, 'lon': 18.3260503, 'tags': {'amenity': 'pharmacy', 'healthcare': 'pharmacy', 'name': 'BONUS FARM'}}"
"{'type': 'node', 'id': 12495775696, 'lat': 44.3854195, 'lon': 19.1041832, 'tags': {'addr:city': 'Zvornik', 'addr:housenumber': '16', 'addr:postcode': '75400', 'addr:street': 'Patrijarha Pavla', 'addr:unit': 'a', 'amenity': 'dentist', 'healthcare': 'dentist', 'healthcare:speciality': 'dentist;dentistry;clinic', 'name': 'Stomatološka ambulanta ""MEDICOL""', 'operator': 'Kojić dr Aleksandar', 'operator:type': 'private'}}"
