OSM_Data
"{'type': 'node', 'id': 3821008762, 'lat': -14.7067166, 'lon': -39.6375654, 'tags': {'amenity': 'hospital', 'healthcare': 'hospital'}}"
"{'type': 'node', 'id': 3836108224, 'lat': -14.9571133, 'lon': -39.299129, 'tags': {'addr:city': 'Buerarema', 'addr:housenumber': '397', 'addr:postcode': '45615-000', 'addr:street': 'Rua Siqueira Campos', 'addr:suburb': 'Centro', 'amenity': 'hospital', 'healthcare': 'hospital', 'healthcare:speciality': 'general', 'name': 'Hospital Nossa Senhora Santana', 'operator': 'Hospital Nossa Senhora Santana Limitada', 'operator:type': 'private'}}"
"{'type': 'node', 'id': 3910941134, 'lat': -14.3175472, 'lon': -39.3228906, 'tags': {'amenity': 'hospital'}}"
"{'type': 'node', 'id': 3910941139, 'lat': -14.3179102, 'lon': -39.3272908, 'tags': {'amenity': 'hospital', 'healthcare': 'hospital'}}"
"{'type': 'node', 'id': 3996328658, 'lat': -14.3225083, 'lon': -39.4642534, 'tags': {'amenity': 'hospital'}}"
"{'type': 'node', 'id': 4099217086, 'lat': -15.1902332, 'lon': -39.4955819, 'tags': {'amenity': 'hospital'}}"
"{'type': 'node', 'id': 4105483805, 'lat': -14.85859, 'lon': -39.6565465, 'tags': {'amenity': 'hospital', 'healthcare': 'hospital'}}"
"{'type': 'node', 'id': 4466281489, 'lat': -15.083603, 'lon': -39.3385324, 'tags': {'amenity': 'pharmacy', 'name': 'Farmácia da lucinha', 'name:pt': 'Farmácia da lucinha'}}"
"{'type': 'node', 'id': 4469923090, 'lat': -15.0820523, 'lon': -39.3370583, 'tags': {'addr:housenumber': '45620000', 'addr:street': 'RUA ONÓRIO GOÉS', 'amenity': 'clinic', 'name': 'Posto de saúde unidade Sebastião Oliva'}}"
"{'type': 'node', 'id': 4472939063, 'lat': -14.9882141, 'lon': -39.9233996, 'tags': {'amenity': 'hospital', 'healthcare': 'hospital'}}"
"{'type': 'node', 'id': 4532608390, 'lat': -15.0767213, 'lon': -39.335091, 'tags': {'addr:street': 'ACM', 'amenity': 'clinic', 'name': 'Posto médico', 'name:pt': 'Posto médico'}}"
"{'type': 'node', 'id': 6278442988, 'lat': -14.8072727, 'lon': -39.2758836, 'tags': {'amenity': 'pharmacy', 'healthcare': 'pharmacy', 'name': '1649 F F comercio'}}"
"{'type': 'node', 'id': 6349856085, 'lat': -15.4193893, 'lon': -39.4914111, 'tags': {'addr:city': 'Camacan', 'addr:housenumber': '11', 'addr:postcode': '45880-000', 'addr:street': 'Rua Colina dos Laranjais', 'addr:suburb': 'Centro', 'amenity': 'hospital', 'healthcare': 'hospital', 'healthcare:speciality': 'general', 'name': 'Hospital Doutor Osvaldo Valverde', 'operator': 'Fundação Hospitalar de Camacan', 'operator:type': 'private'}}"
"{'type': 'node', 'id': 7147000279, 'lat': -15.4604642, 'lon': -39.6499289, 'tags': {'amenity': 'hospital', 'healthcare': 'hospital', 'name': 'Hospital Arlete Magalhães'}}"
"{'type': 'node', 'id': 7396373617, 'lat': -14.7051488, 'lon': -39.6351532, 'tags': {'amenity': 'hospital', 'healthcare': 'hospital'}}"
"{'type': 'node', 'id': 8607006638, 'lat': -14.7874897, 'lon': -39.2743642, 'tags': {'amenity': 'pharmacy', 'dispensing': 'yes', 'healthcare': 'pharmacy'}}"
"{'type': 'node', 'id': 8832786063, 'lat': -15.2980661, 'lon': -39.0726721, 'tags': {'amenity': 'hospital', 'healthcare': 'hospital', 'name': 'Samu 192 Una Bahia'}}"
"{'type': 'node', 'id': 8832786064, 'lat': -15.2979654, 'lon': -39.0729287, 'tags': {'amenity': 'hospital', 'healthcare': 'hospital', 'name': 'Hospital Municipal Frei Silvério'}}"
"{'type': 'node', 'id': 10251535067, 'lat': -14.9524381, 'lon': -39.3064526, 'tags': {'addr:city': 'Buerarema', 'addr:postcode': '45615-000', 'addr:street': 'Rua Br 101', 'amenity': 'clinic', 'healthcare': 'clinic', 'healthcare:speciality': 'general', 'name': 'Unidade Básica de Saúde da Família Professor Ernane Lins', 'operator': 'Município de Buerarema', 'operator:type': 'public'}}"
"{'type': 'node', 'id': 10255319508, 'lat': -14.7972609, 'lon': -39.277914, 'tags': {'addr:city': 'Itabuna', 'addr:housenumber': '1451', 'addr:postcode': '45600-006', 'addr:street': 'Rua Dalila Paganelli', 'addr:suburb': 'Centro', 'amenity': 'pharmacy', 'brand': 'Drogasil', 'brand:wikidata': 'Q5308185', 'healthcare': 'pharmacy', 'name': 'Drogasil', 'operator': 'Raia Drogasil S/A', 'wheelchair': 'yes'}}"
"{'type': 'node', 'id': 11054921992, 'lat': -14.433593, 'lon': -39.9026533, 'tags': {'amenity': 'pharmacy', 'check_date': '2023-07-19', 'dispensing': 'yes', 'healthcare': 'pharmacy', 'internet_access': 'no', 'name:pt': 'São Paulo', 'payment:mastercard': 'yes', 'payment:visa': 'yes', 'phone': '73988987548', 'website': 'https://farmaciasaopauloo', 'wheelchair': 'limited'}}"
"{'type': 'node', 'id': 11102391078, 'lat': -14.6652008, 'lon': -39.5077372, 'tags': {'amenity': 'clinic', 'name': 'UBS Bandeira do Almada'}}"
"{'type': 'node', 'id': 11102402433, 'lat': -14.6882533, 'lon': -39.4270375, 'tags': {'amenity': 'clinic', 'name': 'UBS Sequeiro Grande'}}"
"{'type': 'node', 'id': 11102402463, 'lat': -14.6833067, 'lon': -39.4132188, 'tags': {'amenity': 'clinic', 'name': 'UBS Ruinha de São Cristóvão'}}"
"{'type': 'node', 'id': 11247857097, 'lat': -15.4227812, 'lon': -39.4971304, 'tags': {'addr:city': 'Camacan', 'addr:postcode': '45880-000', 'addr:street': 'Rua Bela Vista', 'addr:suburb': 'Centro', 'amenity': 'clinic', 'healthcare': 'clinic', 'healthcare:speciality': 'general', 'name': 'Unidade Básica de Saúde da Família Doutor Manoel Rodrigues', 'operator': 'Município de Camacan', 'operator:type': 'public'}}"
"{'type': 'node', 'id': 11253651722, 'lat': -15.5642865, 'lon': -39.3025183, 'tags': {'addr:city': 'Mascote', 'addr:postcode': '45870-000', 'addr:street': 'Travessa Camacan', 'addr:suburb': 'Centro', 'amenity': 'clinic', 'healthcare': 'clinic', 'healthcare:speciality': 'general', 'name': 'Centro de Saúde Faustino Lima', 'operator': 'Município de Mascote', 'operator:type': 'public'}}"
"{'type': 'node', 'id': 11257499986, 'lat': -15.6107293, 'lon': -39.435583, 'tags': {'addr:city': 'Mascote', 'addr:postcode': '45870-000', 'addr:street': 'Rua Marechal Castelo Branco', 'addr:suburb': 'Centro', 'amenity': 'clinic', 'healthcare': 'clinic', 'healthcare:speciality': 'general', 'name': 'Unidade Básica de Saúde'}}"
"{'type': 'node', 'id': 11665024461, 'lat': -14.8115859, 'lon': -39.0327681, 'tags': {'amenity': 'pharmacy', 'name': 'Indiana'}}"
"{'type': 'node', 'id': 11793905868, 'lat': -15.2932719, 'lon': -39.0753285, 'tags': {'addr:city': 'Una', 'addr:postcode': '45690-000', 'addr:street': 'Avenida Getúlio Vargas', 'addr:suburb': 'Centro', 'amenity': 'clinic', 'healthcare': 'clinic', 'healthcare:speciality': 'general', 'name': 'Unidade Básica de Saúde de Una'}}"
"{'type': 'node', 'id': 11842474761, 'lat': -14.4636562, 'lon': -39.0345976, 'tags': {'healthcare': 'rehabilitation', 'name': 'Uniclin'}}"
