OSM_Data
"{'type': 'node', 'id': 613315993, 'lat': 1.2255397, 'lon': -77.2855082, 'tags': {'amenity': 'hospital', 'name': 'Antigua Clínica Palermo'}}"
"{'type': 'node', 'id': 618826584, 'lat': 1.2900416, 'lon': -77.3568186, 'tags': {'amenity': 'hospital', 'name': 'Centro De Salud San Sebastián'}}"
"{'type': 'node', 'id': 620078180, 'lat': 1.2151301, 'lon': -77.2803195, 'tags': {'amenity': 'pharmacy', 'name': 'Superpharma'}}"
"{'type': 'node', 'id': 623523905, 'lat': 1.2097999, 'lon': -77.2950788, 'tags': {'amenity': 'hospital', 'fixme': 'Esta bien ubicado? (No son los grandes edificios a 2 calles mas al norte?)', 'name': 'Hospital Mental'}}"
"{'type': 'node', 'id': 764367696, 'lat': 1.2257806, 'lon': -77.2863722, 'tags': {'addr:city': 'Pasto', 'addr:housenumber': '17A-81', 'addr:street': 'Carrera 40a', 'amenity': 'pharmacy', 'name': 'La Rebaja PLUS No. 2', 'opening_hours': '24/7', 'operator': 'La Rebaja', 'phone': '+57 2 7313590, +57 2 7311383'}}"
"{'type': 'node', 'id': 896322763, 'lat': 1.2167409, 'lon': -77.29002, 'tags': {'amenity': 'pharmacy', 'name': 'Drogas La Rebaja'}}"
"{'type': 'node', 'id': 941918439, 'lat': 0.8222852, 'lon': -77.7133199, 'tags': {'amenity': 'hospital', 'name': 'Clínica Cesmed'}}"
"{'type': 'node', 'id': 1107575914, 'lat': 1.3611198, 'lon': -77.2833377, 'tags': {'amenity': 'pharmacy', 'name': 'Droguería Angie Dayana'}}"
"{'type': 'node', 'id': 1107575942, 'lat': 1.3596195, 'lon': -77.283677, 'tags': {'amenity': 'pharmacy', 'name': 'Droguería Niño Divino'}}"
"{'type': 'node', 'id': 1261207395, 'lat': 1.2306693, 'lon': -77.2880904, 'tags': {'amenity': 'hospital', 'name': 'Centro Salud Pandiaco'}}"
"{'type': 'node', 'id': 1439765579, 'lat': 1.26982, 'lon': -77.3362544, 'tags': {'amenity': 'hospital', 'emergency': 'no', 'name': 'Centro de Salud', 'source': 'knowledge'}}"
"{'type': 'node', 'id': 1684093539, 'lat': 1.2176306, 'lon': -77.2829069, 'tags': {'amenity': 'hospital', 'emergency': 'yes', 'name': 'Clínica Valle de Atriz'}}"
"{'type': 'node', 'id': 1686445033, 'lat': 1.1929457, 'lon': -77.2737808, 'tags': {'amenity': 'pharmacy', 'dispensing': 'yes', 'drive_through': 'yes', 'healthcare': 'pharmacy', 'lit': 'yes', 'name': 'Farmacia La Rosa', 'opening_hours': 'Mo-Su 08:00-20:00', 'payment:cash': 'yes', 'surface': 'gravel'}}"
"{'type': 'node', 'id': 1997308148, 'lat': 1.218943, 'lon': -77.2776942, 'tags': {'addr:full': 'Calle 21 28', 'addr:street': 'Calle 21', 'amenity': 'pharmacy', 'name': 'Dimo - Droinsumeq Equipos Medicamentos Insumos'}}"
"{'type': 'node', 'id': 1997308156, 'lat': 1.2195216, 'lon': -77.2799883, 'tags': {'amenity': 'pharmacy', 'dispensing': 'no', 'name': 'Drogueria Dimesur ET'}}"
"{'type': 'node', 'id': 1997308191, 'lat': 1.2184524, 'lon': -77.2779423, 'tags': {'addr:full': 'Calle 20A 28', 'addr:housenumber': '06', 'addr:street': 'Calle 20A', 'amenity': 'pharmacy', 'name': 'Elementos de Rehabilitación Médica'}}"
"{'type': 'node', 'id': 1997308213, 'lat': 1.2158487, 'lon': -77.2788401, 'tags': {'addr:full': 'Carrera 26 18', 'addr:housenumber': '50', 'addr:street': 'Carrera 26', 'amenity': 'pharmacy', 'name': 'Droguería La Economía'}}"
"{'type': 'node', 'id': 1997308380, 'lat': 1.2192328, 'lon': -77.2787169, 'tags': {'addr:full': 'Calle 20 29', 'addr:housenumber': '16', 'addr:street': 'Calle 20', 'amenity': 'pharmacy', 'dispensing': 'Drogas El Obrero Centro'}}"
"{'type': 'node', 'id': 1997309648, 'lat': 1.2178131, 'lon': -77.2776719, 'tags': {'addr:full': 'Calle 20A 27', 'addr:housenumber': '44', 'addr:street': 'Calle 20A', 'amenity': 'hospital', 'name': 'Los Angeles IPS'}}"
"{'type': 'node', 'id': 1997309649, 'lat': 1.2179316, 'lon': -77.2776287, 'tags': {'addr:full': 'Carrera 27A 20A', 'addr:housenumber': '10', 'addr:street': 'Carrera 27A', 'amenity': 'hospital', 'name': 'Los Angeles IPS'}}"
"{'type': 'node', 'id': 1997309720, 'lat': 1.2188704, 'lon': -77.2803976, 'tags': {'addr:full': 'Carrera 29A 18', 'addr:housenumber': '22', 'addr:street': 'Carrera 29A', 'amenity': 'dentist', 'healthcare': 'dentist', 'name': 'Whitesmile'}}"
"{'type': 'node', 'id': 1999509653, 'lat': 1.2106536, 'lon': -77.2625185, 'tags': {'amenity': 'pharmacy', 'healthcare': 'pharmacy'}}"
"{'type': 'node', 'id': 1999509658, 'lat': 1.2100368, 'lon': -77.2623736, 'tags': {'amenity': 'pharmacy', 'healthcare': 'pharmacy'}}"
"{'type': 'node', 'id': 2004866260, 'lat': 1.2081025, 'lon': -77.4689118, 'tags': {'amenity': 'hospital', 'designation': 'Hospital', 'emergency': 'yes', 'name': 'E.S.E. Centro Hospital Consacá', 'source': 'Survey'}}"
"{'type': 'node', 'id': 2004877629, 'lat': 1.3491655, 'lon': -77.5231589, 'tags': {'amenity': 'hospital', 'designation': 'Centro de Salud', 'emergency': 'no', 'name': 'E.S.E. Centro de Salud Juan Pablo II', 'source': 'Survey'}}"
"{'type': 'node', 'id': 2190588069, 'lat': 0.8028607, 'lon': -77.7289504, 'tags': {'amenity': 'hospital', 'emergency': 'yes', 'name': 'Hopital del día Nova Salud'}}"
"{'type': 'node', 'id': 2377999260, 'lat': 0.830812, 'lon': -77.710049, 'tags': {'amenity': 'hospital', 'emergency': 'yes', 'name': 'Hospital General Provincial Luis G. Dávila'}}"
"{'type': 'node', 'id': 2723693359, 'lat': 2.0007342, 'lon': -76.7760452, 'tags': {'amenity': 'hospital', 'name': 'ESE Hospital La Vega'}}"
"{'type': 'node', 'id': 2829426892, 'lat': 1.1977204, 'lon': -77.2641608, 'tags': {'amenity': 'pharmacy', 'name': 'Drogueria Pasteur', 'shop': 'chemist'}}"
"{'type': 'node', 'id': 2829665500, 'lat': 1.198196, 'lon': -77.2643238, 'tags': {'amenity': 'hospital', 'emergency': 'yes', 'name': 'Puesto de salud Lorenzo'}}"
"{'type': 'node', 'id': 3475086061, 'lat': 2.0376312, 'lon': -76.925959, 'tags': {'amenity': 'hospital', 'name': 'Sucre'}}"
"{'type': 'node', 'id': 3499934955, 'lat': 1.9132236, 'lon': -76.856468, 'tags': {'addr:country': 'CO', 'amenity': 'pharmacy', 'dispensing': 'no', 'name': 'Gesthar Pharma'}}"
"{'type': 'node', 'id': 3499934967, 'lat': 1.9144489, 'lon': -76.8558201, 'tags': {'addr:country': 'CO', 'amenity': 'pharmacy', 'dispensing': 'no', 'name': 'Paz'}}"
"{'type': 'node', 'id': 3570378294, 'lat': 1.9759991, 'lon': -76.9559141, 'tags': {'amenity': 'clinic', 'name': 'Lerma', 'operator': 'ESE Sur Occidente'}}"
"{'type': 'node', 'id': 3660383160, 'lat': 1.7962647, 'lon': -77.1631757, 'tags': {'amenity': 'hospital', 'name': 'Hospital', 'operator': 'ESE Sur Occidente'}}"
"{'type': 'node', 'id': 3660405523, 'lat': 1.7956993, 'lon': -77.1635338, 'tags': {'addr:country': 'CO', 'amenity': 'pharmacy', 'dispensing': 'yes', 'name': 'El Ahorro'}}"
"{'type': 'node', 'id': 3660405524, 'lat': 1.7962102, 'lon': -77.1635564, 'tags': {'addr:country': 'CO', 'amenity': 'pharmacy', 'dispensing': 'yes', 'name': 'Famisalud'}}"
"{'type': 'node', 'id': 3660406827, 'lat': 1.8007841, 'lon': -77.1660332, 'tags': {'addr:country': 'CO', 'amenity': 'pharmacy', 'dispensing': 'yes', 'name': 'Popular'}}"
"{'type': 'node', 'id': 3660406828, 'lat': 1.8007696, 'lon': -77.1664992, 'tags': {'addr:country': 'CO', 'amenity': 'pharmacy', 'dispensing': 'yes', 'name': 'Primero de Abril'}}"
"{'type': 'node', 'id': 3660406829, 'lat': 1.797082, 'lon': -77.1645463, 'tags': {'addr:country': 'CO', 'amenity': 'pharmacy', 'dispensing': 'yes', 'name': 'Samaritana'}}"
"{'type': 'node', 'id': 3660406830, 'lat': 1.7969891, 'lon': -77.1637523, 'tags': {'addr:country': 'CO', 'amenity': 'pharmacy', 'dispensing': 'yes', 'name': 'San Luis 2'}}"
"{'type': 'node', 'id': 3660569316, 'lat': 1.7964224, 'lon': -77.1640328, 'tags': {'amenity': 'clinic', 'name': 'Cosmitet'}}"
"{'type': 'node', 'id': 3660569317, 'lat': 1.7951893, 'lon': -77.1630945, 'tags': {'addr:country': 'CO', 'amenity': 'pharmacy', 'dispensing': 'yes', 'name': 'Gestar Farma'}}"
"{'type': 'node', 'id': 3660569318, 'lat': 1.799959, 'lon': -77.165804, 'tags': {'addr:country': 'CO', 'amenity': 'pharmacy', 'dispensing': 'yes', 'name': 'Su Farmacia'}}"
"{'type': 'node', 'id': 3660591134, 'lat': 1.6835173, 'lon': -77.0720013, 'tags': {'amenity': 'hospital', 'name': 'Florencia', 'operator': 'ESE Sur Occidente'}}"
"{'type': 'node', 'id': 3690716785, 'lat': 0.8254659, 'lon': -77.6395944, 'tags': {'amenity': 'pharmacy', 'name': 'Drogas del Sur'}}"
"{'type': 'node', 'id': 3690722959, 'lat': 0.8258669, 'lon': -77.6397937, 'tags': {'amenity': 'pharmacy', 'name': 'Droguería La Rebaja'}}"
"{'type': 'node', 'id': 3799610128, 'lat': 1.8342399, 'lon': -76.9682531, 'tags': {'addr:country': 'CO', 'amenity': 'pharmacy', 'dispensing': 'yes'}}"
"{'type': 'node', 'id': 4181125790, 'lat': 1.2262544, 'lon': -77.282019, 'tags': {'amenity': 'pharmacy', 'name': 'La Rebaja '}}"
"{'type': 'node', 'id': 4181177891, 'lat': 1.2340514, 'lon': -77.2859173, 'tags': {'amenity': 'pharmacy'}}"
"{'type': 'node', 'id': 4181177892, 'lat': 1.2218914, 'lon': -77.2809886, 'tags': {'amenity': 'pharmacy'}}"
"{'type': 'node', 'id': 4209082306, 'lat': 1.081994, 'lon': -77.6152641, 'tags': {'addr:street': 'Calle 26', 'amenity': 'hospital', 'name': 'Hospital San José'}}"
"{'type': 'node', 'id': 4249631289, 'lat': 0.8203175, 'lon': -77.7082121, 'tags': {'addr:street': 'Luciano Coral', 'amenity': 'pharmacy', 'name': 'Cruz Azul'}}"
"{'type': 'node', 'id': 4470658994, 'lat': 1.0848887, 'lon': -77.6180358, 'tags': {'amenity': 'pharmacy'}}"
"{'type': 'node', 'id': 4797280825, 'lat': 1.0503861, 'lon': -77.4525272, 'tags': {'amenity': 'pharmacy'}}"
"{'type': 'node', 'id': 4862786621, 'lat': 1.2214569, 'lon': -77.291654, 'tags': {'amenity': 'clinic'}}"
"{'type': 'node', 'id': 4945726221, 'lat': 0.8195131, 'lon': -77.7107127, 'tags': {'addr:street': 'Calderon', 'amenity': 'clinic', 'name': 'Laboratorio Clínico Nazareno', 'name:es': 'Laboratorio Clínico Nazareno'}}"
"{'type': 'node', 'id': 4945794821, 'lat': 0.8196661, 'lon': -77.7105519, 'tags': {'addr:street': 'Calderon', 'amenity': 'pharmacy', 'name': 'Farmacia Nova'}}"
"{'type': 'node', 'id': 4978386021, 'lat': 0.8012926, 'lon': -77.7273205, 'tags': {'amenity': 'hospital', 'name': 'Centro de salud Sur', 'name:en': 'Center of salud Sur', 'name:es': 'Centro de salud Sur'}}"
"{'type': 'node', 'id': 4978422022, 'lat': 0.8015593, 'lon': -77.7308933, 'tags': {'amenity': 'pharmacy', 'name': 'Cruz azul', 'name:es': 'Cruz azul'}}"
"{'type': 'node', 'id': 5001501447, 'lat': 0.815149, 'lon': -77.7146663, 'tags': {'amenity': 'pharmacy', 'name': 'Centro Naturista', 'name:en': 'naturist center', 'name:es': 'centro naturista'}}"
"{'type': 'node', 'id': 5001611523, 'lat': 0.8142173, 'lon': -77.7162913, 'tags': {'amenity': 'pharmacy', 'name': 'Centro Naturista', 'name:en': 'naturist center', 'name:es': 'centro naturista'}}"
"{'type': 'node', 'id': 5001611735, 'lat': 0.8145476, 'lon': -77.7159177, 'tags': {'amenity': 'pharmacy', 'name': 'Centro Naturista', 'name:en': 'naturist center', 'name:es': 'centro naturista'}}"
"{'type': 'node', 'id': 5001611736, 'lat': 0.8132351, 'lon': -77.7161635, 'tags': {'amenity': 'pharmacy', 'name': 'Centro Naturista', 'name:en': 'naturist center', 'name:es': 'centro naturista'}}"
"{'type': 'node', 'id': 5001611825, 'lat': 0.8134487, 'lon': -77.7160691, 'tags': {'amenity': 'pharmacy', 'name': 'Centro Naturista', 'name:en': 'naturist center', 'name:es': 'centro naturista'}}"
"{'type': 'node', 'id': 5001611826, 'lat': 0.81317, 'lon': -77.7176301, 'tags': {'amenity': 'pharmacy', 'name': 'Centro Naturista', 'name:en': 'naturist center', 'name:es': 'centro naturista'}}"
"{'type': 'node', 'id': 5299339424, 'lat': 1.6823809, 'lon': -77.0731978, 'tags': {'amenity': 'pharmacy', 'name': 'Drogueria Felix'}}"
"{'type': 'node', 'id': 5299347021, 'lat': 1.6829072, 'lon': -77.0721186, 'tags': {'amenity': 'pharmacy', 'name': 'Farmacia Gestar pharma'}}"
"{'type': 'node', 'id': 5299347022, 'lat': 1.6824438, 'lon': -77.0738156, 'tags': {'amenity': 'pharmacy', 'name': 'Farmacia Lolita'}}"
"{'type': 'node', 'id': 5299347023, 'lat': 1.682395, 'lon': -77.0735744, 'tags': {'amenity': 'pharmacy', 'name': 'Farmacia vialiva'}}"
"{'type': 'node', 'id': 5314202125, 'lat': 0.8847839, 'lon': -77.7007269, 'tags': {'amenity': 'hospital', 'name': 'ESE Centro de Salud Nuestra Señora del Pilar'}}"
"{'type': 'node', 'id': 5314217922, 'lat': 0.8847681, 'lon': -77.7003666, 'tags': {'amenity': 'hospital', 'name': 'Urgencias'}}"
"{'type': 'node', 'id': 5322783321, 'lat': 1.2125026, 'lon': -77.282015, 'tags': {'addr:street': 'Carrera 24', 'amenity': 'pharmacy'}}"
"{'type': 'node', 'id': 5405639108, 'lat': 0.8826221, 'lon': -77.5033089, 'tags': {'amenity': 'pharmacy', 'name': 'Farmacenter'}}"
"{'type': 'node', 'id': 5408201636, 'lat': 0.8121806, 'lon': -77.7163261, 'tags': {'addr:city': 'Tulcán', 'addr:housenumber': '52-045', 'addr:postcode': '040103', 'addr:street': 'Olmedo y Ayacucho', 'amenity': 'hospital', 'emergency': 'yes', 'healthcare': 'hospital', 'healthcare:speciality': 'paediatrics', 'name': 'Dra Bethy Pozo Mejía CONSULTORIO MÉDICO DE PEDIATRÍA Y ADOLESCENCIA.', 'opening_hours': '09:00-19:00', 'operator': 'CONSULTORIO MÉDICO DE PEDIATRÍA Y ADOLESCENCIA.', 'payment:cash': 'yes', 'phone': '+593062984601'}}"
"{'type': 'node', 'id': 5421426285, 'lat': 1.2090767, 'lon': -77.2730789, 'tags': {'addr:full': 'Carrera 22 19', 'addr:housenumber': '68', 'addr:street': 'Carrera 22', 'amenity': 'pharmacy', 'name': 'Drogas La Rebaja Avenida Colombia'}}"
"{'type': 'node', 'id': 5421426290, 'lat': 1.2098486, 'lon': -77.2737851, 'tags': {'addr:full': 'Calle 22 17B-30', 'addr:housenumber': '03', 'addr:street': 'Carrera 26', 'amenity': 'pharmacy', 'name': 'Droguería Gran Avenida'}}"
"{'type': 'node', 'id': 5448950401, 'lat': 1.2188627, 'lon': -77.2859612, 'tags': {'addr:full': 'Carrera 34 14', 'addr:housenumber': '57', 'addr:street': 'Carrera 34', 'amenity': 'pharmacy', 'name': 'Farmacia Proinsalud', 'operator': 'Proinsalud S.A.'}}"
"{'type': 'node', 'id': 5465328296, 'lat': 1.2058603, 'lon': -77.2684378, 'tags': {'addr:full': 'Calle 22 9', 'addr:housenumber': '86', 'addr:street': 'Calle 22', 'healthcare': 'physiotherapist', 'healthcare:speciality': 'physical_therapy', 'name': 'Kinesis'}}"
"{'type': 'node', 'id': 5465336116, 'lat': 1.205871, 'lon': -77.268644, 'tags': {'addr:full': 'Calle 22 9', 'addr:housenumber': '92', 'addr:street': 'Calle 22', 'healthcare': 'laboratory', 'name': 'Clinizad'}}"
"{'type': 'node', 'id': 5465336118, 'lat': 1.2049389, 'lon': -77.2708533, 'tags': {'addr:full': 'Carrera 13 21', 'addr:housenumber': '92', 'addr:street': 'Carrera 13', 'amenity': 'pharmacy', 'name': 'Droguería Medifarma'}}"
"{'type': 'node', 'id': 5474440946, 'lat': 1.2109492, 'lon': -77.2792315, 'tags': {'addr:full': 'Carrera 22 15', 'addr:housenumber': '87', 'addr:street': 'Carrera 22', 'amenity': 'pharmacy', 'name': 'Farmacenter'}}"
"{'type': 'node', 'id': 5474440963, 'lat': 1.2119636, 'lon': -77.2785204, 'tags': {'addr:full': 'Carrera 22 17', 'addr:housenumber': '10', 'addr:street': 'Carrera 22', 'amenity': 'pharmacy', 'name': 'Droguería La Rebaja La Merced', 'operator': 'Drogas La Rebaja'}}"
"{'type': 'node', 'id': 5494788669, 'lat': 1.1720607, 'lon': -77.3183821, 'tags': {'addr:city': 'Pasto', 'addr:postcode': '+57', 'addr:street': 'Carrera 2', 'amenity': 'hospital', 'emergency': 'no', 'healthcare': 'hospital', 'healthcare:speciality': 'general;odontología', 'name': 'Centro de salud Gualmatán', 'wheelchair': 'yes'}}"
"{'type': 'node', 'id': 5783507545, 'lat': 0.8131132, 'lon': -77.7178111, 'tags': {'amenity': 'pharmacy', 'dispensing': 'yes', 'healthcare': 'pharmacy', 'name': 'Centro Naturista El Eden'}}"
"{'type': 'node', 'id': 5783646975, 'lat': 0.8138871, 'lon': -77.7182333, 'tags': {'amenity': 'doctors', 'healthcare': 'doctor'}}"
"{'type': 'node', 'id': 5783647024, 'lat': 0.8133146, 'lon': -77.7175706, 'tags': {'amenity': 'pharmacy', 'dispensing': 'yes', 'healthcare': 'pharmacy', 'name': 'Cruz Azul'}}"
"{'type': 'node', 'id': 5837072026, 'lat': 0.823589, 'lon': -77.6363211, 'tags': {'amenity': 'hospital', 'healthcare': 'hospital', 'name': 'Cruz Roja Colombiana UM Ipiales'}}"
"{'type': 'node', 'id': 6120171514, 'lat': 0.8131438, 'lon': -77.7186531, 'tags': {'addr:street': '10 de Agosto', 'contact:facebook': 'https://www.facebook.com/labintegral/', 'healthcare': 'laboratory', 'healthcare:speciality': 'bacteriology', 'name': 'Laboratorio Clínico Integral'}}"
"{'type': 'node', 'id': 6131255931, 'lat': 1.2293627, 'lon': -77.291021, 'tags': {'healthcare': 'rehabilitation', 'healthcare:speciality': 'paediatrics', 'name': 'CEHANI'}}"
"{'type': 'node', 'id': 6402127420, 'lat': 1.1468994, 'lon': -76.6478419, 'tags': {'amenity': 'pharmacy', 'name': 'Droguería'}}"
"{'type': 'node', 'id': 6538234444, 'lat': 1.2110636, 'lon': -77.2723448, 'tags': {'addr:city': 'Pasto', 'addr:housenumber': '22B-18', 'addr:postcode': '50003', 'addr:street': 'Carrera 19', 'addr:unit': 'Local 3', 'amenity': 'pharmacy', 'dispensing': 'no', 'healthcare': 'pharmacy', 'name': 'De la Vid Droguería', 'wheelchair': 'yes'}}"
"{'type': 'node', 'id': 6600111557, 'lat': 1.6041646, 'lon': -77.1316306, 'tags': {'addr:city': 'La Unión', 'addr:housenumber': 'Kra 2', 'addr:street': 'Calle 16 A', 'healthcare': 'yes', 'name': 'EPS Emssanar La unión'}}"
"{'type': 'node', 'id': 6600111559, 'lat': 1.6044675, 'lon': -77.1308326, 'tags': {'addr:city': 'La Unión', 'addr:housenumber': 'Kra 2', 'addr:street': 'Calle 17', 'amenity': 'hospital', 'healthcare': 'hospital', 'name': 'Hospital Educardo Santos Nivel II'}}"
"{'type': 'node', 'id': 6600111596, 'lat': 1.6044949, 'lon': -77.1319945, 'tags': {'addr:city': 'La Unión', 'addr:housenumber': '1-59', 'addr:street': 'Calle 17', 'healthcare': 'yes', 'name': 'EPS Asmet Salud'}}"
"{'type': 'node', 'id': 6600111597, 'lat': 1.6046566, 'lon': -77.1318558, 'tags': {'addr:city': 'La Unión', 'addr:housenumber': 'Kra 2', 'addr:street': 'Numero 17-09', 'healthcare': 'yes', 'name': 'EPS Indígena Mallamas'}}"
"{'type': 'node', 'id': 6600653225, 'lat': 1.5998142, 'lon': -77.1273896, 'tags': {'amenity': 'hospital', 'healthcare': 'hospital', 'name': 'Centro de Salud Luiis Acosta E.S.E'}}"
"{'type': 'node', 'id': 6611816006, 'lat': 1.5075161, 'lon': -77.0508212, 'tags': {'amenity': 'hospital', 'healthcare': 'hospital', 'name': 'Hospital Luis A coral E.S.E'}}"
"{'type': 'node', 'id': 6754131205, 'lat': 1.4967712, 'lon': -77.5205972, 'tags': {'amenity': 'clinic', 'healthcare': 'clinic', 'healthcare:speciality': 'general', 'name': 'Cemtro de Salud de Los Andes'}}"
"{'type': 'node', 'id': 6870928886, 'lat': 1.2325248, 'lon': -77.2835675, 'tags': {'amenity': 'clinic', 'name': 'Clínica morásurco'}}"
"{'type': 'node', 'id': 7252933593, 'lat': 0.8297236, 'lon': -77.6237987, 'tags': {'amenity': 'hospital', 'healthcare': 'hospital', 'name': 'IPS CAFE SALUD'}}"
"{'type': 'node', 'id': 7263912076, 'lat': 0.8270134, 'lon': -77.6393403, 'tags': {'amenity': 'hospital', 'healthcare': 'hospital', 'name': 'IPS EMSSANAR'}}"
"{'type': 'node', 'id': 7490745725, 'lat': 1.9666788, 'lon': -77.1179703, 'tags': {'amenity': 'pharmacy', 'name': 'Panamericana'}}"
"{'type': 'node', 'id': 7534171616, 'lat': 0.7947366, 'lon': -77.740337, 'tags': {'healthcare': 'yes', 'name': '27'}}"
"{'type': 'node', 'id': 7545342421, 'lat': 0.8053232, 'lon': -77.7322046, 'tags': {'addr:city': 'Tulcán', 'addr:street': 'Sumaco y Cayambe', 'amenity': 'hospital', 'emergency': 'yes', 'healthcare': 'hospital', 'healthcare:speciality': 'emergency', 'name': 'Saving lives', 'phone': '+593993441368'}}"
"{'type': 'node', 'id': 7738641278, 'lat': 1.0815462, 'lon': -77.6156764, 'tags': {'amenity': 'hospital', 'healthcare': 'hospital', 'name': 'IPS Julián Carlosama'}}"
"{'type': 'node', 'id': 7738707792, 'lat': 1.0837574, 'lon': -77.6102073, 'tags': {'amenity': 'hospital', 'healthcare': 'hospital', 'name': 'Hospital Indígena'}}"
"{'type': 'node', 'id': 7742123426, 'lat': 1.0592266, 'lon': -77.5654156, 'tags': {'amenity': 'hospital', 'healthcare': 'hospital', 'name': 'Centro de Salud'}}"
"{'type': 'node', 'id': 8387339117, 'lat': 1.216828, 'lon': -77.2858337, 'tags': {'amenity': 'clinic', 'name': 'Veterinaria valle de atriz'}}"
"{'type': 'node', 'id': 9296870887, 'lat': 1.2170916, 'lon': -77.2832727, 'tags': {'amenity': 'clinic', 'name': 'Centro Ortopédico de Nariño'}}"
"{'type': 'node', 'id': 9307414986, 'lat': 0.9224843, 'lon': -77.5684863, 'tags': {'amenity': 'hospital', 'healthcare': 'hospital', 'name': 'Centro de Salud Señor de los Milagros'}}"
"{'type': 'node', 'id': 10589188086, 'lat': 1.2867159, 'lon': -77.4705064, 'tags': {'amenity': 'pharmacy', 'healthcare': 'pharmacy'}}"
"{'type': 'node', 'id': 10694066248, 'lat': 1.2875594, 'lon': -77.4701998, 'tags': {'amenity': 'pharmacy', 'name': 'La gran rebaja'}}"
"{'type': 'node', 'id': 10694120946, 'lat': 1.2820822, 'lon': -77.4731269, 'tags': {'amenity': 'pharmacy', 'name': 'Confisalud'}}"
"{'type': 'node', 'id': 10694123665, 'lat': 1.2990008, 'lon': -77.4067713, 'tags': {'amenity': 'pharmacy', 'name': 'Salud en marcha'}}"
"{'type': 'node', 'id': 11040420336, 'lat': 0.829566, 'lon': -77.6489031, 'tags': {'amenity': 'pharmacy', 'check_date': '2023-07-11', 'healthcare': 'pharmacy'}}"
"{'type': 'node', 'id': 11043118115, 'lat': 0.8278034, 'lon': -77.6418862, 'tags': {'amenity': 'pharmacy', 'check_date': '2023-07-12', 'dispensing': 'no', 'drive_through': 'no', 'healthcare': 'pharmacy', 'name': 'Droguería Nariño', 'payment:mastercard': 'yes', 'payment:visa': 'yes', 'wheelchair': 'no'}}"
"{'type': 'node', 'id': 11043118117, 'lat': 0.8268986, 'lon': -77.6410088, 'tags': {'amenity': 'pharmacy', 'check_date': '2023-07-12', 'healthcare': 'pharmacy', 'name': 'Droguería La Salud'}}"
"{'type': 'node', 'id': 11043118118, 'lat': 0.8256403, 'lon': -77.6409368, 'tags': {'amenity': 'pharmacy', 'check_date': '2023-07-12', 'healthcare': 'pharmacy', 'name': 'Droguería Fatima'}}"
"{'type': 'node', 'id': 11046963039, 'lat': 1.4014085, 'lon': -77.2866075, 'tags': {'amenity': 'pharmacy', 'check_date': '2023-07-14', 'healthcare': 'pharmacy', 'name': 'Farmacenter Niño Divino 2'}}"
"{'type': 'node', 'id': 11444799642, 'lat': 0.826227, 'lon': -77.6392095, 'tags': {'amenity': 'pharmacy', 'check_date': '2023-12-22', 'healthcare': 'pharmacy', 'name': 'Droguería San Felipe Neri'}}"
"{'type': 'node', 'id': 12207660824, 'lat': 1.2179302, 'lon': -77.2886586, 'tags': {'amenity': 'hospital', 'building': 'hospital', 'healthcare': 'hospital', 'name': 'EPS Sanitas'}}"
"{'type': 'node', 'id': 12219630703, 'lat': 1.2073108, 'lon': -77.2859939, 'tags': {'addr:city': 'Pasto', 'addr:postcode': '520003', 'addr:street': 'Calle 5', 'amenity': 'pharmacy', 'healthcare': 'pharmacy', 'name': 'Drogeria Distrifarma J&D', 'opening_hours': 'Mo-Su 09:00-21:00', 'operator': 'Distrifarma J&D . Local'}}"
"{'type': 'node', 'id': 12347733301, 'lat': 1.2910635, 'lon': -77.3581855, 'tags': {'amenity': 'clinic'}}"
"{'type': 'node', 'id': 12413285801, 'lat': 0.8131632, 'lon': -77.7164211, 'tags': {'addr:street': 'Sucre', 'amenity': 'pharmacy', 'healthcare': 'pharmacy', 'name': 'Farmacia Tulcán'}}"
"{'type': 'node', 'id': 12413305601, 'lat': 0.8139414, 'lon': -77.7154294, 'tags': {'addr:street': 'Sucre', 'amenity': 'hospital', 'name': 'Privilegio Medic'}}"
"{'type': 'node', 'id': 12413336101, 'lat': 0.8157552, 'lon': -77.7144548, 'tags': {'amenity': 'pharmacy', 'brand': 'Cruz Azul', 'brand:wikidata': 'Q62108219', 'healthcare': 'pharmacy', 'name': 'Cruz Azul'}}"
"{'type': 'node', 'id': 12426526301, 'lat': 0.8154986, 'lon': -77.7168194, 'tags': {'addr:street': 'Manabí', 'amenity': 'hospital', 'name': 'IESS - Hospital del día'}}"
