OSM_Data
"{'type': 'node', 'id': 842543448, 'lat': 22.3593346, 'lon': 91.830657, 'tags': {'amenity': 'hospital', 'name': 'Chittagong Medical College Hospital'}}"
"{'type': 'node', 'id': 1329007641, 'lat': 22.3601025, 'lon': 91.8315438, 'tags': {'amenity': 'hospital', 'name': 'Chittagong Medical College'}}"
"{'type': 'node', 'id': 1848616382, 'lat': 22.3589378, 'lon': 91.8234566, 'tags': {'addr:city': 'Chittagong, Bangladesh', 'addr:postcode': '4000', 'addr:street': 'OR Nizam Rd', 'amenity': 'hospital', 'emergency': 'yes', 'name': 'Chittagong Metropolitan Hospital', 'opening_hours': '24/7'}}"
"{'type': 'node', 'id': 1848622264, 'lat': 22.3593393, 'lon': 91.8237587, 'tags': {'amenity': 'hospital', 'name': 'Metropolitan Clinic'}}"
"{'type': 'node', 'id': 1848622265, 'lat': 22.3593154, 'lon': 91.824298, 'tags': {'amenity': 'hospital', 'designation': 'Private', 'emergency': 'yes', 'name': 'Royal Hospital'}}"
"{'type': 'node', 'id': 1848622267, 'lat': 22.3593299, 'lon': 91.8240608, 'tags': {'amenity': 'hospital', 'name': 'Bell View Diagonistics'}}"
"{'type': 'node', 'id': 1962572816, 'lat': 22.3412045, 'lon': 91.8381286, 'tags': {'amenity': 'hospital', 'designation': 'Government Hospital', 'emergency': 'yes', 'name': 'General Hospital'}}"
"{'type': 'node', 'id': 1963093210, 'lat': 22.3437812, 'lon': 91.833969, 'tags': {'amenity': 'hospital', 'designation': 'Private', 'emergency': 'yes', 'name': 'Centre Point Hospital ,  OS'}}"
"{'type': 'node', 'id': 2208594272, 'lat': 22.3618884, 'lon': 91.8297218, 'tags': {'amenity': 'hospital', 'designation': 'Private', 'emergency': 'yes', 'name': 'Treatment Hospital'}}"
"{'type': 'node', 'id': 2208595895, 'lat': 22.361853, 'lon': 91.8304008, 'tags': {'amenity': 'hospital', 'designation': 'Private Hospital', 'emergency': 'yes', 'name': 'Holy Health Hospital'}}"
"{'type': 'node', 'id': 2208720875, 'lat': 22.3614315, 'lon': 91.8136016, 'tags': {'amenity': 'hospital', 'name': 'Surjer Hasi Clinic'}}"
"{'type': 'node', 'id': 2208720876, 'lat': 22.3612206, 'lon': 91.8160556, 'tags': {'amenity': 'hospital', 'name': 'Lions Charitable Eye Hospital'}}"
"{'type': 'node', 'id': 2208720877, 'lat': 22.3606679, 'lon': 91.7958119, 'tags': {'amenity': 'hospital', 'name': 'Imperial Hospital'}}"
"{'type': 'node', 'id': 2208720878, 'lat': 22.3615287, 'lon': 91.7976924, 'tags': {'amenity': 'hospital', 'emergency': 'yes', 'name': 'Banghabondhu Memorial Hospital'}}"
"{'type': 'node', 'id': 2208720880, 'lat': 22.3620181, 'lon': 91.8093557, 'tags': {'amenity': 'hospital', 'emergency': 'yes', 'healthcare': 'hospital', 'name': 'Holy Crescent Hospital'}}"
"{'type': 'node', 'id': 2208720882, 'lat': 22.3617825, 'lon': 91.8024561, 'tags': {'amenity': 'hospital', 'emergency': 'yes', 'name': 'Chittagong diabetic and general Hospital'}}"
"{'type': 'node', 'id': 2208720892, 'lat': 22.3617211, 'lon': 91.7981771, 'tags': {'amenity': 'hospital', 'name': 'USTC Medical College Hospital'}}"
"{'type': 'node', 'id': 2209597791, 'lat': 22.359404, 'lon': 91.8222429, 'tags': {'addr:housename': 'Central Plaza', 'addr:street': 'GEC circle', 'amenity': 'pharmacy', 'dispensing': 'yes', 'name': 'Central Plaza Pharmacy'}}"
"{'type': 'node', 'id': 2209597818, 'lat': 22.3942639, 'lon': 91.868978, 'tags': {'amenity': 'hospital', 'name': 'Medical Square'}}"
"{'type': 'node', 'id': 2209597822, 'lat': 22.3606051, 'lon': 91.8303823, 'tags': {'amenity': 'hospital', 'designation': 'Government Hospital', 'emergency': 'yes', 'name': 'Chittagong Medical College'}}"
"{'type': 'node', 'id': 2209597836, 'lat': 22.3674084, 'lon': 91.8430813, 'tags': {'amenity': 'hospital', 'designation': 'Diagnostic Center', 'emergency': 'no', 'name': 'Modern Diagnostic Center,OS'}}"
"{'type': 'node', 'id': 2209597842, 'lat': 22.3591836, 'lon': 91.826521, 'tags': {'amenity': 'hospital', 'emergency': 'no', 'name': 'Marie Stopes Clinic'}}"
"{'type': 'node', 'id': 2209597857, 'lat': 22.3588273, 'lon': 91.8251425, 'tags': {'amenity': 'hospital', 'designation': 'Diagnostic Center', 'emergency': 'no', 'name': 'labaid diagnostic center'}}"
"{'type': 'node', 'id': 2209597865, 'lat': 22.3609104, 'lon': 91.8317715, 'tags': {'amenity': 'hospital', 'designation': 'Private', 'emergency': 'yes', 'name': 'Popular Diagnostic Center'}}"
"{'type': 'node', 'id': 2209597869, 'lat': 22.3583034, 'lon': 91.8254633, 'tags': {'amenity': 'hospital', 'emergency': 'yes', 'name': 'Metro diagnostic center'}}"
"{'type': 'node', 'id': 2209597873, 'lat': 22.3610907, 'lon': 91.8312057, 'tags': {'amenity': 'hospital', 'name': 'Chittagong Shishu Hospital', 'name:en': 'Chittagong shishu hospital'}}"
"{'type': 'node', 'id': 2209597874, 'lat': 22.3603935, 'lon': 91.8282626, 'tags': {'amenity': 'hospital', 'designation': 'Blood Bank', 'emergency': 'yes', 'name': 'লাইফ সেভ ব্লাড ব্যাংক', 'name:en': 'Life save Blood bank'}}"
"{'type': 'node', 'id': 2210227362, 'lat': 22.4413749, 'lon': 91.9079265, 'tags': {'amenity': 'hospital', 'emergency': 'yes', 'name': 'Pioneer hospital and diagnostic center Ltd.'}}"
"{'type': 'node', 'id': 2210381424, 'lat': 22.4412773, 'lon': 91.9086186, 'tags': {'amenity': 'hospital', 'name': 'Appolo Diagnostic Center , OS'}}"
"{'type': 'node', 'id': 2210381444, 'lat': 22.4589349, 'lon': 91.965978, 'tags': {'addr:city': 'Chittagong', 'amenity': 'hospital', 'healthcare': 'hospital', 'name': 'Ultra Assay Center'}}"
"{'type': 'node', 'id': 2210381459, 'lat': 22.4413765, 'lon': 91.9079269, 'tags': {'amenity': 'hospital', 'name': 'Pioneer hospital And diagnostic center Ltd. , OS'}}"
"{'type': 'node', 'id': 2211572832, 'lat': 22.3424373, 'lon': 91.8374508, 'tags': {'amenity': 'hospital', 'designation': 'Maternity ', 'emergency': 'yes', 'name': 'Jemison redcrescent maternity hospital,Anderkilla'}}"
"{'type': 'node', 'id': 2211572833, 'lat': 22.3424373, 'lon': 91.8374507, 'tags': {'amenity': 'hospital', 'name': 'Jemison redcrescent maternity hospital,Anderkilla'}}"
"{'type': 'node', 'id': 2214704493, 'lat': 22.3604532, 'lon': 91.8337379, 'tags': {'amenity': 'hospital', 'name': 'Health Home Private Clinic'}}"
"{'type': 'node', 'id': 2214704495, 'lat': 22.3602062, 'lon': 91.833258, 'tags': {'amenity': 'hospital', 'name': 'Mirror Hospital Limited.'}}"
"{'type': 'node', 'id': 2214704496, 'lat': 22.3602835, 'lon': 91.8338829, 'tags': {'amenity': 'hospital', 'name': 'Mohila O Sishu Hospital,OS'}}"
"{'type': 'node', 'id': 2214704498, 'lat': 22.3604627, 'lon': 91.8334488, 'tags': {'amenity': 'hospital', 'name': 'Surgiscope hospital unit 1 OS'}}"
"{'type': 'node', 'id': 2215964066, 'lat': 22.3596287, 'lon': 91.8351042, 'tags': {'amenity': 'clinic', 'name': 'Woodland Diagnostic Center'}}"
"{'type': 'node', 'id': 2216627192, 'lat': 22.3597999, 'lon': 91.8374698, 'tags': {'amenity': 'hospital', 'name': 'Surgiscope Hospital unit 2'}}"
"{'type': 'node', 'id': 2216631278, 'lat': 22.3651894, 'lon': 91.8339336, 'tags': {'amenity': 'hospital', 'name': ""Doctor's hospital(OS)""}}"
"{'type': 'node', 'id': 2216636912, 'lat': 22.3631377, 'lon': 91.8305255, 'tags': {'amenity': 'hospital', 'name': 'CSCR storke unit'}}"
"{'type': 'node', 'id': 2216658624, 'lat': 22.3614483, 'lon': 91.8289753, 'tags': {'amenity': 'hospital', 'name': 'Checkup Diagnostic Centre'}}"
"{'type': 'node', 'id': 2324539753, 'lat': 22.3629551, 'lon': 91.8347383, 'tags': {'amenity': 'pharmacy', 'name': 'Chowdhury and Sons'}}"
"{'type': 'node', 'id': 2324541010, 'lat': 22.3624485, 'lon': 91.8346561, 'tags': {'amenity': 'hospital', 'name': 'Niramoy Clinic'}}"
"{'type': 'node', 'id': 2333045235, 'lat': 22.3524199, 'lon': 91.8214225, 'tags': {'amenity': 'hospital', 'name': 'Police Lines Hospital'}}"
"{'type': 'node', 'id': 2339088931, 'lat': 22.3313997, 'lon': 91.8320131, 'tags': {'amenity': 'hospital', 'name': 'Menon Hospital'}}"
"{'type': 'node', 'id': 2340250459, 'lat': 22.3277277, 'lon': 91.8114567, 'tags': {'addr:city': 'Chittagong', 'addr:postcode': '4100', 'addr:street': 'Agrabad access Road', 'amenity': 'hospital', 'name': 'Nawabi'}}"
"{'type': 'node', 'id': 2342005239, 'lat': 22.3661028, 'lon': 91.833482, 'tags': {'addr:housenumber': '116-117', 'amenity': 'hospital', 'emergency': 'yes', 'name': 'Ekushe Hospital'}}"
"{'type': 'node', 'id': 2408686614, 'lat': 22.3288889, 'lon': 91.8027234, 'tags': {'amenity': 'hospital', 'name': 'Agrabad Eye Hospital'}}"
"{'type': 'node', 'id': 2412031667, 'lat': 22.2996376, 'lon': 91.9705669, 'tags': {'amenity': 'hospital', 'name': 'Patiya Upazila Health Complex'}}"
"{'type': 'node', 'id': 2412065020, 'lat': 21.7619198, 'lon': 92.074861, 'tags': {'amenity': 'hospital', 'name': 'Chakaria Upazila Health Complex'}}"
"{'type': 'node', 'id': 2446029248, 'lat': 22.4179164, 'lon': 91.8661393, 'tags': {'addr:housename': 'Nojumia hat,Kaptai Road,Chittagong', 'amenity': 'hospital', 'name': 'The fair lab'}}"
"{'type': 'node', 'id': 2506698853, 'lat': 22.3635138, 'lon': 91.8395673, 'tags': {'amenity': 'pharmacy', 'name': 'Lucky Pharmacy'}}"
"{'type': 'node', 'id': 2571053072, 'lat': 22.3596798, 'lon': 91.8349368, 'tags': {'amenity': 'hospital', 'name': 'Ma Moni Hospital'}}"
"{'type': 'node', 'id': 2577035693, 'lat': 22.3602517, 'lon': 91.8524369, 'tags': {'amenity': 'hospital', 'name': 'Orin Dental Care'}}"
"{'type': 'node', 'id': 2580458163, 'lat': 22.3461643, 'lon': 91.8339182, 'tags': {'amenity': 'hospital', 'name': 'Sensive Diagnostics Center'}}"
"{'type': 'node', 'id': 2580474812, 'lat': 22.3446545, 'lon': 91.8340144, 'tags': {'amenity': 'hospital', 'name': 'Bellevue Diagnostic Center'}}"
"{'type': 'node', 'id': 2580477465, 'lat': 22.3446669, 'lon': 91.8335531, 'tags': {'amenity': 'hospital', 'name': 'Lab one diagnostic center'}}"
"{'type': 'node', 'id': 2580558199, 'lat': 22.3781771, 'lon': 91.8505766, 'tags': {'addr:city': 'Chittagong', 'addr:street': 'Road No. 10', 'amenity': 'pharmacy', 'name': 'Bangladesh Medicine Supply'}}"
"{'type': 'node', 'id': 2585719362, 'lat': 22.3439671, 'lon': 91.8329767, 'tags': {'amenity': 'hospital', 'name': 'Bangladesh Diabetic Foot Saving Centre'}}"
"{'type': 'node', 'id': 2828258270, 'lat': 22.6365843, 'lon': 91.7954382, 'tags': {'amenity': 'hospital', 'name': 'Nazirhat Upazila Health  Complex', 'name:bn': 'নাজিরহাট উপজেলা স্বাস্থ্য কমপ্লেক্স'}}"
"{'type': 'node', 'id': 2828406228, 'lat': 22.8501899, 'lon': 91.8411782, 'tags': {'amenity': 'hospital', 'name': 'Manikchari Upazila Health Complex'}}"
"{'type': 'node', 'id': 2831083551, 'lat': 21.6523607, 'lon': 92.3119346, 'tags': {'amenity': 'hospital', 'name': 'Alikadam Upazila Health Complex'}}"
"{'type': 'node', 'id': 2831102978, 'lat': 21.6817229, 'lon': 92.0772639, 'tags': {'amenity': 'hospital', 'check_date': '2024-04-06', 'name': 'Christian Memorial Hospital'}}"
"{'type': 'node', 'id': 3795800904, 'lat': 22.3184273, 'lon': 91.8521737, 'tags': {'amenity': 'hospital', 'name': 'Sah Somie nagoi community clinic'}}"
"{'type': 'node', 'id': 4326699884, 'lat': 22.3581817, 'lon': 91.7860176, 'tags': {'amenity': 'clinic', 'name': 'The Prime Lab'}}"
"{'type': 'node', 'id': 4372209895, 'lat': 22.3582562, 'lon': 91.8249135, 'tags': {'amenity': 'hospital', 'name:en': 'Evergreen Health Center'}}"
"{'type': 'node', 'id': 4634235837, 'lat': 22.3227283, 'lon': 91.8070098, 'tags': {'amenity': 'hospital'}}"
"{'type': 'node', 'id': 4635158151, 'lat': 22.3134448, 'lon': 91.7964792, 'tags': {'amenity': 'hospital', 'name': 'চট্টগ্রাম বন্দর হাসপাতাল', 'name:en': 'Chiitagong Port Hospital'}}"
"{'type': 'node', 'id': 4641633020, 'lat': 22.3331232, 'lon': 91.8334685, 'tags': {'amenity': 'hospital', 'name': 'Memon-2'}}"
"{'type': 'node', 'id': 4684480190, 'lat': 22.4015361, 'lon': 91.8060306, 'tags': {'amenity': 'hospital', 'name:en': 'Chittagong cantonment'}}"
"{'type': 'node', 'id': 4771456477, 'lat': 21.7580495, 'lon': 92.144913, 'tags': {'amenity': 'clinic', 'name': 'Union Health and Family Planning Center'}}"
"{'type': 'node', 'id': 4776615612, 'lat': 21.8465209, 'lon': 92.056235, 'tags': {'amenity': 'hospital', 'name': 'Harbang Helth Subcenter'}}"
"{'type': 'node', 'id': 5019275482, 'lat': 22.3604419, 'lon': 91.7959434, 'tags': {'amenity': 'hospital', 'emergency': 'yes', 'name': 'Eye infarmary and training complex'}}"
"{'type': 'node', 'id': 5031604362, 'lat': 22.3660705, 'lon': 91.8334146, 'tags': {'amenity': 'hospital', 'name': 'Ekushey Hospital,Mirzapul(OS)'}}"
"{'type': 'node', 'id': 5035017557, 'lat': 22.3596954, 'lon': 91.8365026, 'tags': {'amenity': 'hospital', 'name': ""People's Hospital""}}"
"{'type': 'node', 'id': 5035017558, 'lat': 22.359727, 'lon': 91.8363378, 'tags': {'amenity': 'pharmacy', 'dispensing': 'yes', 'name': 'Atm corner pharmacy'}}"
"{'type': 'node', 'id': 5105441222, 'lat': 22.2841804, 'lon': 91.7881054, 'tags': {'amenity': 'hospital', 'name:en': 'Patenga Naval Hospital'}}"
"{'type': 'node', 'id': 5132610850, 'lat': 22.4250878, 'lon': 91.7450547, 'tags': {'amenity': 'pharmacy', 'name': 'যীবা মেডিকো'}}"
"{'type': 'node', 'id': 5142634850, 'lat': 21.7634874, 'lon': 92.0760036, 'tags': {'amenity': 'pharmacy', 'name': 'Chakaria pharmacy চকরিয়া ঔষধালয়'}}"
"{'type': 'node', 'id': 5146436803, 'lat': 22.0181387, 'lon': 92.0974007, 'tags': {'amenity': 'pharmacy', 'name': 'Jamuna Pharmacy যমুনা ফার্মেসী'}}"
"{'type': 'node', 'id': 5146848827, 'lat': 22.1035294, 'lon': 92.0741768, 'tags': {'amenity': 'pharmacy', 'name': 'Janata Pharmacy জনতা ফার্মেসী'}}"
"{'type': 'node', 'id': 5146984721, 'lat': 22.1613281, 'lon': 92.0660794, 'tags': {'amenity': 'pharmacy', 'name': 'Asad Pharmacy আসাদ ফার্মেসী'}}"
"{'type': 'node', 'id': 5147037540, 'lat': 22.1622501, 'lon': 92.0655096, 'tags': {'amenity': 'pharmacy', 'name': 'Alam Pharmacy আলম ফার্মেসী'}}"
"{'type': 'node', 'id': 5149241525, 'lat': 22.2989548, 'lon': 91.9704877, 'tags': {'amenity': 'pharmacy', 'name': 'Lacky Pharmacy লাকী ফার্মেসী'}}"
"{'type': 'node', 'id': 5149241911, 'lat': 22.2990081, 'lon': 91.9703307, 'tags': {'amenity': 'pharmacy', 'name': 'Khaja Pharmacy খাজা ফার্মেসী'}}"
"{'type': 'node', 'id': 5152993504, 'lat': 22.2717881, 'lon': 91.7868512, 'tags': {'amenity': 'pharmacy', 'name': 'AK Pharmacy একে ফার্মেসি'}}"
"{'type': 'node', 'id': 5153037006, 'lat': 22.2830266, 'lon': 91.7849173, 'tags': {'amenity': 'hospital', 'name': 'Navy Hospital Gate নেভি হাসপাতালের গেট'}}"
"{'type': 'node', 'id': 5154954398, 'lat': 22.4988018, 'lon': 91.8069413, 'tags': {'healthcare': 'blood_donation', 'name': 'হাটহাজারী ব্লাড ব্যাংক'}}"
"{'type': 'node', 'id': 5154996447, 'lat': 22.4992676, 'lon': 91.8073753, 'tags': {'addr:city': 'Hathazari', 'amenity': 'pharmacy', 'name': 'Medicine Centre'}}"
"{'type': 'node', 'id': 5154996448, 'lat': 22.4994733, 'lon': 91.8075013, 'tags': {'amenity': 'pharmacy', 'name': 'B Alam Pharmacy'}}"
"{'type': 'node', 'id': 5154997995, 'lat': 22.4996144, 'lon': 91.8075733, 'tags': {'amenity': 'pharmacy', 'name': 'Bismillah Pharmacy'}}"
"{'type': 'node', 'id': 5156625784, 'lat': 22.6859742, 'lon': 91.7913277, 'tags': {'amenity': 'pharmacy', 'name': 'Janasheba Pharmacy জনসেবা ফার্মেসী', 'opening_hours': 'Mo-Su,PH 09:00-22:00', 'wheelchair': 'yes'}}"
"{'type': 'node', 'id': 5160433414, 'lat': 22.5351735, 'lon': 91.9132248, 'tags': {'amenity': 'pharmacy', 'healthcare': 'pharmacy', 'name': 'Pharmacy'}}"
"{'type': 'node', 'id': 5160570592, 'lat': 22.5346393, 'lon': 91.9201874, 'tags': {'amenity': 'pharmacy', 'healthcare': 'pharmacy', 'name': 'Rahmaniya Pharmacy'}}"
"{'type': 'node', 'id': 5175493391, 'lat': 22.3540102, 'lon': 91.8288361, 'tags': {'amenity': 'hospital', 'name': 'Desh medical Services'}}"
"{'type': 'node', 'id': 5659936057, 'lat': 22.2426174, 'lon': 91.8192665, 'tags': {'amenity': 'hospital', 'name': 'Turna Medical Hall'}}"
"{'type': 'node', 'id': 5719903277, 'lat': 22.2675091, 'lon': 91.8005781, 'tags': {'amenity': 'hospital', 'healthcare': 'hospital', 'name': 'Medical Center'}}"
"{'type': 'node', 'id': 5826768588, 'lat': 22.4015493, 'lon': 91.8073258, 'tags': {'addr:street': 'Cantontment Road', 'amenity': 'hospital', 'name:en': 'CMH Chittagong'}}"
"{'type': 'node', 'id': 5897044085, 'lat': 22.2832985, 'lon': 91.7837238, 'tags': {'amenity': 'hospital', 'healthcare': 'hospital', 'name': 'Momota Clinic & Hospital, M. A Aziz Rd, Chattogram', 'name:en': 'Mamata Clinic'}}"
"{'type': 'node', 'id': 5897044288, 'lat': 22.2845152, 'lon': 91.7847485, 'tags': {'amenity': 'hospital', 'name:en': 'Chittagong Diabetic General Hospital'}}"
"{'type': 'node', 'id': 6055027885, 'lat': 22.355143, 'lon': 91.8253382, 'tags': {'amenity': 'hospital', 'name': 'Max Hospital'}}"
"{'type': 'node', 'id': 6056491685, 'lat': 22.3609439, 'lon': 91.8312669, 'tags': {'amenity': 'hospital', 'name:en': 'Chittagong shishu hospital pvt ltd'}}"
"{'type': 'node', 'id': 6120473665, 'lat': 22.5088811, 'lon': 91.8039861, 'tags': {'amenity': 'hospital', 'name': 'Hathazari Upazila Health Complex'}}"
"{'type': 'node', 'id': 6127550120, 'lat': 22.4781123, 'lon': 91.7209985, 'tags': {'amenity': 'pharmacy', 'name': 'Popular Pharmacy পপুলার ফার্মেসী'}}"
"{'type': 'node', 'id': 6127550132, 'lat': 22.4784642, 'lon': 91.7206947, 'tags': {'amenity': 'pharmacy', 'name': 'Aman Medico'}}"
"{'type': 'node', 'id': 6127683846, 'lat': 22.4195098, 'lon': 91.867914, 'tags': {'amenity': 'pharmacy', 'name': 'Seba Drugs'}}"
"{'type': 'node', 'id': 6127683849, 'lat': 22.4193469, 'lon': 91.8681393, 'tags': {'amenity': 'pharmacy', 'name': 'Loknath Medical Hall'}}"
"{'type': 'node', 'id': 6127683850, 'lat': 22.4193416, 'lon': 91.868258, 'tags': {'amenity': 'pharmacy', 'name': 'Ma Medical'}}"
"{'type': 'node', 'id': 6132026713, 'lat': 22.3383056, 'lon': 91.7844442, 'tags': {'amenity': 'pharmacy', 'healthcare': 'pharmacy', 'name': 'Amin Medical Hall'}}"
"{'type': 'node', 'id': 6132026718, 'lat': 22.339012, 'lon': 91.7841739, 'tags': {'amenity': 'pharmacy', 'name': 'Ahasan Medical Hall'}}"
"{'type': 'node', 'id': 6132039506, 'lat': 22.3316317, 'lon': 91.7793962, 'tags': {'amenity': 'clinic', 'name': 'Gunners Medical Facility'}}"
"{'type': 'node', 'id': 6134171853, 'lat': 22.3136296, 'lon': 91.7962054, 'tags': {'amenity': 'hospital', 'name': 'Chattogram Port Hospital, Port Colony Rd, Chattogram', 'name:en': 'Chittagong Port Hospital'}}"
"{'type': 'node', 'id': 6134251333, 'lat': 22.4050822, 'lon': 91.8642888, 'tags': {'amenity': 'pharmacy', 'healthcare': 'pharmacy', 'name': 'The ACME Laboratory Ltd. DPO'}}"
"{'type': 'node', 'id': 6134476643, 'lat': 22.329116, 'lon': 91.792022, 'tags': {'amenity': 'hospital', 'healthcare': 'hospital', 'name': 'Mother and Child Care Hospital'}}"
"{'type': 'node', 'id': 6191479905, 'lat': 22.4979541, 'lon': 91.7144453, 'tags': {'amenity': 'pharmacy', 'dispensing': 'yes', 'healthcare': 'pharmacy', 'name': 'M/S City Pharmacy, Joramtal Bazar, Joramtal, Sitakund, Chattogram'}}"
"{'type': 'node', 'id': 6206929277, 'lat': 22.5797689, 'lon': 91.6804262, 'tags': {'healthcare': 'alternative', 'name': 'Dr. Ismail Homeo Hall'}}"
"{'type': 'node', 'id': 6207326402, 'lat': 22.581315, 'lon': 91.6795102, 'tags': {'amenity': 'pharmacy', 'dispensing': 'yes', 'healthcare': 'pharmacy', 'name': 'Priya Pharmacy'}}"
"{'type': 'node', 'id': 6215429971, 'lat': 22.6199128, 'lon': 91.6573171, 'tags': {'amenity': 'pharmacy', 'dispensing': 'yes', 'healthcare': 'pharmacy', 'name': 'Janani Pharmacy'}}"
"{'type': 'node', 'id': 6215438211, 'lat': 22.618863, 'lon': 91.6582291, 'tags': {'amenity': 'pharmacy', 'dispensing': 'yes', 'healthcare': 'pharmacy', 'name': 'Nobi Pharmacy'}}"
"{'type': 'node', 'id': 6215439374, 'lat': 22.6193062, 'lon': 91.6582505, 'tags': {'amenity': 'pharmacy', 'dispensing': 'yes', 'healthcare': 'pharmacy', 'name': 'Janosheba Medical Store'}}"
"{'type': 'node', 'id': 6241217367, 'lat': 22.7552896, 'lon': 91.5862423, 'tags': {'amenity': 'pharmacy', 'dispensing': 'yes', 'healthcare': 'pharmacy', 'name': 'Hoque Pharmacy, Dhaka - Chittagong Hwy, Mirsharai, Chittagong'}}"
"{'type': 'node', 'id': 6241220128, 'lat': 22.7557125, 'lon': 91.5858185, 'tags': {'amenity': 'pharmacy', 'dispensing': 'yes', 'healthcare': 'pharmacy', 'name': 'Messrs Sofi Pharmacy'}}"
"{'type': 'node', 'id': 6241221716, 'lat': 22.7574146, 'lon': 91.5846473, 'tags': {'amenity': 'pharmacy', 'dispensing': 'yes', 'healthcare': 'pharmacy', 'name': 'Peoples Pharmacy, Dhaka - Chittagong Hwy, Mirsharai, Chittagong'}}"
"{'type': 'node', 'id': 6336673602, 'lat': 22.4088862, 'lon': 91.8165062, 'tags': {'addr:street': 'Tiger Road, Baluchara', 'amenity': 'hospital', 'name': 'Cantonment Board General Hospital, Tiger Rd, Chattogram', 'opening_hours': 'Mo-Su 06:00-18:00'}}"
"{'type': 'node', 'id': 6533811093, 'lat': 22.3635279, 'lon': 91.830503, 'tags': {'amenity': 'hospital', 'name': 'Belle Vue Hospital ( under construction)'}}"
"{'type': 'node', 'id': 6909859458, 'lat': 22.7019027, 'lon': 92.8377061, 'tags': {'addr:district': 'Lunglei', 'addr:full': 'NH 2,North Tawipui', 'addr:postcode': '796701', 'addr:state': 'Mizoram', 'addr:subdistrict': 'Lunglei', 'healthcare': 'centre', 'name': 'PHC, Tawipui', 'source': 'OpenGovernmentData'}}"
"{'type': 'node', 'id': 6909859463, 'lat': 22.8694223, 'lon': 92.5902857, 'tags': {'addr:district': 'Lunglei', 'addr:full': 'Tlabung-Lunglei Road,Near Sports Complex,Lungsen', 'addr:postcode': '796571', 'addr:state': 'Mizoram', 'addr:subdistrict': 'Lungsen', 'healthcare': 'centre', 'name': 'PHC, Lungsen', 'source': 'OpenGovernmentData'}}"
"{'type': 'node', 'id': 6911271597, 'lat': 22.5394646, 'lon': 92.8858672, 'tags': {'addr:district': 'Lawngtlai', 'addr:full': 'Bazar Veng', 'addr:postcode': '796891', 'addr:state': 'Mizoram', 'amenity': 'hospital', 'name': 'Lcmc Hospital, Lawngtlai', 'source': 'OpenGovernmentData'}}"
"{'type': 'node', 'id': 7100817756, 'lat': 22.343814, 'lon': 91.7854518, 'tags': {'addr:city': 'Chittagong', 'addr:postcode': '4216', 'addr:street': '২য় তলা, ১২৫০/বি, সন্দীপ হাউজ, সবুজবাগ, হালিশহর রোড,নয়াবাজার বিশ্বরোড এর দক্ষিণ পার্শ্ব,চট্রগ্রাম', 'amenity': 'dentist', 'healthcare': 'dentist', 'healthcare:speciality': 'dentist;dental_oral_maxillo_facial_surgery;dentistry;dental', 'name': 'JANNAT DENTAL CARE CHITTAGONG', 'operator:type': 'public'}}"
"{'type': 'node', 'id': 7127376527, 'lat': 22.8501908, 'lon': 92.7941649, 'tags': {'addr:district': 'Lunglei', 'addr:state': 'Mizoram', 'addr:subdistrict': 'Lunglei', 'description': 'Urban Primary Health Centre', 'healthcare': 'centre', 'name': 'Hrangchalkawn UPHC', 'source': 'OpenGovernmentData'}}"
"{'type': 'node', 'id': 7127376529, 'lat': 22.332288, 'lon': 92.71235, 'tags': {'addr:district': 'Lawngtlai', 'addr:full': 'Vathuampui Road,Near Presbyterian Church,M Kawnpui', 'addr:postcode': '796891', 'addr:state': 'Mizoram', 'addr:subdistrict': 'Lawngtlai', 'amenity': 'hospital', 'name': 'Christian Hospital,M Kawnpui', 'source': 'OpenGovernmentData'}}"
"{'type': 'node', 'id': 7127376531, 'lat': 22.536451, 'lon': 92.8886349, 'tags': {'addr:district': 'Lawngtlai', 'addr:full': 'Electric Veng,Near Circuit House,Lawngtai', 'addr:postcode': '796891', 'addr:state': 'Mizoram', 'addr:subdistrict': 'Lawngtlai', 'amenity': 'hospital', 'name': 'District Hospital,Lawngtai', 'source': 'OpenGovernmentData'}}"
"{'type': 'node', 'id': 7127376536, 'lat': 22.6163566, 'lon': 92.6382886, 'tags': {'addr:district': 'Lawngtlai', 'addr:full': 'Thana Road,Near Police Station,Chawngte', 'addr:postcode': '796772', 'addr:state': 'Mizoram', 'addr:subdistrict': 'Chawngte', 'amenity': 'hospital', 'description': 'Community Health Center', 'healthcare': 'centre', 'name': 'CHC,Chawngte', 'source': 'OpenGovernmentData'}}"
"{'type': 'node', 'id': 7127376547, 'lat': 22.7066754, 'lon': 92.5292909, 'tags': {'addr:district': 'Lawngtlai', 'addr:full': 'Near Police Station,Borapansury II', 'addr:postcode': '796770', 'addr:state': 'Mizoram', 'addr:subdistrict': 'Chawngte', 'amenity': 'hospital', 'name': 'Borapansury Hospital', 'source': 'OpenGovernmentData'}}"
"{'type': 'node', 'id': 7127376558, 'lat': 22.858633, 'lon': 92.819968, 'tags': {'addr:district': 'Lunglei', 'addr:full': 'Near Apex Bank,NH 2,Zobawk', 'addr:postcode': '796701', 'addr:state': 'Mizoram', 'addr:subdistrict': 'Lunglei', 'description': 'Primary Health Centre', 'healthcare': 'centre', 'name': 'PHC,Zobawk', 'source': 'OpenGovernmentData'}}"
"{'type': 'node', 'id': 7127376559, 'lat': 22.511206, 'lon': 92.889175, 'tags': {'addr:district': 'Lawngtlai', 'addr:full': 'NH 2,Opp. Likbk Christian Millansangati,Lawngtlai', 'addr:postcode': '796891', 'addr:state': 'Mizoram', 'addr:subdistrict': 'Lawngtlai', 'amenity': 'hospital', 'name': 'Lairam Christian Medical Centre & Hospital', 'source': 'OpenGovernmentData'}}"
"{'type': 'node', 'id': 7151041429, 'lat': 22.8670086, 'lon': 92.7776303, 'tags': {'addr:full': 'Theiriat, Lunglei', 'addr:state': 'Mizoram', 'description': 'Health- Sub Centre', 'healthcare': 'centre', 'name': 'Community Health Sub Centre ,Theiriat', 'source': 'OpenGovernmentData'}}"
"{'type': 'node', 'id': 7260625103, 'lat': 22.4298442, 'lon': 91.7478988, 'tags': {'amenity': 'hospital', 'emergency': 'yes', 'healthcare': 'hospital', 'healthcare:speciality': 'general;gynaecology;emergency', 'name': 'BSBA', 'operator': 'Bhatiary Hospital', 'operator:type': 'private'}}"
"{'type': 'node', 'id': 7316812527, 'lat': 22.4977735, 'lon': 91.8074065, 'tags': {'amenity': 'clinic', 'contact:phone': '01819603404', 'health_amenity:type': 'dialysis;x_ray', 'healthcare': 'blood_donation;clinic;doctor;hospital;laboratory', 'healthcare:speciality': 'blood_check', 'name': 'Hathazari Adhunik Hospital', 'operator:type': 'private'}}"
"{'type': 'node', 'id': 7389677452, 'lat': 22.5028239, 'lon': 92.2095287, 'tags': {'addr:city': 'Rangamati', 'addr:housenumber': 'Log gate', 'addr:postcode': '4533', 'addr:street': 'log gate hospital road', 'amenity': 'hospital', 'healthcare': 'hospital', 'healthcare:speciality': 'general', 'internet_access': 'no', 'name': 'লগ গেইট সরকারি হাসপাতাল', 'operator': 'Government', 'source': 'local knowledge;survey'}}"
"{'type': 'node', 'id': 7392129121, 'lat': 22.3897825, 'lon': 91.8267118, 'tags': {'addr:city': 'Chattogram, Toyobiya Housing Society', 'addr:postcode': '4211', 'addr:street': 'Hazi Abdul Karim Road, Toyobiya Housing Socirty', 'amenity': 'pharmacy', 'dispensing': 'yes', 'healthcare': 'pharmacy', 'name': 'Musa Pharmacy', 'opening_hours': 'Mo-Su 10:00-22:00', 'operator': 'local'}}"
"{'type': 'node', 'id': 7392129122, 'lat': 22.3898117, 'lon': 91.8244702, 'tags': {'addr:city': 'চট্রগ্রাম হাটহাজারী মহাসড়ক, Chittagong', 'addr:street': 'Hathazari Road', 'amenity': 'pharmacy', 'dispensing': 'yes', 'healthcare': 'pharmacy', 'name': 'Al Nur Pharmacy', 'opening_hours': 'Mo-Su 09:00-23:00', 'operator': 'local'}}"
"{'type': 'node', 'id': 7392129123, 'lat': 22.3893293, 'lon': 91.8242247, 'tags': {'addr:city': 'চট্রগ্রাম হাটহাজারী মহাসড়ক, Chittagong', 'addr:postcode': '4211', 'addr:street': 'Hathazari Road', 'amenity': 'pharmacy', 'dispensing': 'yes', 'drive_through': 'yes', 'healthcare': 'pharmacy', 'name': 'Fayezia Medico', 'opening_hours': 'Mo-Su 09:00-23:00', 'operator': 'local'}}"
"{'type': 'node', 'id': 7396658481, 'lat': 21.8791726, 'lon': 91.8574476, 'tags': {'amenity': 'doctors', 'healthcare': 'doctor', 'name': 'Dr Rezaul Hasan'}}"
"{'type': 'node', 'id': 7396929648, 'lat': 21.8794112, 'lon': 91.8591881, 'tags': {'amenity': 'doctors', 'healthcare': 'doctor', 'name': 'Dr. Nurul Alam'}}"
"{'type': 'node', 'id': 7411762902, 'lat': 22.4524537, 'lon': 91.8317255, 'tags': {'addr:city': 'Chittagong', 'addr:postcode': '4335', 'addr:street': 'Data-Ram Chowdhury Road,Chowdhuryhat,Fatehabad,Hathazari', 'amenity': 'pharmacy', 'dispensing': 'yes', 'drive_through': 'yes', 'healthcare': 'pharmacy', 'name': 'Tishi Medico', 'name:bn': 'তিশী মেডিকো', 'opening_hours': 'Mo-Su 10:00-22:00'}}"
"{'type': 'node', 'id': 7432208299, 'lat': 22.3646754, 'lon': 91.834121, 'tags': {'addr:city': 'Chattogram (Chittagong)', 'addr:housenumber': '28', 'addr:postcode': '4203', 'addr:street': 'Katalganj Road', 'amenity': 'hospital', 'emergency': 'yes', 'healthcare': 'hospital', 'healthcare:speciality': 'clinic;general;orthopaedics', 'name': 'Delta Health Care Chattogram Ltd', 'phone': '+880312550005', 'wheelchair': 'yes'}}"
"{'type': 'node', 'id': 7461803432, 'lat': 22.6577767, 'lon': 92.1733986, 'tags': {'addr:city': '4500, Rangamati 4500', 'addr:housenumber': 'North Kalindipur', 'addr:postcode': '0351', 'addr:street': 'Chittagong - Rangamati Rd', 'amenity': 'hospital', 'emergency': 'no', 'healthcare': 'hospital', 'healthcare:speciality': 'radiology', 'name': 'BRAC TB Diagnostic Center Rangamati'}}"
"{'type': 'node', 'id': 7467023901, 'lat': 22.3722331, 'lon': 91.8375214, 'tags': {'healthcare': 'doctor', 'healthcare:speciality': 'paediatrics;vaccination;general_practice', 'name': 'Banaful', 'operator': 'Banaful Social Welfare Organization'}}"
"{'type': 'node', 'id': 8200664667, 'lat': 22.2339099, 'lon': 92.7943284, 'tags': {'addr:district': 'Lawngtlai', 'addr:full': 'Tuithumhnar', 'addr:postcode': '796891', 'addr:state': 'Mizoram', 'description': 'SubCentre', 'healthcare': 'centre', 'name': 'SubCentre, Tuithumhnar', 'source': 'Local Knowledge'}}"
"{'type': 'node', 'id': 8200670533, 'lat': 22.278361, 'lon': 92.5857259, 'tags': {'addr:district': 'Lawngtlai', 'addr:full': 'Damdep', 'addr:postcode': '796891', 'addr:state': 'Mizoram', 'description': 'SubCentre', 'healthcare': 'centre', 'name': 'SubCentre, Damdep', 'source': 'Local Knowledge'}}"
"{'type': 'node', 'id': 8200680153, 'lat': 22.5596523, 'lon': 92.8799084, 'tags': {'addr:district': 'Lawngtlai', 'addr:full': 'Thingkah', 'addr:postcode': '796891', 'addr:state': 'Mizoram', 'description': 'SubCentre', 'healthcare': 'centre', 'name': 'SubCentre, Thingkah', 'source': 'Local Knowledge'}}"
"{'type': 'node', 'id': 8200699099, 'lat': 22.4941162, 'lon': 92.725703, 'tags': {'addr:district': 'Lawngtlai', 'addr:full': 'Diltlang South', 'addr:postcode': '796891', 'addr:state': 'Mizoram', 'description': 'SubCentre', 'healthcare': 'centre', 'name': 'SubCentre, Diltlang South', 'source': 'Local Knowledge'}}"
"{'type': 'node', 'id': 8200709161, 'lat': 22.5271929, 'lon': 92.8461131, 'tags': {'addr:district': 'Lawngtlai', 'addr:full': 'Mampui', 'addr:postcode': '796891', 'addr:state': 'Mizoram', 'description': 'SubCentre', 'healthcare': 'centre', 'name': 'SubCentre, Mampui', 'source': 'Local Knowledge'}}"
"{'type': 'node', 'id': 8200710646, 'lat': 22.5885721, 'lon': 92.6713655, 'tags': {'addr:district': 'Lawngtlai', 'addr:full': 'Hmunlai', 'addr:postcode': '796770', 'addr:state': 'Mizoram', 'description': 'SubCentre', 'healthcare': 'centre', 'name': 'SubCentre, Hmunlai', 'source': 'Local Knowledge'}}"
"{'type': 'node', 'id': 8200715586, 'lat': 22.729864, 'lon': 92.6494039, 'tags': {'addr:district': 'Lawngtlai', 'addr:full': 'South Lungrang', 'addr:postcode': '796730', 'addr:state': 'Mizoram', 'description': 'SubCentre', 'healthcare': 'centre', 'name': 'SubCentre, South Lungrang', 'source': 'Local Knowledge'}}"
"{'type': 'node', 'id': 8200718780, 'lat': 22.541165, 'lon': 92.5489834, 'tags': {'addr:district': 'Lawngtlai', 'addr:full': 'Jarulsury', 'addr:postcode': '796770', 'addr:state': 'Mizoram', 'description': 'SubCentre', 'healthcare': 'centre', 'name': 'SubCentre, Jarulsury', 'source': 'Local Knowledge'}}"
"{'type': 'node', 'id': 8200719864, 'lat': 22.3873397, 'lon': 92.6151927, 'tags': {'addr:district': 'Lawngtlai', 'addr:full': 'Vaseitlang', 'addr:postcode': '796891', 'addr:state': 'Mizoram', 'description': 'SubCentre', 'healthcare': 'centre', 'name': 'SubCentre, Vaseitlang', 'source': 'Local Knowledge'}}"
"{'type': 'node', 'id': 8200737631, 'lat': 22.5929426, 'lon': 92.6352818, 'tags': {'addr:district': 'Lawngtlai', 'addr:full': 'Sumsilui', 'addr:postcode': '796770', 'addr:state': 'Mizoram', 'description': 'SubCentre', 'healthcare': 'centre', 'name': 'SubCentre, Sumsilui', 'source': 'Local Knowledge'}}"
"{'type': 'node', 'id': 8200744874, 'lat': 22.6241481, 'lon': 92.6173338, 'tags': {'addr:district': 'Lawngtlai', 'addr:full': 'W Saizawh', 'addr:postcode': '796770', 'addr:state': 'Mizoram', 'description': 'SubCentre', 'healthcare': 'centre', 'name': 'SubCentre, W Saizawh', 'source': 'Local Knowledge'}}"
"{'type': 'node', 'id': 8200753416, 'lat': 22.0849514, 'lon': 92.6446541, 'tags': {'addr:district': 'Lawngtlai', 'addr:full': 'Parva', 'addr:postcode': '796891', 'addr:state': 'Mizoram', 'description': 'SubCentre', 'healthcare': 'centre', 'name': 'SubCentre, Parva', 'source': 'Local Knowledge'}}"
"{'type': 'node', 'id': 8200810524, 'lat': 22.5065549, 'lon': 92.7751616, 'tags': {'addr:district': 'Lawngtlai', 'addr:full': 'Khawmawi', 'addr:postcode': '796701', 'addr:state': 'Mizoram', 'description': 'SubCentre', 'healthcare': 'centre', 'name': 'SubCentre, Khawmawi', 'source': 'Local Knowledge'}}"
"{'type': 'node', 'id': 8200810572, 'lat': 22.3562464, 'lon': 92.7589205, 'tags': {'addr:district': 'Lawngtlai', 'addr:full': 'South Bungtlang', 'addr:postcode': '796891', 'addr:state': 'Mizoram', 'description': 'SubCentre', 'healthcare': 'centre', 'name': 'SubCentre, South Bungtlang', 'source': 'Local Knowledge'}}"
"{'type': 'node', 'id': 8200818419, 'lat': 22.6719263, 'lon': 92.672881, 'tags': {'addr:district': 'Lawngtlai', 'addr:full': 'Rualalung', 'addr:postcode': '796730', 'addr:state': 'Mizoram', 'description': 'SubCentre', 'healthcare': 'centre', 'name': 'SubCentre, Rualalung', 'source': 'Local Knowledge'}}"
"{'type': 'node', 'id': 8200826465, 'lat': 22.2367954, 'lon': 92.6845097, 'tags': {'addr:district': 'Lawngtlai', 'addr:full': 'Vathuampui', 'addr:postcode': '796891', 'addr:state': 'Mizoram', 'description': 'SubCentre', 'healthcare': 'centre', 'name': 'SubCentre, Vathuampui', 'source': 'Local Knowledge'}}"
"{'type': 'node', 'id': 8200965364, 'lat': 22.8380602, 'lon': 92.4800637, 'tags': {'addr:district': 'Lunglei', 'addr:full': 'Tipperaghat', 'addr:postcode': '796751', 'addr:state': 'Mizoram', 'description': 'SubCentre', 'healthcare': 'centre', 'name': 'SubCentre, Tipperaghat', 'source': 'Local Knowledge'}}"
"{'type': 'node', 'id': 8200974101, 'lat': 22.6183896, 'lon': 92.8725387, 'tags': {'addr:district': 'Lunglei', 'addr:full': 'Thingfal', 'addr:postcode': '796701', 'addr:state': 'Mizoram', 'description': 'SubCentre', 'healthcare': 'centre', 'name': 'SubCentre, Thingfal', 'source': 'Local Knowledge'}}"
"{'type': 'node', 'id': 8201014963, 'lat': 22.7346395, 'lon': 92.7421289, 'tags': {'addr:district': 'Lunglei', 'addr:full': 'Vaisam', 'addr:postcode': '796701', 'addr:state': 'Mizoram', 'description': 'SubCentre', 'healthcare': 'centre', 'name': 'SubCentre, Vaisam', 'source': 'Local Knowledge'}}"
"{'type': 'node', 'id': 8201065220, 'lat': 22.8238319, 'lon': 92.6404728, 'tags': {'addr:district': 'Lunglei', 'addr:full': 'Phairuangkai', 'addr:postcode': '796730', 'addr:state': 'Mizoram', 'description': 'SubCentre', 'healthcare': 'centre', 'name': 'SubCentre, Phairuangkai', 'source': 'Local Knowledge'}}"
"{'type': 'node', 'id': 8201101741, 'lat': 22.6901112, 'lon': 92.8224594, 'tags': {'addr:district': 'Lunglei', 'addr:full': 'South Mualcheng', 'addr:postcode': '796701', 'addr:state': 'Mizoram', 'description': 'SubCentre', 'healthcare': 'centre', 'name': 'SubCentre, South Mualcheng', 'source': 'Local Knowledge'}}"
"{'type': 'node', 'id': 8201171386, 'lat': 22.769011, 'lon': 92.8449014, 'tags': {'addr:district': 'Lunglei', 'addr:full': 'Thualthu', 'addr:postcode': '796701', 'addr:state': 'Mizoram', 'description': 'SubCentre', 'healthcare': 'centre', 'name': 'SubCentre, Thualthu', 'source': 'Local Knowledge'}}"
"{'type': 'node', 'id': 9592063264, 'lat': 22.0478322, 'lon': 92.4081618, 'tags': {'amenity': 'hospital', 'healthcare': 'hospital', 'name': 'Ruma Health Complex'}}"
"{'type': 'node', 'id': 9601138193, 'lat': 22.3589673, 'lon': 91.8257291, 'tags': {'amenity': 'clinic', 'healthcare': 'clinic', 'name': 'Jahangir Dental'}}"
"{'type': 'node', 'id': 9601138194, 'lat': 22.3589736, 'lon': 91.8258284, 'tags': {'amenity': 'pharmacy', 'dispensing': 'yes', 'healthcare': 'pharmacy', 'name': 'Apan Pharma'}}"
"{'type': 'node', 'id': 9601138195, 'lat': 22.3590939, 'lon': 91.8263573, 'tags': {'amenity': 'pharmacy', 'dispensing': 'yes', 'healthcare': 'pharmacy', 'name': 'Physical Medicine Center'}}"
"{'type': 'node', 'id': 9601138196, 'lat': 22.3591342, 'lon': 91.8264175, 'tags': {'amenity': 'clinic', 'healthcare': 'clinic', 'name': 'Creative Dental'}}"
"{'type': 'node', 'id': 9601138197, 'lat': 22.3594402, 'lon': 91.8269449, 'tags': {'amenity': 'clinic', 'healthcare': 'clinic', 'name': 'Pearless Diagonestics'}}"
"{'type': 'node', 'id': 9601138198, 'lat': 22.3596146, 'lon': 91.8270804, 'tags': {'amenity': 'clinic', 'healthcare': 'clinic', 'name': 'Meristop Clinic'}}"
"{'type': 'node', 'id': 9601138199, 'lat': 22.3600101, 'lon': 91.8277582, 'tags': {'amenity': 'hospital', 'healthcare': 'hospital', 'name': 'Premier Hospital'}}"
"{'type': 'node', 'id': 9601138200, 'lat': 22.3601399, 'lon': 91.8279362, 'tags': {'amenity': 'pharmacy', 'dispensing': 'yes', 'healthcare': 'pharmacy', 'name': 'Medicine Corner'}}"
"{'type': 'node', 'id': 9601138201, 'lat': 22.3602143, 'lon': 91.8280287, 'tags': {'amenity': 'pharmacy', 'dispensing': 'yes', 'healthcare': 'pharmacy', 'name': 'Jobeda Pharmacy'}}"
"{'type': 'node', 'id': 9601138202, 'lat': 22.360371, 'lon': 91.8281964, 'tags': {'amenity': 'pharmacy', 'dispensing': 'yes', 'healthcare': 'pharmacy', 'name': 'Pinon Pharmacy'}}"
"{'type': 'node', 'id': 9601138203, 'lat': 22.3607414, 'lon': 91.8304935, 'tags': {'amenity': 'pharmacy', 'dispensing': 'yes', 'healthcare': 'pharmacy', 'name': 'Sahadat Pharma'}}"
"{'type': 'node', 'id': 9601138204, 'lat': 22.3607557, 'lon': 91.8303189, 'tags': {'amenity': 'pharmacy', 'dispensing': 'yes', 'healthcare': 'pharmacy', 'name': 'Shathi Medical Hall'}}"
"{'type': 'node', 'id': 9601138205, 'lat': 22.3607873, 'lon': 91.8297078, 'tags': {'amenity': 'clinic', 'healthcare': 'clinic', 'name': 'Central Lab'}}"
"{'type': 'node', 'id': 9811234239, 'lat': 22.4712576, 'lon': 91.7942453, 'tags': {'amenity': 'pharmacy', 'name': 'M/S Gram Mongol Pharmacy'}}"
"{'type': 'node', 'id': 9811246432, 'lat': 22.3691273, 'lon': 91.84916, 'tags': {'amenity': 'hospital', 'name': 'Safe Maternity Hospital'}}"
"{'type': 'node', 'id': 9811252827, 'lat': 22.481252, 'lon': 91.7944245, 'tags': {'amenity': 'pharmacy', 'name': 'Nadia Pharmacy'}}"
"{'type': 'node', 'id': 9811572337, 'lat': 22.3426852, 'lon': 91.8359883, 'tags': {'amenity': 'clinic', 'name': 'Epic Health Care'}}"
"{'type': 'node', 'id': 9836215673, 'lat': 22.3572694, 'lon': 91.8634915, 'tags': {'healthcare': 'alternative'}}"
"{'type': 'node', 'id': 9845671541, 'lat': 22.3436573, 'lon': 91.8341368, 'tags': {'amenity': 'hospital', 'name': 'Centre Point Hospital (Pvt) Limited'}}"
"{'type': 'node', 'id': 9847336326, 'lat': 22.3738894, 'lon': 91.7715486, 'tags': {'healthcare': 'alternative', 'name': 'Shilpi Pharmacy'}}"
"{'type': 'node', 'id': 9855627399, 'lat': 22.3523439, 'lon': 91.8214429, 'tags': {'amenity': 'hospital', 'name': 'Police Line Hospital'}}"
"{'type': 'node', 'id': 9857370603, 'lat': 22.3278076, 'lon': 91.8112922, 'tags': {'healthcare': 'yes', 'name': 'Sunway Medical Centre Limited'}}"
"{'type': 'node', 'id': 9947994041, 'lat': 22.3585369, 'lon': 91.8602591, 'tags': {'amenity': 'pharmacy', 'healthcare': 'pharmacy'}}"
"{'type': 'node', 'id': 10131802033, 'lat': 22.627147, 'lon': 91.6535305, 'tags': {'healthcare': 'yes', 'name': 'আল আরাফা মেডিকেল হল'}}"
"{'type': 'node', 'id': 10155892678, 'lat': 21.8701375, 'lon': 92.0785145, 'tags': {'amenity': 'hospital', 'healthcare': 'hospital', 'name': 'Digital Hospital Coxbazar pvt ltd ডিজিটাল হাসপাতাল'}}"
"{'type': 'node', 'id': 10156171339, 'lat': 22.6095163, 'lon': 91.6646559, 'tags': {'amenity': 'hospital', 'healthcare': 'hospital', 'name': 'Sitakund Upazila Health Complex'}}"
"{'type': 'node', 'id': 10164918089, 'lat': 22.6810907, 'lon': 91.624512, 'tags': {'amenity': 'dentist', 'healthcare': 'dentist', 'name': 'আইডিয়াল ডেন্টাল কেয়ার'}}"
"{'type': 'node', 'id': 10164936724, 'lat': 22.6813381, 'lon': 91.6249502, 'tags': {'amenity': 'pharmacy', 'dispensing': 'yes', 'healthcare': 'pharmacy', 'name': 'Parul Pharmacy, Boro Daroga Hat, Chittagong'}}"
"{'type': 'node', 'id': 10169372155, 'lat': 21.9732494, 'lon': 92.0653345, 'tags': {'amenity': 'hospital', 'healthcare': 'hospital', 'name': 'popular diagonstic center'}}"
"{'type': 'node', 'id': 10169373237, 'lat': 21.9031657, 'lon': 92.0606431, 'tags': {'amenity': 'hospital', 'healthcare': 'hospital', 'name': 'Aziznagar general hospital'}}"
"{'type': 'node', 'id': 10171827184, 'lat': 21.9891376, 'lon': 92.0866141, 'tags': {'amenity': 'hospital', 'healthcare': 'hospital', 'name': 'Adhunagar Government Hospital'}}"
"{'type': 'node', 'id': 10175276615, 'lat': 22.0113017, 'lon': 92.0952604, 'tags': {'amenity': 'hospital', 'healthcare': 'hospital', 'name': 'Lohagara Diabetic General Hospital'}}"
"{'type': 'node', 'id': 10177746981, 'lat': 22.0198629, 'lon': 92.1023007, 'tags': {'amenity': 'hospital', 'healthcare': 'hospital', 'name': 'Ma-Moni Hospital'}}"
"{'type': 'node', 'id': 10181665026, 'lat': 22.7066109, 'lon': 91.6108616, 'tags': {'amenity': 'hospital', 'healthcare': 'hospital', 'name': 'Wahedpur Union Healthcare Center'}}"
"{'type': 'node', 'id': 10189081223, 'lat': 22.7719025, 'lon': 91.5743051, 'tags': {'amenity': 'pharmacy', 'healthcare': 'pharmacy', 'name': 'Rahmania Medical Centre'}}"
"{'type': 'node', 'id': 10199013937, 'lat': 22.7790079, 'lon': 91.5701386, 'tags': {'amenity': 'hospital', 'healthcare': 'hospital', 'name': 'Mirsarai Sheba Adhunik Hospital'}}"
"{'type': 'node', 'id': 10201212028, 'lat': 22.8038053, 'lon': 91.5555516, 'tags': {'amenity': 'hospital', 'healthcare': 'hospital', 'name': 'Hospital and Diagnostics মিঠাছড়া জেনারেল হাসপাতাল'}}"
"{'type': 'node', 'id': 10203138778, 'lat': 22.6168195, 'lon': 91.6603575, 'tags': {'amenity': 'hospital', 'healthcare': 'hospital', 'name': 'Sitakund General Hospital'}}"
"{'type': 'node', 'id': 10237588743, 'lat': 22.5704837, 'lon': 91.6844583, 'tags': {'amenity': 'clinic', 'healthcare': 'clinic', 'name': 'Shikdar Medical Hall'}}"
"{'type': 'node', 'id': 10310416931, 'lat': 21.7633225, 'lon': 92.0738992, 'tags': {'amenity': 'hospital', 'healthcare': 'hospital', 'name': 'Chakaria DIGITAL Hospital pvt ltd'}}"
"{'type': 'node', 'id': 10315954847, 'lat': 21.7670625, 'lon': 92.076249, 'tags': {'amenity': 'hospital', 'healthcare': 'hospital', 'name': 'Chakaria Unique Hospital'}}"
"{'type': 'node', 'id': 10536355176, 'lat': 22.5368596, 'lon': 91.699003, 'tags': {'amenity': 'hospital', 'healthcare': 'hospital', 'name': 'Dr. Dipnagkar Medcal Hall, Kumira, Chattogram'}}"
"{'type': 'node', 'id': 10539974079, 'lat': 21.7795351, 'lon': 92.0804665, 'tags': {'amenity': 'hospital', 'healthcare': 'hospital', 'name': 'Ottar Lakkharchar Union Parishad Community Hospital, Chakaria Upazila, Chittagong Division'}}"
"{'type': 'node', 'id': 10963285677, 'lat': 22.8407643, 'lon': 91.5468366, 'tags': {'amenity': 'hospital', 'healthcare': 'hospital', 'name': 'মস্তাননগর স্বাস্থ্য কমপ্লেক্স'}}"
"{'type': 'node', 'id': 10963292533, 'lat': 22.8406506, 'lon': 91.546909, 'tags': {'amenity': 'hospital', 'healthcare': 'hospital', 'name': 'Mostan Nagar Hospital'}}"
"{'type': 'node', 'id': 10970475291, 'lat': 22.8394164, 'lon': 91.5501851, 'tags': {'amenity': 'clinic', 'healthcare': 'clinic', 'name': 'Nimrat Diagnostic and Pain Centre, Mirsharai, Chittagong'}}"
"{'type': 'node', 'id': 10970475800, 'lat': 22.8409529, 'lon': 91.5469435, 'tags': {'amenity': 'hospital', 'healthcare': 'hospital', 'name': 'Mostan Nagar Hospital'}}"
"{'type': 'node', 'id': 10978274717, 'lat': 22.7739786, 'lon': 91.5737918, 'tags': {'amenity': 'hospital', 'healthcare': 'hospital', 'name': 'Hope Mother & Child Hospital'}}"
"{'type': 'node', 'id': 10983812580, 'lat': 22.7579593, 'lon': 91.5845185, 'tags': {'amenity': 'pharmacy', 'healthcare': 'pharmacy', 'name': 'Hridoy Pharmacy, Dhaka - Chittagong Hwy, Mirsharai, Chittagong'}}"
"{'type': 'node', 'id': 11029470816, 'lat': 22.6240514, 'lon': 91.6379243, 'tags': {'healthcare': 'laboratory', 'name': 'Sharif Homeo Hall, Hazari Rd, Saidpur, Chittagong'}}"
"{'type': 'node', 'id': 11056148199, 'lat': 22.5744325, 'lon': 91.6808694, 'tags': {'amenity': 'hospital', 'healthcare': 'hospital', 'name': 'Barabkund Union shasto O Poribarkollan kendro, Dhaka - Chittagong Hwy, Barabkunda, Chittagong'}}"
"{'type': 'node', 'id': 11062892860, 'lat': 22.5474965, 'lon': 91.6851999, 'tags': {'healthcare': 'yes', 'name': 'Health Centre, Barabkunda, Chittagong'}}"
"{'type': 'node', 'id': 11064294286, 'lat': 22.5345942, 'lon': 91.6975819, 'tags': {'amenity': 'pharmacy', 'healthcare': 'pharmacy', 'name': 'Maya Traders/Aroti Pharmacy / Jononi Homio Hall, Sultana Mondir, Chattogram'}}"
"{'type': 'node', 'id': 11070535099, 'lat': 22.5161279, 'lon': 91.7096021, 'tags': {'amenity': 'pharmacy', 'healthcare': 'pharmacy', 'name': 'Alamgir Pharmachy, Kazi Para Rd, Kumira, Chittagong'}}"
"{'type': 'node', 'id': 11093240865, 'lat': 22.4977085, 'lon': 91.7140273, 'tags': {'amenity': 'pharmacy', 'healthcare': 'pharmacy', 'name': 'Nahar Pharmacy, Joramtol Bazar, Joramtol, Sitakunda, Chattogram'}}"
"{'type': 'node', 'id': 11096373368, 'lat': 22.4898617, 'lon': 91.7187789, 'tags': {'amenity': 'pharmacy', 'healthcare': 'pharmacy', 'name': 'Chowdhury Pharmacy, Sonaichhari, Chattogram'}}"
"{'type': 'node', 'id': 11098748392, 'lat': 22.4787438, 'lon': 91.7207332, 'tags': {'amenity': 'pharmacy', 'healthcare': 'pharmacy', 'name': 'Bara-Awlia Medical Hall,Dhaka - Chittagong Hwy, Sonaichhari, Chattogram'}}"
"{'type': 'node', 'id': 11098812274, 'lat': 22.475469, 'lon': 91.7268393, 'tags': {'amenity': 'pharmacy', 'healthcare': 'pharmacy', 'name': 'Niramoy pharmacy, 8 no sonaisori, 5no word, Chattogram'}}"
"{'type': 'node', 'id': 11101080238, 'lat': 22.4587429, 'lon': 91.7303848, 'tags': {'amenity': 'pharmacy', 'healthcare': 'pharmacy', 'name': 'EKOTA ENGINEERING SOHEL MISTRI GARAGE,Madanhat Bridge, Bhatiari, Chattogram'}}"
"{'type': 'node', 'id': 11113228730, 'lat': 22.413991, 'lon': 91.7532213, 'tags': {'amenity': 'pharmacy', 'healthcare': 'pharmacy', 'name': 'Asma Pharmacy, Dhaka - Chittagong Hwy, Salimpur, Chattogram'}}"
"{'type': 'node', 'id': 11113332421, 'lat': 22.4095706, 'lon': 91.7540765, 'tags': {'amenity': 'pharmacy', 'healthcare': 'pharmacy', 'name': 'Tulatuli Medico, Tulatuli Road, Chattogram'}}"
"{'type': 'node', 'id': 11113336792, 'lat': 22.4096592, 'lon': 91.7546276, 'tags': {'amenity': 'hospital', 'healthcare': 'hospital', 'name': 'Tulatoly Eye Care, Tulatoli Road, Chattogram'}}"
"{'type': 'node', 'id': 11118296988, 'lat': 22.4381413, 'lon': 91.7376346, 'tags': {'amenity': 'pharmacy', 'healthcare': 'pharmacy', 'name': 'Habiba Pharmacy, Madam Bibir Hat ,Batiari, Shitakundo, Chattogram'}}"
"{'type': 'node', 'id': 11118498436, 'lat': 22.3534105, 'lon': 91.8162452, 'tags': {'amenity': 'hospital', 'healthcare': 'hospital', 'name': 'Mamata Clinic'}}"
"{'type': 'node', 'id': 11129557257, 'lat': 22.4384037, 'lon': 91.738378, 'tags': {'amenity': 'pharmacy', 'healthcare': 'pharmacy', 'name': 'M/s Haque Medical Hall, Madam Bibir Hat, Bhatiyari, Sitakunda, Chattogram'}}"
"{'type': 'node', 'id': 11130059910, 'lat': 22.4376397, 'lon': 91.7386442, 'tags': {'amenity': 'pharmacy', 'healthcare': 'pharmacy', 'name': 'New Pharmacy, Bhatiari, Chattogram'}}"
"{'type': 'node', 'id': 11147894495, 'lat': 22.4298229, 'lon': 91.7479456, 'tags': {'amenity': 'hospital', 'healthcare': 'hospital', 'name': 'BHBA HOSPITAL, Bhatiari Station Road, Bhatiari, Chattogram'}}"
"{'type': 'node', 'id': 11147897816, 'lat': 22.4281457, 'lon': 91.7454504, 'tags': {'amenity': 'hospital', 'healthcare': 'hospital', 'name': 'BSBA Hospital, Bhatiari Rail Station Rd, Chattogram'}}"
"{'type': 'node', 'id': 11148043362, 'lat': 22.4237219, 'lon': 91.7479224, 'tags': {'amenity': 'hospital', 'healthcare': 'hospital', 'name': 'Muktijoddha Memorial Hospital, Bhatiary, Dhaka - Chittagong Hwy, Chattogram'}}"
"{'type': 'node', 'id': 11158764172, 'lat': 22.4229134, 'lon': 91.7552282, 'tags': {'amenity': 'hospital', 'healthcare': 'hospital', 'name': 'CMH Bhatiari, Bhatiari, Bhatiari Union, Chattogram'}}"
"{'type': 'node', 'id': 11158769791, 'lat': 22.4228266, 'lon': 91.7549894, 'tags': {'amenity': 'hospital', 'healthcare': 'hospital', 'name': 'OPC Bhatiary,Hospital, Chattogram, Bhatiari, Chattogram'}}"
"{'type': 'node', 'id': 11158840760, 'lat': 22.4213286, 'lon': 91.7515696, 'tags': {'amenity': 'pharmacy', 'healthcare': 'pharmacy', 'name': 'Muna Pharmacy & Maternity, Old BMA Rd, Bhatiari, Bhatiari Union, Chattogram'}}"
"{'type': 'node', 'id': 11158888613, 'lat': 22.3783288, 'lon': 91.7634331, 'tags': {'amenity': 'pharmacy', 'healthcare': 'pharmacy', 'name': 'Islamia Pharmacy, Chhadu Ullah Munsi Rd, Salimpur, Salimpur Union, Chattogram'}}"
"{'type': 'node', 'id': 11171710541, 'lat': 22.386061, 'lon': 91.762098, 'tags': {'amenity': 'pharmacy', 'healthcare': 'pharmacy', 'name': 'M/s. Reliever Pharmacy, D.T Road, Fakirhat, South Salimpur, Po. Jafrabad, Sitakund, Chattogram'}}"
"{'type': 'node', 'id': 11185242714, 'lat': 22.3753858, 'lon': 91.7750782, 'tags': {'amenity': 'pharmacy', 'healthcare': 'pharmacy', 'name': 'Khwaja Garibe Newaj Pharmacy, Salimpur, Chattogram'}}"
"{'type': 'node', 'id': 11185267417, 'lat': 22.3758675, 'lon': 91.7704646, 'tags': {'amenity': 'pharmacy', 'healthcare': 'pharmacy', 'name': 'Aveda Pharmacy, Nilambar Talukdar Road, Salimpur, Chattogram'}}"
"{'type': 'node', 'id': 11185478300, 'lat': 22.37075, 'lon': 91.7758037, 'tags': {'amenity': 'pharmacy', 'healthcare': 'pharmacy', 'name': 'Adhunik Pharmacy, Ishan Mohajon Road, Salimpur, Chattogram'}}"
"{'type': 'node', 'id': 11187613219, 'lat': 22.3667304, 'lon': 91.7743472, 'tags': {'amenity': 'pharmacy', 'healthcare': 'pharmacy', 'name': 'Rion Pharmacy, Amanat Ullah Shah Rd, Chattogram'}}"
"{'type': 'node', 'id': 11187723390, 'lat': 22.373585, 'lon': 91.7716073, 'tags': {'amenity': 'hospital', 'healthcare': 'hospital', 'name': 'Alhajj Mostofa-Hakim Maternity Hospital, Mostafahakim maternity hospital, Mostafa Hakim Road, Chattogram'}}"
"{'type': 'node', 'id': 11187748910, 'lat': 22.3739347, 'lon': 91.7717843, 'tags': {'amenity': 'pharmacy', 'healthcare': 'pharmacy', 'name': 'Shilpi Pharmacy, Mostofa-Hakim College Rd, Chattogram'}}"
"{'type': 'node', 'id': 11197112466, 'lat': 22.3733891, 'lon': 91.7693339, 'tags': {'amenity': 'pharmacy', 'healthcare': 'pharmacy', 'name': 'S.R Medical Hall, City Gate, Mostfa Hakim College Road, Chattogram'}}"
"{'type': 'node', 'id': 11197159873, 'lat': 22.3688965, 'lon': 91.7776147, 'tags': {'amenity': 'pharmacy', 'healthcare': 'pharmacy', 'name': 'Cornell Pharmacy O Cosmetic Khyatna Centre, Cornellhat School Market, Chattogram'}}"
"{'type': 'node', 'id': 11201614701, 'lat': 22.3629588, 'lon': 91.7680462, 'tags': {'amenity': 'pharmacy', 'healthcare': 'pharmacy', 'name': 'Anwara Pharmacy, Colonel Jones Road, Chattogram'}}"
"{'type': 'node', 'id': 11217361512, 'lat': 22.3362775, 'lon': 91.7703873, 'tags': {'amenity': 'hospital', 'healthcare': 'hospital'}}"
"{'type': 'node', 'id': 11217439394, 'lat': 22.3384153, 'lon': 91.7741237, 'tags': {'amenity': 'pharmacy', 'healthcare': 'pharmacy', 'name': 'Hahnemann is Homeo, Halishahar Housing Estate, Chattogram'}}"
"{'type': 'node', 'id': 11217445559, 'lat': 22.3382033, 'lon': 91.7759504, 'tags': {'amenity': 'pharmacy', 'healthcare': 'pharmacy', 'name': 'Ms madina pharmacy, Halishahar Housing Estate, Chattogram'}}"
"{'type': 'node', 'id': 11217474675, 'lat': 22.3385824, 'lon': 91.7758848, 'tags': {'amenity': 'pharmacy', 'healthcare': 'pharmacy', 'name': 'Jinat Pharmacy'}}"
"{'type': 'node', 'id': 11219155716, 'lat': 22.3628141, 'lon': 91.7840464, 'tags': {'amenity': 'pharmacy', 'healthcare': 'pharmacy', 'name': 'Satata Pharmacy, Zakir Hossain Road, Adjacent to Al Amin Hospital, Akbarshah, North Pahartali, Chattogram'}}"
"{'type': 'node', 'id': 11219268455, 'lat': 22.362403, 'lon': 91.7826029, 'tags': {'amenity': 'clinic', 'healthcare': 'clinic', 'name': 'Hijama Center Chittagong,Medical Center, Zakir Hossain Road, A.K khan Gate, Pahartali, Chattogram'}}"
"{'type': 'node', 'id': 11219276572, 'lat': 22.3627239, 'lon': 91.7841081, 'tags': {'amenity': 'hospital', 'healthcare': 'hospital', 'name': 'Al Amin Hospital (Pvt.) Limited, Zakir Hossain Rd, Chattogram'}}"
"{'type': 'node', 'id': 11219276703, 'lat': 22.3626785, 'lon': 91.7837323, 'tags': {'amenity': 'pharmacy', 'healthcare': 'pharmacy', 'name': 'Health Care Medical Hall, Zakir Hossain Road, Akbarshah, Pahartali, Chattogram'}}"
"{'type': 'node', 'id': 11219316584, 'lat': 22.3579996, 'lon': 91.7826359, 'tags': {'amenity': 'pharmacy', 'healthcare': 'pharmacy', 'name': 'Janata Pharmacy, B.S. Plaza, Abdul Ali Hat, Near Alankar More, Pahartali, Chattogram'}}"
"{'type': 'node', 'id': 11220655579, 'lat': 21.6902245, 'lon': 92.2714063, 'tags': {'addr:street': 'Chinari Bazar', 'amenity': 'pharmacy', 'name': 'Shahana Medico'}}"
"{'type': 'node', 'id': 11221729116, 'lat': 22.3585218, 'lon': 91.7830877, 'tags': {'amenity': 'pharmacy', 'healthcare': 'pharmacy', 'name': 'New Alankar Pharmacy, Zia Market, Alankar More, Pahartoli, Opp. Jelar Hat, Chattogram'}}"
"{'type': 'node', 'id': 11221751162, 'lat': 22.3629499, 'lon': 91.7848972, 'tags': {'amenity': 'pharmacy', 'healthcare': 'pharmacy', 'name': 'M/s. Ma Pharmacy'}}"
"{'type': 'node', 'id': 11235451891, 'lat': 22.3583847, 'lon': 91.7858866, 'tags': {'amenity': 'pharmacy', 'healthcare': 'pharmacy', 'name': 'M/S. Mollah Pharmacy,Hazi Amanotullah Road,C.D.A Market, Pahartali, Chattogram'}}"
"{'type': 'node', 'id': 11235539068, 'lat': 22.3586901, 'lon': 91.7874536, 'tags': {'amenity': 'pharmacy', 'healthcare': 'pharmacy', 'name': 'The Life Pharmacy, Mohiuddin Market,Abdul Barek Road, C.D.A Market, Pahartali, Chattogram'}}"
"{'type': 'node', 'id': 11243296606, 'lat': 22.2358829, 'lon': 92.3475147, 'tags': {'amenity': 'clinic', 'name': 'Kocchoptoli Community Clinic'}}"
"{'type': 'node', 'id': 11245226971, 'lat': 21.7769057, 'lon': 92.1945861, 'tags': {'amenity': 'pharmacy', 'name': 'M/s New Ma Moni Medico'}}"
"{'type': 'node', 'id': 11245275878, 'lat': 21.7773023, 'lon': 92.1942548, 'tags': {'amenity': 'clinic', 'name': 'Shantiniketan Doctors Dagonestic'}}"
"{'type': 'node', 'id': 11245276115, 'lat': 21.7782956, 'lon': 92.1943873, 'tags': {'amenity': 'pharmacy', 'name': 'M/s Atik Medico'}}"
"{'type': 'node', 'id': 11245301858, 'lat': 21.7779936, 'lon': 92.1944636, 'tags': {'amenity': 'pharmacy', 'name': 'Boishali Pharmacy'}}"
"{'type': 'node', 'id': 11245308632, 'lat': 21.778138, 'lon': 92.1944413, 'tags': {'amenity': 'pharmacy', 'name': 'M/s Adorsh Pharmacy'}}"
"{'type': 'node', 'id': 11245308762, 'lat': 21.7775232, 'lon': 92.1945489, 'tags': {'amenity': 'pharmacy', 'name': 'Swadesh Medico'}}"
"{'type': 'node', 'id': 11245310149, 'lat': 21.7774481, 'lon': 92.194536, 'tags': {'amenity': 'pharmacy', 'name': 'Mordan Pharmacy and Harbal Chamber'}}"
"{'type': 'node', 'id': 11245310150, 'lat': 21.7774227, 'lon': 92.1943912, 'tags': {'amenity': 'pharmacy', 'name': 'Shantiniketan Pharmacy'}}"
"{'type': 'node', 'id': 11245310294, 'lat': 21.7776845, 'lon': 92.1945305, 'tags': {'amenity': 'pharmacy', 'name': 'M/s Sawsti Niketon Pharmacy'}}"
"{'type': 'node', 'id': 11245311279, 'lat': 21.7772783, 'lon': 92.1945656, 'tags': {'amenity': 'pharmacy', 'name': 'M/s Santona Pharmacy'}}"
"{'type': 'node', 'id': 11245322743, 'lat': 21.7756904, 'lon': 92.1947282, 'tags': {'amenity': 'pharmacy', 'name': 'A B Medicine Center'}}"
"{'type': 'node', 'id': 11246127317, 'lat': 21.7623535, 'lon': 92.0759611, 'tags': {'amenity': 'pharmacy', 'name': 'R S Medico'}}"
"{'type': 'node', 'id': 11246128679, 'lat': 21.7624372, 'lon': 92.0759919, 'tags': {'amenity': 'pharmacy', 'name': 'Medicine Point'}}"
"{'type': 'node', 'id': 11246145299, 'lat': 21.7611109, 'lon': 92.0760711, 'tags': {'amenity': 'hospital', 'name': 'Al Raji Chokkho and Doctors Chamber'}}"
"{'type': 'node', 'id': 11246148858, 'lat': 21.7623873, 'lon': 92.0756531, 'tags': {'amenity': 'pharmacy', 'name': 'Seif Medical Corner'}}"
"{'type': 'node', 'id': 11246165565, 'lat': 21.7622243, 'lon': 92.0758707, 'tags': {'amenity': 'pharmacy', 'name': 'Ikbal Medical Store'}}"
"{'type': 'node', 'id': 11246170028, 'lat': 21.7622156, 'lon': 92.0757631, 'tags': {'amenity': 'pharmacy', 'name': 'M/s A Hossain Pharmacy'}}"
"{'type': 'node', 'id': 11246175322, 'lat': 21.7623782, 'lon': 92.0759987, 'tags': {'amenity': 'pharmacy', 'name': 'Susowma Medicine House'}}"
"{'type': 'node', 'id': 11246195329, 'lat': 21.7621953, 'lon': 92.0757143, 'tags': {'amenity': 'pharmacy', 'name': 'Popular Pharmacy'}}"
"{'type': 'node', 'id': 11246199065, 'lat': 21.7623596, 'lon': 92.0759441, 'tags': {'amenity': 'pharmacy', 'name': 'Jarin Pharmacy'}}"
"{'type': 'node', 'id': 11246201401, 'lat': 21.7624122, 'lon': 92.0759952, 'tags': {'amenity': 'pharmacy', 'name': 'Mohona Medico'}}"
"{'type': 'node', 'id': 11246202014, 'lat': 21.7623848, 'lon': 92.0757233, 'tags': {'amenity': 'pharmacy', 'name': 'Manowara Pharmacy'}}"
"{'type': 'node', 'id': 11246202577, 'lat': 21.7623731, 'lon': 92.0759247, 'tags': {'amenity': 'pharmacy', 'name': 'A Rahman Pharmacy'}}"
"{'type': 'node', 'id': 11246211516, 'lat': 21.7623611, 'lon': 92.075864, 'tags': {'amenity': 'pharmacy', 'name': 'S K I Pharmacy'}}"
"{'type': 'node', 'id': 11246211517, 'lat': 21.7623731, 'lon': 92.0759247, 'tags': {'amenity': 'pharmacy', 'name': 'A Rahman Pharmacy'}}"
"{'type': 'node', 'id': 11246216705, 'lat': 21.7599078, 'lon': 92.0763331, 'tags': {'amenity': 'pharmacy', 'name': 'M/s Mim Pharmacy'}}"
"{'type': 'node', 'id': 11246216706, 'lat': 21.7597746, 'lon': 92.0767744, 'tags': {'amenity': 'hospital', 'name': 'Asian Hospital (Pvt) Ltd'}}"
"{'type': 'node', 'id': 11246216708, 'lat': 21.7621597, 'lon': 92.0757605, 'tags': {'amenity': 'pharmacy', 'name': 'Mayer Choya Pharmacy'}}"
"{'type': 'node', 'id': 11246217666, 'lat': 21.7615043, 'lon': 92.0763388, 'tags': {'amenity': 'hospital', 'name': 'Mah-Shishu and General Hospital'}}"
"{'type': 'node', 'id': 11246218449, 'lat': 21.7623757, 'lon': 92.0758246, 'tags': {'amenity': 'pharmacy', 'name': 'M/s Medico'}}"
"{'type': 'node', 'id': 11246218450, 'lat': 21.7623535, 'lon': 92.0759611, 'tags': {'amenity': 'pharmacy', 'name': 'R S Medico'}}"
"{'type': 'node', 'id': 11246220431, 'lat': 21.7622243, 'lon': 92.0758707, 'tags': {'amenity': 'pharmacy', 'name': 'Ikbal Medical Store'}}"
"{'type': 'node', 'id': 11246221391, 'lat': 21.7622264, 'lon': 92.0757377, 'tags': {'amenity': 'pharmacy', 'name': 'Beauty Pharmacy'}}"
"{'type': 'node', 'id': 11246221502, 'lat': 21.762236, 'lon': 92.0756849, 'tags': {'amenity': 'pharmacy', 'name': 'Shonali Traders'}}"
"{'type': 'node', 'id': 11246224266, 'lat': 21.762231, 'lon': 92.0756383, 'tags': {'amenity': 'pharmacy', 'name': 'Kalam Medical Hall'}}"
"{'type': 'node', 'id': 11246224267, 'lat': 21.7624039, 'lon': 92.0759477, 'tags': {'amenity': 'pharmacy', 'name': 'Mocca Medical Hall'}}"
"{'type': 'node', 'id': 11246226939, 'lat': 21.7604343, 'lon': 92.0760677, 'tags': {'amenity': 'pharmacy', 'name': 'Shah Amin Pharmacy'}}"
"{'type': 'node', 'id': 11246227062, 'lat': 21.7622369, 'lon': 92.0757158, 'tags': {'amenity': 'pharmacy', 'name': 'Azad Pharmacy'}}"
"{'type': 'node', 'id': 11246227549, 'lat': 21.7622139, 'lon': 92.0758118, 'tags': {'amenity': 'pharmacy', 'name': 'Kiron Medical Corner'}}"
"{'type': 'node', 'id': 11246227550, 'lat': 21.7622269, 'lon': 92.0756002, 'tags': {'amenity': 'pharmacy', 'name': 'Selina Pharmacy'}}"
"{'type': 'node', 'id': 11246228612, 'lat': 21.7623583, 'lon': 92.0755776, 'tags': {'amenity': 'pharmacy', 'name': 'Arif Medical Hall'}}"
"{'type': 'node', 'id': 11246228613, 'lat': 21.7623848, 'lon': 92.0757737, 'tags': {'amenity': 'pharmacy', 'name': 'Bismillah Medico'}}"
"{'type': 'node', 'id': 11247450210, 'lat': 22.3600956, 'lon': 91.7918281, 'tags': {'amenity': 'hospital', 'healthcare': 'hospital', 'name': 'Surgicare Hospital Ltd.'}}"
"{'type': 'node', 'id': 11247504726, 'lat': 22.3471439, 'lon': 91.7867272, 'tags': {'amenity': 'pharmacy', 'healthcare': 'pharmacy', 'name': 'Green View Pharmacy, Unnamed Road, Chattogram'}}"
"{'type': 'node', 'id': 11247536648, 'lat': 22.349013, 'lon': 91.786035, 'tags': {'healthcare': 'yes', 'name': 'Green shifa health care & diagnostic, PC road soraipara moor, Chattogram'}}"
"{'type': 'node', 'id': 11250344988, 'lat': 22.3335234, 'lon': 91.7887703, 'tags': {'amenity': 'doctors', 'healthcare': 'doctor', 'name': 'Professor (Dr.) Rawshon Morshed, Plot 9/A, Lane-2, Block-G, Halisahar Housing Estate, Chattogram'}}"
"{'type': 'node', 'id': 11254304409, 'lat': 22.3308264, 'lon': 91.7888671, 'tags': {'amenity': 'pharmacy', 'healthcare': 'pharmacy', 'name': 'Hamdard Laboratories (WAQF) Bangladesh, Dhaka - Chittagong Highway, Chattogram'}}"
"{'type': 'node', 'id': 11254347225, 'lat': 22.329179, 'lon': 91.7889967, 'tags': {'amenity': 'hospital', 'healthcare': 'hospital', 'name': 'Royal Community Eye Hospital & Phaco Centre., Rd No 5, Chattogram'}}"
"{'type': 'node', 'id': 11254421400, 'lat': 22.328864, 'lon': 91.7886051, 'tags': {'amenity': 'pharmacy', 'healthcare': 'pharmacy', 'name': 'Shefa Dental Care'}}"
"{'type': 'node', 'id': 11254445880, 'lat': 22.327976, 'lon': 91.7889107, 'tags': {'amenity': 'dentist', 'healthcare': 'dentist', 'name': 'Mohsen Aoulia Dental Care, Isabella Tower, Dhaka - Chittagong Highway, Chattogram'}}"
"{'type': 'node', 'id': 11254613986, 'lat': 22.3497853, 'lon': 91.7863218, 'tags': {'amenity': 'pharmacy', 'healthcare': 'pharmacy', 'name': 'Sha Jabbaria Pharmacy, Sharaipara Bus Stop, Port Connecting Rd, Chattogram'}}"
"{'type': 'node', 'id': 11254646070, 'lat': 22.3497307, 'lon': 91.7864586, 'tags': {'amenity': 'dentist', 'healthcare': 'dentist', 'name': 'Mouth dental clinic'}}"
"{'type': 'node', 'id': 11264416421, 'lat': 22.3439505, 'lon': 91.7882504, 'tags': {'amenity': 'pharmacy', 'healthcare': 'pharmacy', 'name': 'B.A. salma Medical hall, Port Connecting Rd, Chattogram'}}"
"{'type': 'node', 'id': 11264430099, 'lat': 22.3401684, 'lon': 91.7886269, 'tags': {'healthcare': 'laboratory', 'name': 'Turkey Medical Services, Port Connecting Rd, Chattogram'}}"
"{'type': 'node', 'id': 11265893596, 'lat': 22.3334337, 'lon': 91.7892163, 'tags': {'amenity': 'pharmacy', 'healthcare': 'pharmacy', 'name': 'EPCS & Medicine, Halishahor, Chattogram'}}"
"{'type': 'node', 'id': 11265934064, 'lat': 22.3284874, 'lon': 91.7894556, 'tags': {'amenity': 'pharmacy', 'healthcare': 'pharmacy', 'name': 'AMS- Available Medicine Service'}}"
"{'type': 'node', 'id': 11265946231, 'lat': 22.3310923, 'lon': 91.7893596, 'tags': {'amenity': 'dentist', 'healthcare': 'dentist', 'name': 'Freshdent Dental Solution, House-13, Block-L, 2nd Floor, Road-1 Halishahar Rd, Chattogram'}}"
"{'type': 'node', 'id': 11266005071, 'lat': 22.3291756, 'lon': 91.7922182, 'tags': {'amenity': 'hospital', 'healthcare': 'hospital', 'name': 'Mother And Child Care Hospital, Plot No 2 and 3, 2nd - 5th Floor M.K Plaza, Chattogram'}}"
"{'type': 'node', 'id': 11266008573, 'lat': 22.329011, 'lon': 91.7919411, 'tags': {'amenity': 'hospital', 'healthcare': 'hospital', 'name': 'KR Dental Care'}}"
"{'type': 'node', 'id': 11270869967, 'lat': 22.3298187, 'lon': 91.7914891, 'tags': {'amenity': 'pharmacy', 'healthcare': 'pharmacy', 'name': 'S Hoque Pharmacy, Agrabad Access Rd, Chattogram'}}"
"{'type': 'node', 'id': 11270919362, 'lat': 22.3297887, 'lon': 91.7939882, 'tags': {'amenity': 'hospital', 'healthcare': 'hospital', 'name': 'South Point Hospital, Agrabad Access Rd, Westseite der Zila-Polizeilinie, Chotopool, Chattogram'}}"
"{'type': 'node', 'id': 11280711647, 'lat': 22.3224712, 'lon': 91.8119539, 'tags': {'amenity': 'hospital', 'healthcare': 'hospital', 'name': 'Islami Bank Hospital, Sheikh Mujib Rd, Chattogram'}}"
"{'type': 'node', 'id': 11280762996, 'lat': 22.3444497, 'lon': 91.789891, 'tags': {'amenity': 'pharmacy', 'healthcare': 'pharmacy', 'name': 'Saha Pharmacy, Noya Bazar, Chattogram'}}"
"{'type': 'node', 'id': 11280790164, 'lat': 22.3449505, 'lon': 91.7995866, 'tags': {'amenity': 'pharmacy', 'healthcare': 'pharmacy', 'name': 'M/S. Muhammad Ali Pharmacy, Eid Gha Kacha Rasta, Halishahor Road, Chattogram'}}"
"{'type': 'node', 'id': 11280793815, 'lat': 22.3445832, 'lon': 91.7949025, 'tags': {'amenity': 'pharmacy', 'healthcare': 'pharmacy', 'name': 'Munmun Medical Hall, 1 NO. Panir Kol, Halishahar Road, Bou bazar, Chattogram'}}"
"{'type': 'node', 'id': 11280970452, 'lat': 22.3448257, 'lon': 91.800539, 'tags': {'amenity': 'pharmacy', 'healthcare': 'pharmacy', 'name': 'Modern Herbal & Homeo Center, Eidgah Kacharastar Matha, Bow Bazar, Chattogram'}}"
"{'type': 'node', 'id': 11280971577, 'lat': 22.3445085, 'lon': 91.8012085, 'tags': {'amenity': 'pharmacy', 'healthcare': 'pharmacy', 'name': 'National Homeo Pharmacy, Eidgah Mor Kacharasta, Chattogram'}}"
"{'type': 'node', 'id': 11280978645, 'lat': 22.341685, 'lon': 91.7990054, 'tags': {'amenity': 'pharmacy', 'healthcare': 'pharmacy', 'name': 'Yeachmin Homeo Pharmacy, Edgah Baro Pukur Par, East Rampur, Halishahar, Chattogram'}}"
"{'type': 'node', 'id': 11280980741, 'lat': 22.3428684, 'lon': 91.7970086, 'tags': {'healthcare': 'yes', 'name': 'City Corporation Urban Health Care, East Rampur, Halishahar, Chattogram'}}"
"{'type': 'node', 'id': 11280993149, 'lat': 22.3428875, 'lon': 91.8012607, 'tags': {'amenity': 'pharmacy', 'healthcare': 'pharmacy', 'name': 'Eidgah Borofkol, East Rampur, Halishahar, Borofkol, Purbo Rampur, Chattogram'}}"
"{'type': 'node', 'id': 11282712159, 'lat': 22.3294109, 'lon': 91.8056422, 'tags': {'amenity': 'doctors', 'healthcare': 'doctor', 'name': 'Homeopathy Chamber (Dr. Masud Hossain), Halishahar Rd, Chattogram'}}"
"{'type': 'node', 'id': 11282802397, 'lat': 22.3325269, 'lon': 91.8105124, 'tags': {'amenity': 'pharmacy', 'healthcare': 'pharmacy', 'name': 'M/s. Mahamuda Pharmacy, Halishahar Rd, Chattogram'}}"
"{'type': 'node', 'id': 11290670911, 'lat': 22.3234918, 'lon': 91.7783649, 'tags': {'amenity': 'pharmacy', 'healthcare': 'pharmacy', 'name': 'Chemon Ara Homeo Hall'}}"
"{'type': 'node', 'id': 11290679585, 'lat': 22.3235617, 'lon': 91.7782139, 'tags': {'amenity': 'pharmacy', 'healthcare': 'pharmacy', 'name': 'Chenoara Pharmacy'}}"
"{'type': 'node', 'id': 11290754051, 'lat': 22.3167837, 'lon': 91.7917886, 'tags': {'amenity': 'hospital', 'healthcare': 'hospital', 'name': 'CGD Railway Hospital Port, Port Colony Rd, Chattogram'}}"
"{'type': 'node', 'id': 11299663755, 'lat': 22.3077592, 'lon': 91.787989, 'tags': {'amenity': 'pharmacy', 'healthcare': 'pharmacy', 'name': 'Bandhu Pharmacy, Niscintapara, Chattogram'}}"
"{'type': 'node', 'id': 11301629152, 'lat': 22.2966716, 'lon': 91.7837331, 'tags': {'amenity': 'pharmacy', 'healthcare': 'pharmacy', 'name': 'M/S. Kamini Pharmacy, Abdul Mabud Showdagor Road, E.P.Z. Gate, Bandor, Chattogram'}}"
"{'type': 'node', 'id': 11301652653, 'lat': 22.2975524, 'lon': 91.783313, 'tags': {'amenity': 'pharmacy', 'healthcare': 'pharmacy', 'name': 'L A pharmacy, M. A Aziz Road, Chattogram'}}"
"{'type': 'node', 'id': 11330421345, 'lat': 22.3441909, 'lon': 91.782481, 'tags': {'amenity': 'pharmacy', 'healthcare': 'pharmacy', 'name': 'Dr. Badal Kanti Debnath (Charu Homoeo Pharmacy), Chuna Factory Lane, Chattogram'}}"
"{'type': 'node', 'id': 11330468288, 'lat': 22.3422342, 'lon': 91.7796311, 'tags': {'healthcare': 'yes', 'name': 'Children Health Care, Halishahar, Chattogram'}}"
"{'type': 'node', 'id': 11330662008, 'lat': 22.3426436, 'lon': 91.8038078, 'tags': {'amenity': 'hospital', 'healthcare': 'hospital', 'name': 'MEDISAVE PATHOLOGY LAB Hospital, Dhaka Trunk Rd, Chattogram'}}"
"{'type': 'node', 'id': 11330701314, 'lat': 22.3370039, 'lon': 91.8014409, 'tags': {'amenity': 'clinic', 'healthcare': 'clinic', 'name': 'Surjer Hashi Clinic, Unnamed Road, Chattogram'}}"
"{'type': 'node', 'id': 11332434871, 'lat': 22.3416723, 'lon': 91.8060023, 'tags': {'amenity': 'clinic', 'healthcare': 'clinic', 'name': 'Nursing Court Kaderiya Medical Center, Dhaka Trunk Road, Chattogram'}}"
"{'type': 'node', 'id': 11335132653, 'lat': 22.3385092, 'lon': 91.8120318, 'tags': {'amenity': 'pharmacy', 'healthcare': 'pharmacy', 'name': 'M/S. Kaderia Medical Pharmacy, Sk. J.M. Villa, Double Mooring, Chattogram'}}"
"{'type': 'node', 'id': 11335176481, 'lat': 22.3342438, 'lon': 91.8100949, 'tags': {'amenity': 'pharmacy', 'healthcare': 'pharmacy', 'name': 'M/S. The Medical Point, Sheikh Mujib Road, North Agrabad, Chattogram'}}"
"{'type': 'node', 'id': 11335188679, 'lat': 22.3384901, 'lon': 91.813204, 'tags': {'amenity': 'pharmacy', 'healthcare': 'pharmacy', 'name': 'Al Aksa Pharmacy, Amnat khan Tower, Dewanhat Overbridge, Dhaka Trunk Rd, Chattogram'}}"
"{'type': 'node', 'id': 11335189341, 'lat': 22.3368191, 'lon': 91.8122247, 'tags': {'amenity': 'pharmacy', 'healthcare': 'pharmacy', 'name': 'M/S. Al Amin Pharmacy, Dewanhat, Mistripara, Chattogram'}}"
"{'type': 'node', 'id': 11335210026, 'lat': 22.3368226, 'lon': 91.8118256, 'tags': {'amenity': 'pharmacy', 'healthcare': 'pharmacy', 'name': 'M/s. Jononi Pharmacy, Sheikh Mujib Sarok, Mistri Para, Dewanhat, Chattogram'}}"
"{'type': 'node', 'id': 11342872677, 'lat': 22.3341324, 'lon': 91.8136016, 'tags': {'amenity': 'pharmacy', 'healthcare': 'pharmacy', 'name': 'M/S Islamiya Pharmacy, Sholtan Colony, Agrabad, Near Bonolata Lane, Chattogram'}}"
"{'type': 'node', 'id': 11342899280, 'lat': 22.3344157, 'lon': 91.8142651, 'tags': {'amenity': 'pharmacy', 'healthcare': 'pharmacy', 'name': 'M/s Pritam Medical Hall, Sultan Kolony Rd, Chattogram'}}"
"{'type': 'node', 'id': 11345739569, 'lat': 22.3356824, 'lon': 91.8148648, 'tags': {'amenity': 'pharmacy', 'healthcare': 'pharmacy', 'name': 'M/S. Muradnagar Pharmacy,1 No., Supariwala Goli, Dewanhat, Chattogram'}}"
"{'type': 'node', 'id': 11353408848, 'lat': 22.3332278, 'lon': 91.8165225, 'tags': {'amenity': 'pharmacy', 'healthcare': 'pharmacy', 'name': 'M/s. National Pharmacy, Air Ali Super Market, Pathantuli Road, Nazirpul, Chaumohoni, Chattogram'}}"
"{'type': 'node', 'id': 11353414812, 'lat': 22.3333897, 'lon': 91.816776, 'tags': {'amenity': 'hospital', 'healthcare': 'hospital', 'name': 'Midpoint Hospital and Maternity Center Ltd., Midpoint Hospital, Pathantuli Rd, Chattogram'}}"
"{'type': 'node', 'id': 11353417016, 'lat': 22.3333229, 'lon': 91.8168972, 'tags': {'amenity': 'pharmacy', 'healthcare': 'pharmacy', 'name': 'M/s. Prity Pharmacy, Pathantuli Rd, Chattogram'}}"
"{'type': 'node', 'id': 11353444120, 'lat': 22.3326014, 'lon': 91.8138357, 'tags': {'amenity': 'pharmacy', 'healthcare': 'pharmacy', 'name': 'Raju medical hall, Pathantuli Nazrul Bhandari Rd, Kapuria Para, Chowmuni Agrabad, Chattogram'}}"
"{'type': 'node', 'id': 11353462362, 'lat': 22.3336777, 'lon': 91.8127745, 'tags': {'amenity': 'pharmacy', 'healthcare': 'pharmacy', 'name': 'Macca Pharmacy, Sheikh Mujib Road, Choumohoni, Agrabad, Chattogram'}}"
"{'type': 'node', 'id': 11361249090, 'lat': 22.3207541, 'lon': 91.814005, 'tags': {'amenity': 'pharmacy', 'healthcare': 'pharmacy', 'name': 'Maa Pharmacy,Damam Petrol Pump, Rashid Building, Strand Road, Chattogram'}}"
"{'type': 'node', 'id': 11361987503, 'lat': 22.0762507, 'lon': 92.049644, 'tags': {'amenity': 'hospital', 'healthcare': 'hospital', 'name': 'Alpha Hospital & Diagonstic Center'}}"
"{'type': 'node', 'id': 11361987509, 'lat': 22.0848887, 'lon': 92.0543241, 'tags': {'amenity': 'hospital', 'healthcare': 'hospital', 'name': 'Satkania Upazila Health Complex'}}"
"{'type': 'node', 'id': 11368079047, 'lat': 22.3271065, 'lon': 91.8142573, 'tags': {'amenity': 'hospital', 'healthcare': 'hospital', 'name': 'Bumrungrad International Hospital Referral Office-Chattagram, Agrabad C/A, Chattogram'}}"
"{'type': 'node', 'id': 11378893773, 'lat': 22.3323072, 'lon': 91.8127651, 'tags': {'amenity': 'pharmacy', 'healthcare': 'pharmacy', 'name': 'Nur & Sons Pharmacy, Sheikh Mujib Road, Chowmuhoni, Agrabad, Chattogram'}}"
"{'type': 'node', 'id': 11378972552, 'lat': 22.3329861, 'lon': 91.8173135, 'tags': {'amenity': 'pharmacy', 'healthcare': 'pharmacy', 'name': 'Medico Pharmacy, Saleh Ahmed Chairman Lane Road, Pathantuli Road, Matiar Pool, Najirpol, Chattogram'}}"
"{'type': 'node', 'id': 11379056776, 'lat': 22.3313497, 'lon': 91.8214481, 'tags': {'amenity': 'pharmacy', 'healthcare': 'pharmacy', 'name': 'MS. Satota Pharmacy, East Mother Bari, 1No Goli, Chattogram'}}"
"{'type': 'node', 'id': 11379103951, 'lat': 22.3310034, 'lon': 91.8204285, 'tags': {'amenity': 'pharmacy', 'healthcare': 'pharmacy', 'name': 'C R Pharmacy, East Mother Bari, Commerce College Road, Motiarpool, Chattogram'}}"
"{'type': 'node', 'id': 11380740859, 'lat': 22.328411, 'lon': 91.81821, 'tags': {'amenity': 'pharmacy', 'healthcare': 'pharmacy', 'name': 'Allahr Dan Pharmacy, Bar Quater, Mugoltoli Bazar, Agrabad, Chattogram'}}"
"{'type': 'node', 'id': 11380779591, 'lat': 22.3289878, 'lon': 91.8194687, 'tags': {'amenity': 'pharmacy', 'healthcare': 'pharmacy', 'name': 'Afif Medical Centre, Jugi Chand Mosjid Ln, Chattogram'}}"
"{'type': 'node', 'id': 11380787914, 'lat': 22.3274292, 'lon': 91.8172521, 'tags': {'amenity': 'clinic', 'healthcare': 'clinic', 'name': 'Konika Homeo Clinic, Commerce College Road, Chattogram'}}"
"{'type': 'node', 'id': 11380818374, 'lat': 22.3288557, 'lon': 91.8217447, 'tags': {'amenity': 'pharmacy', 'healthcare': 'pharmacy', 'name': 'Nizampur Medical Hall, Dhaka Trunk Rd, Chattogram'}}"
"{'type': 'node', 'id': 11380825583, 'lat': 22.3276524, 'lon': 91.819383, 'tags': {'amenity': 'pharmacy', 'healthcare': 'pharmacy', 'name': 'M/S. Rahomania Pharmacy, Jugi Chand Mosjid Ln, Chattogram'}}"
"{'type': 'node', 'id': 11380829997, 'lat': 22.3159344, 'lon': 91.7998185, 'tags': {'amenity': 'pharmacy', 'healthcare': 'pharmacy', 'name': 'M/S. Janosheba Pharmacy, Rahaman Bhaban, P.C Road, Neemtola, Bandar, Chattogram'}}"
"{'type': 'node', 'id': 11380837153, 'lat': 22.3168317, 'lon': 91.7993536, 'tags': {'amenity': 'pharmacy', 'healthcare': 'pharmacy', 'name': 'Shatkania Majidia pharmacy, Port Connecting Rd, Chattogram'}}"
"{'type': 'node', 'id': 11382900428, 'lat': 22.31376, 'lon': 91.7966021, 'tags': {'amenity': 'hospital', 'healthcare': 'hospital', 'name': 'Chittagong Port Hospital Colony, Port Hospital, Chattogram'}}"
"{'type': 'node', 'id': 11383026889, 'lat': 22.3142904, 'lon': 91.7957483, 'tags': {'amenity': 'hospital', 'healthcare': 'hospital', 'name': 'Radiology unit port hospital, Port Hospital, Port Colony Rd, Chattogram'}}"
"{'type': 'node', 'id': 11383102269, 'lat': 22.3136427, 'lon': 91.7955131, 'tags': {'amenity': 'hospital', 'healthcare': 'hospital', 'name': 'Bangladesh Railway Hospital, Port Colony Rd, Chattogram'}}"
"{'type': 'node', 'id': 11385027263, 'lat': 22.2874899, 'lon': 91.7837339, 'tags': {'amenity': 'hospital', 'healthcare': 'hospital', 'name': 'ICDDR, B Tuberculosis Diagnosis and Treatment Centre, Shop-06, Shardar Plaza, Bandartila, Chattogram'}}"
"{'type': 'node', 'id': 11389682964, 'lat': 22.4627318, 'lon': 92.0073931, 'tags': {'amenity': 'hospital', 'healthcare': 'hospital', 'name': 'Pomra Family Planning center'}}"
"{'type': 'node', 'id': 11393298279, 'lat': 22.2862254, 'lon': 91.7841757, 'tags': {'amenity': 'pharmacy', 'healthcare': 'pharmacy', 'name': 'Peoples Pharmacy, Shah Plaza Bandartila, Chattogram'}}"
"{'type': 'node', 'id': 11393301299, 'lat': 22.2860149, 'lon': 91.78415, 'tags': {'amenity': 'pharmacy', 'healthcare': 'pharmacy', 'name': 'Manju Homeo is Bandartila, Sarangs Mansion, Dakshin Halishahar, Bandertilla, Chattogram'}}"
"{'type': 'node', 'id': 11393302747, 'lat': 22.2834235, 'lon': 91.7838985, 'tags': {'amenity': 'pharmacy', 'healthcare': 'pharmacy', 'name': 'S.R Pharmacy, Momota Goli, Chattogram'}}"
"{'type': 'node', 'id': 11393310342, 'lat': 22.2828182, 'lon': 91.783718, 'tags': {'amenity': 'pharmacy', 'healthcare': 'pharmacy', 'name': 'Janani Pharmacy, Sailors Colony 2 Road, Chittagong'}}"
"{'type': 'node', 'id': 11393311618, 'lat': 22.2827799, 'lon': 91.783215, 'tags': {'amenity': 'pharmacy', 'healthcare': 'pharmacy', 'name': 'M/s Sagar Pharmacy, Shop no. 32, Naval welfare foundation market, Chattogram'}}"
"{'type': 'node', 'id': 11393311845, 'lat': 22.2865251, 'lon': 91.7833239, 'tags': {'amenity': 'pharmacy', 'healthcare': 'pharmacy', 'name': 'M/s. Medicine Corner, Shop No-04, Al-Madina Super Market, Shahid Nurjaman Road, Bandartila, Chattogram'}}"
"{'type': 'node', 'id': 11393320918, 'lat': 22.2866634, 'lon': 91.7840475, 'tags': {'amenity': 'hospital', 'healthcare': 'hospital', 'name': 'City Corporation Bandartila Matrisadan Hospital, Ward No 39, Chattogram'}}"
"{'type': 'node', 'id': 11393323303, 'lat': 22.2864519, 'lon': 91.7820713, 'tags': {'amenity': 'pharmacy', 'healthcare': 'pharmacy', 'name': 'Babar Doya Pharmacy, Shahid Nurjaman Rd, Chattogram'}}"
"{'type': 'node', 'id': 11393323746, 'lat': 22.28417, 'lon': 91.782116, 'tags': {'amenity': 'pharmacy', 'healthcare': 'pharmacy', 'name': 'Bismillah Homeo Hall, BEPZA College Rd, Chattogram'}}"
"{'type': 'node', 'id': 11395436409, 'lat': 22.2833913, 'lon': 91.7796067, 'tags': {'amenity': 'hospital', 'healthcare': 'hospital', 'name': 'CMH Chittagong Hospital, CEPZ, Chattogram'}}"
"{'type': 'node', 'id': 11395471991, 'lat': 22.2812929, 'lon': 91.7804545, 'tags': {'amenity': 'pharmacy', 'healthcare': 'pharmacy', 'name': 'A.D. Pharmacy, Madraji Shah Road, Chattogram'}}"
"{'type': 'node', 'id': 11406968558, 'lat': 22.5450864, 'lon': 92.0015382, 'tags': {'amenity': 'clinic', 'healthcare': 'clinic', 'name': 'Surjer Hashi Clinic'}}"
"{'type': 'node', 'id': 11409058621, 'lat': 22.281791, 'lon': 91.7832536, 'tags': {'amenity': 'pharmacy', 'healthcare': 'pharmacy', 'name': 'Fatema Pharmecy, Madrgi, Shah Road, Chattogram'}}"
"{'type': 'node', 'id': 11409097892, 'lat': 22.2769799, 'lon': 91.7741157, 'tags': {'amenity': 'pharmacy', 'healthcare': 'pharmacy', 'name': 'Mayer Dowa Pharmacy, Humayun Kabir Rd, Humayun Bagh, Chattogram'}}"
"{'type': 'node', 'id': 11409283226, 'lat': 22.2763689, 'lon': 91.7777967, 'tags': {'amenity': 'pharmacy', 'healthcare': 'pharmacy', 'name': 'R S pharmacy, Akmol Alli road pocket gate C P Z Bondortila, Chattogram'}}"
"{'type': 'node', 'id': 11409292717, 'lat': 22.2801626, 'lon': 91.7849489, 'tags': {'amenity': 'pharmacy', 'healthcare': 'pharmacy', 'name': 'Ma Pharmacy, Akmal Ali Road South Halishahar EPZ, Chattogram'}}"
"{'type': 'node', 'id': 11411549311, 'lat': 22.2747097, 'lon': 91.7861493, 'tags': {'amenity': 'pharmacy', 'healthcare': 'pharmacy', 'name': 'City Pharmacy, Hawker Goli, Chattogram'}}"
"{'type': 'node', 'id': 11411562922, 'lat': 22.2763729, 'lon': 91.7860019, 'tags': {'amenity': 'hospital', 'healthcare': 'hospital', 'name': 'City General Hospital and Diagnostic Center, Kazi Goli, Chattogram'}}"
"{'type': 'node', 'id': 11411567814, 'lat': 22.276327, 'lon': 91.782238, 'tags': {'amenity': 'pharmacy', 'healthcare': 'pharmacy', 'name': 'New Popular Medico, Rahman Mension, kazir golir shesh matha, Kazi Goli, Chattogram'}}"
"{'type': 'node', 'id': 11411590248, 'lat': 22.2738626, 'lon': 91.7822843, 'tags': {'amenity': 'pharmacy', 'healthcare': 'pharmacy', 'name': 'Bokul Pharmacy, S Alam B Alam Rd, Chattogram'}}"
"{'type': 'node', 'id': 11425781538, 'lat': 21.8238195, 'lon': 92.4383495, 'tags': {'amenity': 'hospital', 'healthcare': 'hospital', 'name': 'Thanchi Upazila Health Complex'}}"
"{'type': 'node', 'id': 11430464710, 'lat': 22.267183, 'lon': 91.7803013, 'tags': {'amenity': 'pharmacy', 'healthcare': 'pharmacy', 'name': 'M.T.M SHADHIN Pharmacy, Housing Colony Rd, Chattogram'}}"
"{'type': 'node', 'id': 11430474136, 'lat': 22.2686049, 'lon': 91.7833693, 'tags': {'amenity': 'pharmacy', 'healthcare': 'pharmacy', 'name': 'Hasan Medical Hall, Housing Colony Rd, Chattogram'}}"
"{'type': 'node', 'id': 11430487920, 'lat': 22.2687422, 'lon': 91.78432, 'tags': {'amenity': 'pharmacy', 'healthcare': 'pharmacy', 'name': 'Darber Pharmacy, Housing Colony Rd, Chattogram'}}"
"{'type': 'node', 'id': 11430488505, 'lat': 22.2685113, 'lon': 91.7839177, 'tags': {'amenity': 'dentist', 'healthcare': 'dentist', 'name': 'Dental care point-Dentist, Housing Colony Rd, Chattogram'}}"
"{'type': 'node', 'id': 11430490164, 'lat': 22.266971, 'lon': 91.7886051, 'tags': {'amenity': 'pharmacy', 'healthcare': 'pharmacy', 'name': 'M/S Fatema Medical Hall,  M. A Aziz Rd, Chattogram'}}"
"{'type': 'node', 'id': 11430496584, 'lat': 22.2684934, 'lon': 91.7829172, 'tags': {'amenity': 'pharmacy', 'healthcare': 'pharmacy', 'name': 'Populr pharmacy, Housing Colony Rd, Chattogram'}}"
"{'type': 'node', 'id': 11430506284, 'lat': 22.2679671, 'lon': 91.7817233, 'tags': {'amenity': 'pharmacy', 'healthcare': 'pharmacy', 'name': 'Mojumder Homeo Hall ,Hazi Makbul Ahmed Society Road, Khejurtola, Chattogram'}}"
"{'type': 'node', 'id': 11430509988, 'lat': 22.2685899, 'lon': 91.7819417, 'tags': {'amenity': 'pharmacy', 'healthcare': 'pharmacy', 'name': 'Unique Homeo Hall, Housing Colony Rd, Chattogram'}}"
"{'type': 'node', 'id': 11431707280, 'lat': 22.2586131, 'lon': 91.7862974, 'tags': {'amenity': 'pharmacy', 'healthcare': 'pharmacy', 'name': 'Patenga model pharma, Moslimabad more katgor, Chattogram'}}"
"{'type': 'node', 'id': 11436451345, 'lat': 22.3651222, 'lon': 91.7812202, 'tags': {'amenity': 'pharmacy', 'healthcare': 'pharmacy', 'name': 'M.D.S Medicine Corner Pharmacy, Dhaka Trunk Road, Chattogram'}}"
"{'type': 'node', 'id': 11436487446, 'lat': 22.3612728, 'lon': 91.8024665, 'tags': {'amenity': 'hospital', 'healthcare': 'hospital', 'name': 'Chittagong Diabetic General Hospital, Zakir Hossain Road, Khulsi, Chattogram'}}"
"{'type': 'node', 'id': 11436616430, 'lat': 22.3681407, 'lon': 91.7787, 'tags': {'amenity': 'pharmacy', 'healthcare': 'pharmacy', 'name': 'Bismillah Model Pharmacy & Dental Care, Dhaka - Chittagong Hwy, Chattogram'}}"
"{'type': 'node', 'id': 11436616576, 'lat': 22.361246, 'lon': 91.8019704, 'tags': {'amenity': 'hospital', 'healthcare': 'hospital', 'name': 'SAHIC Sub-Center and Integrated Pre-School for Hearing Impaired Children,Zakir Hossain Rd,Chattogram'}}"
"{'type': 'node', 'id': 11436617033, 'lat': 22.3693282, 'lon': 91.7776654, 'tags': {'amenity': 'pharmacy', 'healthcare': 'pharmacy', 'name': 'Bishwas Homeo Clinic, Cornel Hat, Akbar Shah, D.T. Road, Chattogram'}}"
"{'type': 'node', 'id': 11436618008, 'lat': 22.3616928, 'lon': 91.8160227, 'tags': {'amenity': 'hospital', 'healthcare': 'hospital', 'name': 'Lios eye hospital gate, Zakir Hossain Rd, Chattogram'}}"
"{'type': 'node', 'id': 11436644428, 'lat': 22.3620026, 'lon': 91.8184015, 'tags': {'amenity': 'pharmacy', 'healthcare': 'pharmacy', 'name': 'My CareBD Pharmacy, Commissioner goli, Zakir Hossain Rd, Chattogram'}}"
"{'type': 'node', 'id': 11436644611, 'lat': 22.3627651, 'lon': 91.8190949, 'tags': {'amenity': 'pharmacy', 'healthcare': 'pharmacy', 'name': 'Chowdhury Pharmacy, Md. Zaman Chowdhury Rd, Chattogram'}}"
"{'type': 'node', 'id': 11436663712, 'lat': 22.3623792, 'lon': 91.816408, 'tags': {'amenity': 'pharmacy', 'healthcare': 'pharmacy', 'name': 'Aziz Pharmacy, Shahi Jamme Mosjid Market, Women College Mor, East Nasirabad, Chattogram'}}"
"{'type': 'node', 'id': 11436708438, 'lat': 22.3615789, 'lon': 91.8136737, 'tags': {'amenity': 'pharmacy', 'healthcare': 'pharmacy', 'name': 'Drug Mart pharmacy, S Khulshi Rd, Chattogram'}}"
"{'type': 'node', 'id': 11474928356, 'lat': 22.3719601, 'lon': 91.7755922, 'tags': {'amenity': 'pharmacy', 'healthcare': 'pharmacy', 'name': 'Anik Medical Hall, Dhaka - Chittagong Hwy, Chattogram'}}"
"{'type': 'node', 'id': 11475675433, 'lat': 22.3716998, 'lon': 91.775635, 'tags': {'amenity': 'pharmacy', 'healthcare': 'pharmacy', 'name': 'Chowdhury Drug House, Cornelhat, North Katli, Akborshah, Chattogram'}}"
"{'type': 'node', 'id': 11475745396, 'lat': 22.3862627, 'lon': 91.8065472, 'tags': {'amenity': 'hospital', 'healthcare': 'hospital', 'name': 'Shajinaz Hospital Limited, Arefin Nagar, Bayezid Link Road, Bayazid Bostami Rd, Chattogram'}}"
"{'type': 'node', 'id': 11482235681, 'lat': 22.4075104, 'lon': 91.8618576, 'tags': {'amenity': 'pharmacy', 'healthcare': 'pharmacy', 'name': 'Makka Madina Agro, Kaptai Rd, Chattogram'}}"
"{'type': 'node', 'id': 11484514033, 'lat': 22.4184899, 'lon': 91.8662921, 'tags': {'amenity': 'pharmacy', 'healthcare': 'pharmacy', 'name': 'M/s. Popular Pharmacy, Sheikh Market, Kaptai Rd, Chattogram'}}"
"{'type': 'node', 'id': 11484530591, 'lat': 22.4146355, 'lon': 91.8644664, 'tags': {'amenity': 'pharmacy', 'healthcare': 'pharmacy', 'name': 'New Bahar Pharmacy, Chittagong - Kaptai Rd, Chattogram'}}"
"{'type': 'node', 'id': 11485025008, 'lat': 22.3948726, 'lon': 91.8202602, 'tags': {'amenity': 'hospital', 'healthcare': 'hospital', 'name': 'Diabetic Hospital Oxygen Branch, Oxygen Mor, Hathazari Rd, Chattogram'}}"
"{'type': 'node', 'id': 11485025026, 'lat': 22.396203, 'lon': 91.8202098, 'tags': {'amenity': 'pharmacy', 'healthcare': 'pharmacy', 'name': 'S.A Shanto Pharmacy, Mashjid-e-Tayeba Complex, Wapda Gate, Oxygen, Chattogram'}}"
"{'type': 'node', 'id': 11502398413, 'lat': 22.408071, 'lon': 91.8177963, 'tags': {'amenity': 'pharmacy', 'healthcare': 'pharmacy', 'name': 'M/S. Chowdhury Pharmacy, Jilana Market, Baluchura, Hathazare Road, Chattogram'}}"
"{'type': 'node', 'id': 11502530519, 'lat': 22.4212871, 'lon': 91.8198713, 'tags': {'amenity': 'doctors', 'healthcare': 'doctor', 'name': 'Doctor Beni Madhob Shorma, Doctor, Chattogram - Rangamati-Khagrachari Highway, Chattogram'}}"
"{'type': 'node', 'id': 11502665245, 'lat': 22.4292152, 'lon': 91.818733, 'tags': {'amenity': 'pharmacy', 'healthcare': 'pharmacy', 'name': 'Best Janani pharmacy in chittagong, AL saleh super market, Chittagong - Rangamati Road, Chattogram'}}"
"{'type': 'node', 'id': 11505641472, 'lat': 22.4984211, 'lon': 91.8069484, 'tags': {'amenity': 'pharmacy', 'healthcare': 'pharmacy', 'name': 'M/s. Darbar Medical Hall, Hathazari Bus Stand, Chattogram'}}"
"{'type': 'node', 'id': 11505651701, 'lat': 22.498935, 'lon': 91.8069145, 'tags': {'amenity': 'pharmacy', 'healthcare': 'pharmacy', 'name': 'M/S. B. B Pharmacy, Bus Stand, Hathazari, Chattogram'}}"
"{'type': 'node', 'id': 11505684781, 'lat': 22.5025691, 'lon': 91.8070966, 'tags': {'amenity': 'pharmacy', 'healthcare': 'pharmacy', 'name': 'Hathazari Medical Hall, Hathazari Bazar, Hathazari Pourosobha, Chattogram'}}"
"{'type': 'node', 'id': 11505687287, 'lat': 22.503416, 'lon': 91.806842, 'tags': {'amenity': 'pharmacy', 'name': 'Janaseba Pharmacy, Chittagong - Khagrachhari Road, Upojela Market, Hathazari, Chattogram'}}"
"{'type': 'node', 'id': 11505720398, 'lat': 22.5082249, 'lon': 91.8065202, 'tags': {'amenity': 'hospital', 'healthcare': 'hospital', 'name': 'Maruf Work House Hospital, Medical Gate, Hathazari Pourosova, Chattogram'}}"
"{'type': 'node', 'id': 11507855061, 'lat': 22.4350699, 'lon': 91.8201032, 'tags': {'amenity': 'clinic', 'healthcare': 'clinic', 'name': 'Miyaji Harvanga Clinic, Chattogram - Rangamati-Khagrachari Highway, Chattogram'}}"
"{'type': 'node', 'id': 11507963268, 'lat': 22.4453943, 'lon': 91.8183256, 'tags': {'amenity': 'pharmacy', 'healthcare': 'pharmacy', 'name': 'New Janata Pharmacy, Station Road, Chowdhury Hat, Hathazari, Foteyabad, Chattogram'}}"
"{'type': 'node', 'id': 11507978254, 'lat': 22.4415514, 'lon': 91.8199173, 'tags': {'amenity': 'pharmacy', 'healthcare': 'pharmacy', 'name': 'Bismillah Pharma, Chattogram - Rangamati-Khagrachari Highway, Chattogram'}}"
"{'type': 'node', 'id': 11508000196, 'lat': 22.4452322, 'lon': 91.8180578, 'tags': {'amenity': 'pharmacy', 'healthcare': 'pharmacy', 'name': 'M/s New Madarsha Pharmacy, Chattogram - Rangamati-Khagrachari Highway, Chattogram'}}"
"{'type': 'node', 'id': 11524080703, 'lat': 22.5165508, 'lon': 91.8021729, 'tags': {'amenity': 'pharmacy', 'healthcare': 'pharmacy', 'name': 'Muhammad Medico & Hijama Centre, Chittagong - Khagrachhari Rd, Hathazari, Chattogram'}}"
"{'type': 'node', 'id': 11524116604, 'lat': 22.5585728, 'lon': 91.7968635, 'tags': {'amenity': 'hospital', 'healthcare': 'hospital', 'name': 'Gani Hospital Limited, Goni shopping complex, Sarkarhat, Chattogram'}}"
"{'type': 'node', 'id': 11524123611, 'lat': 22.5834769, 'lon': 91.7944392, 'tags': {'amenity': 'pharmacy', 'healthcare': 'pharmacy', 'name': 'Star Pharmacey, Chittagong - Khagrachhari Rd, Anayetpur, Chattogram'}}"
"{'type': 'node', 'id': 11527266350, 'lat': 22.4703196, 'lon': 91.8153084, 'tags': {'amenity': 'dentist', 'healthcare': 'dentist', 'name': 'Green Health Dental Care, Chattogram - Rangamati-Khagrachari Highway, Chattogram'}}"
"{'type': 'node', 'id': 11527312733, 'lat': 22.4739813, 'lon': 91.8144432, 'tags': {'amenity': 'pharmacy', 'healthcare': 'pharmacy', 'name': 'M/S R.AW Medical Hall, Chattogram - Rangamati-Khagrachari Highway, Chattogram'}}"
"{'type': 'node', 'id': 11536101703, 'lat': 22.4836027, 'lon': 91.8101308, 'tags': {'amenity': 'pharmacy', 'healthcare': 'pharmacy', 'name': 'M/s Arfin & Arman Pharmacy, Chattogram - Rangamati-Khagrachari Highway, Chattogram'}}"
"{'type': 'node', 'id': 11536202527, 'lat': 22.6307593, 'lon': 91.799692, 'tags': {'healthcare': 'laboratory', 'name': 'M/S Joy Medicine & Feed Center (Unit-2), Chittagong - Khagrachhari Rd, Nazirhat, Chattogram'}}"
"{'type': 'node', 'id': 11539887373, 'lat': 22.685225, 'lon': 91.7901942, 'tags': {'amenity': 'pharmacy', 'healthcare': 'pharmacy', 'name': 'Mercas Bismillah Poultry Complex, Pharmacy, Chittagong - Khagrachhari Rd, Bibir Hat, Chattogram'}}"
"{'type': 'node', 'id': 11542269489, 'lat': 22.688355, 'lon': 91.7897534, 'tags': {'amenity': 'hospital', 'healthcare': 'hospital', 'name': 'Popular Diagnostic Centre, Hospital, Chittagong - Khagrachhari Rd, Bibir Hat, Chattogram'}}"
"{'type': 'node', 'id': 11545827656, 'lat': 22.6878891, 'lon': 91.7906451, 'tags': {'amenity': 'hospital', 'healthcare': 'hospital', 'name': 'Al Nur Hospital, Chittagong - Khagrachhari Rd, Bibir Hat, Chattogram'}}"
"{'type': 'node', 'id': 11545960893, 'lat': 22.6869351, 'lon': 91.7904983, 'tags': {'amenity': 'pharmacy', 'healthcare': 'pharmacy', 'name': 'Modern Pharmacy, Bibirhat, Chittagong - Khagrachhari Rd, Chattogram'}}"
"{'type': 'node', 'id': 11548869421, 'lat': 22.6860749, 'lon': 91.7903948, 'tags': {'amenity': 'hospital', 'healthcare': 'hospital', 'name': 'Hazem Child Care Centre, Childrens hospital, Chittagong - Khagrachhari Rd, Chattogram'}}"
"{'type': 'node', 'id': 11548948707, 'lat': 22.6313728, 'lon': 91.800599, 'tags': {'amenity': 'pharmacy', 'healthcare': 'pharmacy', 'name': 'Nazirhat Pharmacy, Nanupur Road, Chittagong - Khagrachhari Rd, Chattogram'}}"
"{'type': 'node', 'id': 11548970119, 'lat': 22.6310611, 'lon': 91.8003706, 'tags': {'amenity': 'pharmacy', 'healthcare': 'pharmacy', 'name': 'G.S Agro vet Pharmacy, Nazirhat, Chittagong - Khagrachhari Rd, Chattogram'}}"
"{'type': 'node', 'id': 11549053434, 'lat': 22.6168144, 'lon': 91.7945452, 'tags': {'amenity': 'pharmacy', 'healthcare': 'pharmacy', 'name': 'Samiya pharmacy, Emergency care physician, Nur Ali Mear Hat Bazar Rd, Forhadabad, Chattogram'}}"
"{'type': 'node', 'id': 11549159666, 'lat': 22.5834438, 'lon': 91.794863, 'tags': {'amenity': 'pharmacy', 'healthcare': 'pharmacy', 'name': 'S.M Medical Hall, Chittagong - Khagrachhari Rd, Anayetpur, Chattogram'}}"
"{'type': 'node', 'id': 11549199919, 'lat': 22.5770849, 'lon': 91.7952359, 'tags': {'amenity': 'doctors', 'healthcare': 'doctor', 'name': 'Enayetpur Dental Center, Doctor, Chittagong - Khagrachhari Rd, Chattogram'}}"
"{'type': 'node', 'id': 11549205725, 'lat': 22.5596292, 'lon': 91.7978546, 'tags': {'amenity': 'clinic', 'healthcare': 'dialysis', 'healthcare:speciality': 'nephrology', 'name': 'Silva Diagnostic Centre, Chittagong - Khagrachhari Rd, Sarkar Hat, Chattogram'}}"
"{'type': 'node', 'id': 11563312275, 'lat': 22.5493553, 'lon': 91.7987297, 'tags': {'amenity': 'pharmacy', 'healthcare': 'pharmacy', 'name': 'Dr. Musa Pharmacy, Hathazari, Chittagong - Khagrachhari Rd, Chattogram'}}"
"{'type': 'node', 'id': 11563559274, 'lat': 22.4985089, 'lon': 91.8072165, 'tags': {'amenity': 'hospital', 'healthcare': 'hospital', 'name': 'Mother and Child Hospital, Hospital, Ramgor Road, Bus Stand, Hathazari, Pourasaba, Chattogram'}}"
"{'type': 'node', 'id': 11568959865, 'lat': 22.4731012, 'lon': 91.8148421, 'tags': {'amenity': 'pharmacy', 'healthcare': 'pharmacy', 'name': 'Maa Pharmacy, Chittagong - Rangamati-Khagrachhari Rd, Chattogram'}}"
"{'type': 'node', 'id': 11568960176, 'lat': 22.4739499, 'lon': 91.8147848, 'tags': {'amenity': 'hospital', 'healthcare': 'hospital', 'name': 'Green Health Hospital And Diagnostic Center, Hathazari, Rangamati-Khagrachhari Rd, Chattogram'}}"
"{'type': 'node', 'id': 11572069949, 'lat': 22.444624, 'lon': 91.819113, 'tags': {'amenity': 'hospital', 'healthcare': 'hospital', 'name': 'Fatehabad Clinic & Diagnostic Centre, Chittagong - Rangamati-Khagrachhari Rd, Chattogram'}}"
"{'type': 'node', 'id': 11572099995, 'lat': 22.444835, 'lon': 91.8191076, 'tags': {'amenity': 'pharmacy', 'healthcare': 'pharmacy', 'name': 'Familiar Medicine Center, Hathazari Road, Fatehabad, Chowdhury Hat, Chattogram'}}"
"{'type': 'node', 'id': 11572154352, 'lat': 22.4420794, 'lon': 91.8202499, 'tags': {'amenity': 'pharmacy', 'healthcare': 'pharmacy', 'name': 'Uposhom Homeo Hall, Chowdhuryhat, Foteyabad, Hatbazar, Chattogram'}}"
"{'type': 'node', 'id': 11572287625, 'lat': 22.4274207, 'lon': 91.8197768, 'tags': {'amenity': 'pharmacy', 'healthcare': 'pharmacy', 'name': 'S K Pharmacy, Chittagong - Rangamati-Khagrachhari Rd, Chattogram'}}"
"{'type': 'node', 'id': 11575739401, 'lat': 22.4203468, 'lon': 91.820055, 'tags': {'amenity': 'pharmacy', 'healthcare': 'pharmacy', 'name': 'Hossain Medico, Pharmacy, Chowdhury Market, Aman Bazar, Hathazari Road, Chattogram'}}"
"{'type': 'node', 'id': 11575784219, 'lat': 22.4158653, 'lon': 91.8195207, 'tags': {'amenity': 'pharmacy', 'healthcare': 'pharmacy', 'name': 'Rahman Pharmacy, Chittagong - Rangamati-Khagrachhari Rd, Chattogram'}}"
"{'type': 'node', 'id': 11584048263, 'lat': 22.4076006, 'lon': 91.8183157, 'tags': {'amenity': 'pharmacy', 'healthcare': 'pharmacy', 'name': 'M/S. Islam Pharmacy, Baluchara Main road, Rangamati-Khagrachari Highway, Chattogram'}}"
"{'type': 'node', 'id': 11584100606, 'lat': 22.4023809, 'lon': 91.8192536, 'tags': {'amenity': 'pharmacy', 'healthcare': 'pharmacy', 'name': 'M/s Iskandar Medical Hall, Pharmacy, Chittagong - Rangamati Khagrachhari Rd, Chattogram'}}"
"{'type': 'node', 'id': 11584105717, 'lat': 22.399912, 'lon': 91.8196453, 'tags': {'amenity': 'pharmacy', 'healthcare': 'pharmacy', 'name': 'S Pharma, Rangamati Khagrachhari Rd, Chattogram'}}"
"{'type': 'node', 'id': 11586101534, 'lat': 22.5100571, 'lon': 91.8385631, 'tags': {'amenity': 'pharmacy', 'healthcare': 'pharmacy', 'name': 'Healthcare Medicine House, Ichapur Bazar, Rangamati Road, Hathazari, Chattogram'}}"
"{'type': 'node', 'id': 11586111226, 'lat': 22.3948162, 'lon': 91.8210643, 'tags': {'amenity': 'hospital', 'healthcare': 'hospital', 'name': 'Chottogram Daiabetic General Hospital, Oxyzen, Rangamati-Khagrachari Highway, Chattogram'}}"
"{'type': 'node', 'id': 11586136840, 'lat': 22.5103205, 'lon': 91.8393822, 'tags': {'amenity': 'pharmacy', 'healthcare': 'pharmacy', 'name': 'Sadek Medical Hall, Chand Ghazi Road, Ichapur Faizia Bazar, Hathajari, Chattogram'}}"
"{'type': 'node', 'id': 11586158744, 'lat': 22.5014699, 'lon': 91.809166, 'tags': {'amenity': 'hospital', 'healthcare': 'hospital', 'name': 'One Diagnostic Centre, Chattogram-Hathazari Raujan Highway, Hathazari, Chattogram'}}"
"{'type': 'node', 'id': 11586177951, 'lat': 22.5028731, 'lon': 91.8104911, 'tags': {'amenity': 'pharmacy', 'healthcare': 'pharmacy', 'name': 'Maya Pharmacy, Kacari Rd, Hathazari, Chattogram'}}"
"{'type': 'node', 'id': 11586184621, 'lat': 22.5032278, 'lon': 91.8106523, 'tags': {'amenity': 'hospital', 'healthcare': 'hospital', 'name': 'Hathazari Digital Diagonstic Center ,Hathazari, Kacari Rd, Hathazari, Chattogram'}}"
"{'type': 'node', 'id': 11586187052, 'lat': 22.521727, 'lon': 91.8676747, 'tags': {'amenity': 'pharmacy', 'healthcare': 'pharmacy', 'name': 'Badhon Medical Hall, Chattogram-Hathazari Raujan Highway, Gohira, Chattogram'}}"
"{'type': 'node', 'id': 11586197349, 'lat': 22.5227126, 'lon': 91.8691718, 'tags': {'amenity': 'pharmacy', 'healthcare': 'pharmacy', 'name': 'Mishon Poultry and Dairy, Pharmacy, Chittagong - Rangamati Hwy, Chattogram'}}"
"{'type': 'node', 'id': 11586749130, 'lat': 22.5350963, 'lon': 91.9097504, 'tags': {'amenity': 'pharmacy', 'healthcare': 'pharmacy', 'name': 'New Rupali Pharmacy, Chittagong - Rangamati Hwy, Chattogram'}}"
"{'type': 'node', 'id': 11586758784, 'lat': 22.5317159, 'lon': 91.8870318, 'tags': {'amenity': 'pharmacy', 'healthcare': 'pharmacy', 'name': 'Mohajon Pharmacy, Shoroter Dokan, Pathan Para, Chittagong - Rangamati Hwy, Chattogram'}}"
"{'type': 'node', 'id': 11590969177, 'lat': 22.5350105, 'lon': 91.9203983, 'tags': {'amenity': 'pharmacy', 'healthcare': 'pharmacy', 'name': 'Super Lab Diagnostic Cenret, Chittagong - Rangamati Hwy, Raozan, Chattogram'}}"
"{'type': 'node', 'id': 11590972289, 'lat': 22.5358339, 'lon': 91.9250837, 'tags': {'amenity': 'pharmacy', 'healthcare': 'pharmacy', 'name': 'M/S SIMUL PHARMACY, Pharmacy, Chittagong - Rangamati Hwy, Raozan, Chattogram'}}"
"{'type': 'node', 'id': 11590973605, 'lat': 22.5350013, 'lon': 91.9197717, 'tags': {'amenity': 'pharmacy', 'healthcare': 'pharmacy', 'name': 'Deposit Pharmacy, Pharmacy, Chittagong - Rangamati Hwy, Raozan, Chattogram'}}"
"{'type': 'node', 'id': 11590973606, 'lat': 22.5369512, 'lon': 91.9294774, 'tags': {'amenity': 'pharmacy', 'healthcare': 'pharmacy', 'name': 'Simul pharmicy, Chittagong - Rangamati Hwy, Raozan, Chattogram'}}"
"{'type': 'node', 'id': 11612599943, 'lat': 22.2318571, 'lon': 91.8726803, 'tags': {'amenity': 'pharmacy', 'healthcare': 'pharmacy', 'name': 'SNA Medicine Sup, Pharmacy, Chittagong-Anwara-Banshkhali Rd, Chattogram'}}"
"{'type': 'node', 'id': 11612657104, 'lat': 22.2338492, 'lon': 91.8723449, 'tags': {'amenity': 'hospital', 'healthcare': 'hospital', 'name': 'The Lab-Aid Diagnosis Centre, Anowara, Chittagong-Anwara-Banshkhali Rd, Chattogram'}}"
"{'type': 'node', 'id': 11612727759, 'lat': 22.2327541, 'lon': 91.8724075, 'tags': {'amenity': 'pharmacy', 'healthcare': 'pharmacy', 'name': 'A.R.Pharmacy, Chittagong-Anwara-Banshkhali Rd, Anowara, Chattogram'}}"
"{'type': 'node', 'id': 11612733170, 'lat': 22.2325856, 'lon': 91.8730356, 'tags': {'amenity': 'pharmacy', 'healthcare': 'pharmacy', 'name': 'Mitra Medical Hall, Chittagong-Anwara-Banshkhali Rd, Anowara, Chattogram'}}"
"{'type': 'node', 'id': 11612818068, 'lat': 22.2504225, 'lon': 91.8710615, 'tags': {'amenity': 'pharmacy', 'healthcare': 'pharmacy', 'name': 'Zishan Pharmacy (Dr. Narayon), Chittagong-Anwara-Banshkhali Rd, Chattogram'}}"
"{'type': 'node', 'id': 11612832080, 'lat': 22.2496872, 'lon': 91.8726642, 'tags': {'amenity': 'hospital', 'healthcare': 'hospital', 'name': 'Bara Uthan Union Health and Family Welfare Centre, Chittagong-Anwara-Banshkhali Rd, Chattogram'}}"
"{'type': 'node', 'id': 11689990657, 'lat': 22.2480359, 'lon': 91.8697716, 'tags': {'amenity': 'pharmacy', 'healthcare': 'pharmacy', 'name': 'Gausia Medicale Center, Chittagong-Anwara-Banshkhali Rd, Chattogram'}}"
"{'type': 'node', 'id': 11693044331, 'lat': 22.5348713, 'lon': 91.9137923, 'tags': {'amenity': 'pharmacy', 'healthcare': 'pharmacy', 'name': 'An Noor Pharmacy, Chittagong - Rangamati Hwy, Raozan, Chattogram'}}"
"{'type': 'node', 'id': 11693127167, 'lat': 22.5324818, 'lon': 91.8921099, 'tags': {'amenity': 'pharmacy', 'healthcare': 'pharmacy', 'name': 'Raozan Medical Hall, Chittagong - Rangamati Hwy, Raozan, Chattogram'}}"
"{'type': 'node', 'id': 11693484194, 'lat': 22.5100252, 'lon': 91.8393062, 'tags': {'amenity': 'pharmacy', 'healthcare': 'pharmacy', 'name': 'Arfin Pharmacy, Chittagong - Rangamati Hwy, Hathazari, Chattogram'}}"
"{'type': 'node', 'id': 11693525146, 'lat': 22.509966, 'lon': 91.8399409, 'tags': {'amenity': 'pharmacy', 'healthcare': 'pharmacy', 'name': 'M/s Faizia Pharmacy, Ichapur Faizia Bazar, Rangamati Road, Hathazari, Chattogram'}}"
