OSM_Data
"{'type': 'node', 'id': 369660843, 'lat': -36.6100472, 'lon': -72.1012392, 'tags': {'addr:city': 'Chillán', 'addr:country': 'CL', 'addr:housenumber': '770', 'addr:state': 'Región de Ñuble', 'addr:street': 'El Roble', 'amenity': 'pharmacy', 'brand': 'Farmacias Ahumada', 'brand:wikidata': 'Q5856069', 'healthcare': 'pharmacy', 'name': 'Farmacias Ahumada'}}"
"{'type': 'node', 'id': 369660933, 'lat': -36.609171, 'lon': -72.1018988, 'tags': {'addr:city': 'Chillan', 'addr:housenumber': '702', 'addr:street': '5 de Abril', 'amenity': 'pharmacy', 'brand': 'Farmacias Ahumada', 'brand:wikidata': 'Q5856069', 'healthcare': 'pharmacy', 'name': 'Farmacias Ahumada'}}"
"{'type': 'node', 'id': 409965519, 'lat': -36.6083287, 'lon': -72.09258, 'tags': {'addr:city': 'Chillán', 'addr:housenumber': '1', 'addr:street': 'Avenida Francisco Ramírez', 'amenity': 'pharmacy', 'brand': 'SalcoBrand', 'brand:wikidata': 'Q2877054', 'healthcare': 'pharmacy', 'name': 'SalcoBrand'}}"
"{'type': 'node', 'id': 410405081, 'lat': -36.5953807, 'lon': -72.1069408, 'tags': {'addr:city': 'Chillán', 'addr:housenumber': '134', 'addr:street': ""Avenida Libertador Bernardo O'Higgins"", 'amenity': 'pharmacy', 'brand': 'Farmacias Ahumada', 'brand:wikidata': 'Q5856069', 'healthcare': 'pharmacy', 'name': 'Farmacias Ahumada'}}"
"{'type': 'node', 'id': 410405082, 'lat': -36.5950879, 'lon': -72.1068147, 'tags': {'addr:city': 'Chillán', 'addr:housenumber': '134', 'addr:street': ""Avenida Libertador Bernardo O'Higgins"", 'amenity': 'pharmacy', 'brand': 'Cruz Verde', 'brand:wikidata': 'Q5856071', 'healthcare': 'pharmacy', 'name': 'Cruz Verde'}}"
"{'type': 'node', 'id': 410407241, 'lat': -36.6105236, 'lon': -72.1007448, 'tags': {'addr:city': 'Chillán', 'addr:housenumber': '799', 'addr:street': 'Maipón', 'amenity': 'pharmacy', 'healthcare': 'pharmacy', 'name': 'Farmacias Santos'}}"
"{'type': 'node', 'id': 410407242, 'lat': -36.6100012, 'lon': -72.101911, 'tags': {'addr:city': 'Chillán', 'addr:housenumber': '775', 'addr:street': '5 de Abril', 'amenity': 'pharmacy', 'healthcare': 'pharmacy', 'name': 'Farmacia Santos'}}"
"{'type': 'node', 'id': 410407243, 'lat': -36.6102351, 'lon': -72.101984, 'tags': {'addr:city': 'Chillán', 'addr:housenumber': '795', 'addr:street': '5 de Abril', 'amenity': 'pharmacy', 'healthcare': 'pharmacy', 'name': 'Farmacia El León'}}"
"{'type': 'node', 'id': 410407244, 'lat': -36.6090466, 'lon': -72.1024134, 'tags': {'addr:city': 'Chillán', 'addr:housenumber': '674', 'addr:street': 'El Roble', 'amenity': 'pharmacy', 'healthcare': 'pharmacy', 'name': 'Farmacias El Leon'}}"
"{'type': 'node', 'id': 410407251, 'lat': -36.6078681, 'lon': -72.1027768, 'tags': {'addr:city': 'Chillán', 'addr:housenumber': '637', 'addr:street': 'Arauco', 'amenity': 'pharmacy', 'brand': 'Cruz Verde', 'brand:wikidata': 'Q5856071', 'healthcare': 'pharmacy', 'name': 'Cruz Verde'}}"
"{'type': 'node', 'id': 410407254, 'lat': -36.6092442, 'lon': -72.1016198, 'tags': {'addr:city': 'Chillán', 'addr:housenumber': '701', 'addr:street': '5 de Abril', 'amenity': 'pharmacy', 'brand': 'Cruz Verde', 'brand:wikidata': 'Q5856071', 'healthcare': 'pharmacy', 'name': 'Cruz Verde'}}"
"{'type': 'node', 'id': 665686117, 'lat': -36.6017601, 'lon': -72.0905736, 'tags': {'addr:city': 'Chillan', 'addr:country': 'CL', 'addr:full': 'Avenida Vicente Mendez 37, Chillan, Chile', 'addr:housenumber': '37', 'addr:state': 'Región de Ñuble', 'addr:street': 'Avenida Vicente Méndez', 'amenity': 'dentist', 'healthcare': 'dentist'}}"
"{'type': 'node', 'id': 665686292, 'lat': -36.6012584, 'lon': -72.0902329, 'tags': {'addr:city': 'Chillán', 'addr:housenumber': '75', 'addr:street': 'Avenida Vicente Méndez', 'amenity': 'pharmacy', 'healthcare': 'pharmacy', 'name': 'Farmacia Las Amapolas'}}"
"{'type': 'node', 'id': 867951484, 'lat': -36.8258284, 'lon': -73.0490187, 'tags': {'addr:city': 'Concepción', 'addr:full': 'Barros Arana 776', 'addr:housenumber': '779', 'addr:street': 'Barros Arana', 'amenity': 'pharmacy', 'brand': 'SalcoBrand', 'brand:wikidata': 'Q2877054', 'brand:wikipedia': 'es:Farmacias Salcobrand', 'drive_through': 'no', 'healthcare': 'pharmacy', 'name': 'SalcoBrand', 'opening_hours': 'Mo-Fr 09:00-20:30; Sa 09:00-18:00', 'phone': '+56 41 2227048', 'website': 'https://salcobrand.cl'}}"
"{'type': 'node', 'id': 867951585, 'lat': -37.4691336, 'lon': -72.3509243, 'tags': {'addr:city': 'Los Ángeles', 'addr:housenumber': '412', 'addr:street': 'Colón', 'amenity': 'pharmacy', 'brand': 'SalcoBrand', 'brand:wikidata': 'Q2877054', 'healthcare': 'pharmacy', 'name': 'SalcoBrand', 'phone': '+56 43 327542'}}"
"{'type': 'node', 'id': 867951784, 'lat': -36.7898199, 'lon': -73.0588638, 'tags': {'addr:city': 'Concepción', 'addr:country': 'CL', 'addr:full': 'Ramón Carrasco 292 - 294', 'addr:housenumber': '294', 'addr:street': 'Ramón Carrasco 292 -', 'amenity': 'pharmacy', 'name': 'Farmacias SalcoBrand', 'phone': '+5641484165'}}"
"{'type': 'node', 'id': 867952325, 'lat': -36.8261668, 'lon': -73.049807, 'tags': {'addr:city': 'Concepción', 'addr:full': 'Barros Arana 709', 'addr:housenumber': '709', 'addr:street': 'Barros Arana', 'amenity': 'pharmacy', 'brand': 'SalcoBrand', 'brand:wikidata': 'Q2877054', 'brand:wikipedia': 'es:Farmacias Salcobrand', 'drive_through': 'no', 'healthcare': 'pharmacy', 'name': 'SalcoBrand', 'opening_hours': 'Mo-Fr 08:30-20:00; Sa 09:00-18:00', 'phone': '+56 41 252730', 'website': 'https://salcobrand.cl'}}"
"{'type': 'node', 'id': 867952675, 'lat': -36.6089471, 'lon': -72.1018176, 'tags': {'addr:city': 'Chillan', 'addr:country': 'CL', 'addr:full': 'El Roble 699', 'addr:housenumber': '699', 'addr:state': 'Región de Ñuble', 'addr:street': 'El Roble', 'amenity': 'pharmacy', 'brand': 'SalcoBrand', 'brand:wikidata': 'Q2877054', 'healthcare': 'pharmacy', 'name': 'SalcoBrand', 'phone': '+5642218167'}}"
"{'type': 'node', 'id': 867953357, 'lat': -36.8288676, 'lon': -73.0497027, 'tags': {'addr:city': 'Concepción', 'addr:full': 'San Martín 661', 'addr:housenumber': '612', 'addr:street': 'San Martín', 'amenity': 'pharmacy', 'name': 'Farmacias SalcoBrand', 'phone': '+56 41 214382'}}"
"{'type': 'node', 'id': 867953526, 'lat': -36.5906621, 'lon': -72.0850487, 'tags': {'addr:city': 'Chillan', 'addr:country': 'CL', 'addr:full': 'Paul Harris 1155', 'addr:housenumber': '1155', 'addr:state': 'Región de Ñuble', 'addr:street': 'Avenida Paul Harris', 'amenity': 'pharmacy', 'name': 'Farmacias SalcoBrand', 'phone': '+5642279401'}}"
"{'type': 'node', 'id': 867953774, 'lat': -36.8260604, 'lon': -73.0489676, 'tags': {'addr:city': 'Concepción', 'addr:housenumber': '762-774', 'addr:street': 'Barros Arana', 'amenity': 'pharmacy', 'brand': 'SalcoBrand', 'brand:wikidata': 'Q2877054', 'brand:wikipedia': 'es:Farmacias Salcobrand', 'drive_through': 'no', 'healthcare': 'pharmacy', 'name': 'SalcoBrand', 'opening_hours': 'Mo-Fr 08:00-20:30; Sa 09:00-20:00; Su 10:00-19:00', 'phone': '+56 41 257982', 'website': 'https://salcobrand.cl'}}"
"{'type': 'node', 'id': 889871415, 'lat': -36.4876575, 'lon': -72.7045169, 'tags': {'addr:city': 'Coelemu', 'addr:housenumber': '600', 'addr:street': 'Manuel Antonio Matta', 'amenity': 'pharmacy', 'healthcare': 'pharmacy', 'name': 'Somos Farmacia'}}"
"{'type': 'node', 'id': 921357618, 'lat': -36.6097162, 'lon': -72.1018044, 'tags': {'addr:city': 'Chillán', 'addr:housenumber': '749', 'addr:street': '5 de Abril', 'healthcare': 'alternative', 'healthcare:speciality': 'homeopathy', 'name': 'Farmacias Knop'}}"
"{'type': 'node', 'id': 921363040, 'lat': -36.6095255, 'lon': -72.1017245, 'tags': {'addr:city': 'Chillán', 'addr:housenumber': '731', 'addr:street': '5 de Abril', 'amenity': 'pharmacy', 'brand': 'Cruz Verde', 'brand:wikidata': 'Q5856071', 'healthcare': 'pharmacy', 'name': 'Cruz Verde'}}"
"{'type': 'node', 'id': 921363414, 'lat': -36.6093582, 'lon': -72.1016661, 'tags': {'addr:city': 'Chillán', 'addr:housenumber': '731', 'addr:street': '5 de Abril', 'amenity': 'pharmacy', 'brand': 'Farmacias Ahumada', 'brand:wikidata': 'Q5856069', 'healthcare': 'pharmacy', 'name': 'Farmacias Ahumada'}}"
"{'type': 'node', 'id': 978263642, 'lat': -36.8200862, 'lon': -73.0190676, 'tags': {'amenity': 'pharmacy', 'name': 'Farmacia Sana'}}"
"{'type': 'node', 'id': 1037720142, 'lat': -37.1005003, 'lon': -72.561513, 'tags': {'addr:city': 'Yumbel', 'addr:housenumber': '620', 'addr:street': ""Avenida Bernardo O'Higgins"", 'amenity': 'pharmacy', 'healthcare': 'pharmacy', 'name': 'Farmax'}}"
"{'type': 'node', 'id': 1046495427, 'lat': -37.4748025, 'lon': -72.3542111, 'tags': {'addr:country': 'CL', 'amenity': 'clinic', 'healthcare': 'hospital', 'name': 'Clínica Adventista'}}"
"{'type': 'node', 'id': 1071653042, 'lat': -37.4703584, 'lon': -72.3482933, 'tags': {'addr:city': 'Los Ángeles', 'addr:housenumber': '200', 'addr:street': 'Lautaro', 'amenity': 'pharmacy', 'dispensing': 'yes', 'healthcare': 'pharmacy', 'name': 'Farmacia Clinica'}}"
"{'type': 'node', 'id': 1071653086, 'lat': -37.4747099, 'lon': -72.351069, 'tags': {'amenity': 'dentist', 'healthcare': 'dentist'}}"
"{'type': 'node', 'id': 1071653106, 'lat': -37.4692808, 'lon': -72.3540108, 'tags': {'addr:city': 'Los Ángeles', 'addr:country': 'CL', 'addr:housenumber': '570', 'addr:street': 'Colo Colo', 'amenity': 'clinic', 'healthcare': 'clinic', 'name': 'Hospital Mutual de Seguridad de Los Ángeles ACHS'}}"
"{'type': 'node', 'id': 1107953047, 'lat': -37.4691236, 'lon': -72.3506832, 'tags': {'addr:city': 'Los Ángeles', 'addr:housenumber': '411', 'addr:street': 'Colón', 'amenity': 'pharmacy', 'brand': 'Cruz Verde', 'brand:wikidata': 'Q5856071', 'dispensing': 'yes', 'healthcare': 'pharmacy', 'name': 'Cruz Verde'}}"
"{'type': 'node', 'id': 1248850454, 'lat': -36.7198639, 'lon': -72.9755218, 'tags': {'addr:city': 'Penco', 'addr:country': 'CL', 'addr:street': 'Camino a tome', 'amenity': 'hospital', 'emergency': 'yes', 'name': 'Hospital Penco-Lirquén', 'nohousenumber': 'yes'}}"
"{'type': 'node', 'id': 1256999577, 'lat': -36.7912347, 'lon': -73.0660561, 'tags': {'addr:country': 'CL', 'addr:housename': 'Mallplaza Trébol', 'addr:housenumber': '3177', 'addr:street': 'Avenida Jorge Alessandri', 'amenity': 'doctors', 'healthcare': 'doctor', 'name': 'Integramedica'}}"
"{'type': 'node', 'id': 1259907285, 'lat': -37.0988232, 'lon': -72.5615323, 'tags': {'addr:city': 'Yumbel', 'addr:housenumber': '790', 'addr:street': ""Paseo O'Higgins"", 'amenity': 'pharmacy', 'healthcare': 'pharmacy', 'name': 'Farmacia Yumbel', 'source': 'GeoEye'}}"
"{'type': 'node', 'id': 1320096651, 'lat': -37.0344567, 'lon': -72.4023994, 'tags': {'addr:city': 'Cabrero', 'addr:housenumber': '250', 'addr:street': 'Río Claro', 'amenity': 'pharmacy', 'brand': 'Farmacias del Dr. Simi', 'brand:wikidata': 'Q62564610', 'healthcare': 'pharmacy', 'name': 'Farmacias del Dr. Simi'}}"
"{'type': 'node', 'id': 1320096662, 'lat': -37.0346578, 'lon': -72.4018522, 'tags': {'addr:city': 'Cabrero', 'addr:housenumber': '199', 'addr:street': 'Río Claro', 'amenity': 'pharmacy', 'brand': 'Cruz Verde', 'brand:wikidata': 'Q5856071', 'healthcare': 'pharmacy', 'name': 'Cruz Verde'}}"
"{'type': 'node', 'id': 1320096670, 'lat': -37.0346464, 'lon': -72.4019212, 'tags': {'addr:city': 'Cabrero', 'addr:housenumber': '199', 'addr:street': 'Río Claro', 'amenity': 'pharmacy', 'healthcare': 'pharmacy', 'name': 'Redfarma'}}"
"{'type': 'node', 'id': 1376428052, 'lat': -37.4692784, 'lon': -72.354274, 'tags': {'addr:city': 'Los Ángeles', 'addr:country': 'CL', 'addr:housenumber': '646', 'addr:street': 'Colo Colo', 'amenity': 'clinic', 'healthcare': 'clinic', 'name': 'Centro Médico Central'}}"
"{'type': 'node', 'id': 1383116297, 'lat': -37.2818812, 'lon': -72.7125948, 'tags': {'addr:country': 'CL', 'amenity': 'clinic', 'name': 'Centro Medico ACHS'}}"
"{'type': 'node', 'id': 1492870443, 'lat': -36.8262592, 'lon': -73.0500722, 'tags': {'addr:city': 'Concepción', 'addr:housenumber': '699', 'addr:street': 'Barros Arana', 'amenity': 'pharmacy', 'brand': 'Redfarma', 'brand:en': 'Falabella Bank', 'brand:es': 'Banco Falabella', 'brand:wikipedia': 'en:Banco Falabella', 'drive_through': 'no', 'healthcare': 'pharmacy', 'name': 'Redfarma', 'opening_hours': 'Mo-Fr 09:00-20:00; Sa 09:00-19:30; Su 10:00-18:30', 'phone': '+56 991 029 824', 'website': 'https://redfarma.cl'}}"
"{'type': 'node', 'id': 1492870463, 'lat': -36.8261936, 'lon': -73.0498749, 'tags': {'addr:city': 'Concepción', 'addr:housenumber': '510', 'addr:street': 'Aníbal Pinto', 'amenity': 'pharmacy', 'brand': 'Cruz Verde', 'brand:wikidata': 'Q5856071', 'brand:wikipedia': 'es:Farmacias Cruz Verde', 'drive_through': 'no', 'healthcare': 'pharmacy', 'name': 'Cruz Verde', 'opening_hours': 'Su-Fr 08:30-21:00; Sa 09:00-19:30', 'website': 'https://www.cruzverde.cl/'}}"
"{'type': 'node', 'id': 1492870478, 'lat': -36.8262836, 'lon': -73.0495417, 'tags': {'addr:city': 'Concepción', 'addr:housenumber': '724-734', 'addr:street': 'Barros Arana', 'amenity': 'pharmacy', 'drive_through': 'no', 'healthcare': 'pharmacy', 'name': 'Ahumada', 'opening_hours': 'Mo-Fr 08:30-21:00; Sa 09:00-19:00; Su 10:00-18:00', 'website': 'https://www.farmaciasahumada.cl'}}"
"{'type': 'node', 'id': 1509203464, 'lat': -36.8164119, 'lon': -73.0462933, 'tags': {'amenity': 'pharmacy', 'name': 'Ahumada'}}"
"{'type': 'node', 'id': 1537716449, 'lat': -36.738269, 'lon': -72.9905496, 'tags': {'addr:country': 'CL', 'alt_name': 'Centro de Salud Familiar', 'amenity': 'clinic', 'name': 'CESFAM Penco', 'official_name': 'Centro de Salud Familiar'}}"
"{'type': 'node', 'id': 1611101298, 'lat': -36.9150152, 'lon': -73.0286074, 'tags': {'addr:city': 'Chiguayante', 'addr:housenumber': '2701', 'addr:street': ""O'Higgins"", 'amenity': 'pharmacy', 'brand': 'Cruz Verde', 'brand:wikidata': 'Q5856071', 'dispensing': 'yes', 'healthcare': 'pharmacy', 'name': 'Cruz Verde'}}"
"{'type': 'node', 'id': 1620894995, 'lat': -36.547634, 'lon': -72.9349462, 'tags': {'addr:city': 'Dichato', 'addr:housenumber': '801', 'addr:street': 'Daniel Vera', 'amenity': 'pharmacy', 'healthcare': 'pharmacy', 'name': 'Farmacia Biosalud'}}"
"{'type': 'node', 'id': 1713512990, 'lat': -37.240236, 'lon': -71.9424419, 'tags': {'addr:city': 'Huépil', 'addr:country': 'CL', 'addr:housenumber': '233', 'addr:street': '12 de Febrero', 'amenity': 'hospital', 'healthcare': 'hospital', 'name': 'Hospital de Huépil Dr. Roberto Muñoz Urrutia'}}"
"{'type': 'node', 'id': 1996276732, 'lat': -36.8266459, 'lon': -73.047969, 'tags': {'addr:city': 'Concepción', 'addr:housenumber': '801', 'addr:street': ""O'Higgins"", 'amenity': 'pharmacy', 'brand': 'Cruz Verde', 'brand:wikidata': 'Q5856071', 'drive_through': 'no', 'healthcare': 'pharmacy', 'name': 'Cruz Verde', 'opening_hours': 'Su-Fr 08:30-21:00; Sa 09:00-20:00', 'shop': 'chemist', 'website': 'https://www.cruzverde.cl/'}}"
"{'type': 'node', 'id': 2051922182, 'lat': -37.4756067, 'lon': -72.3531294, 'tags': {'addr:country': 'CL', 'amenity': 'clinic', 'healthcare': 'clinic', 'name': 'Consultorio'}}"
"{'type': 'node', 'id': 2082338994, 'lat': -36.8268387, 'lon': -73.0514302, 'tags': {'addr:city': 'Concepción', 'addr:housenumber': '599', 'addr:street': 'Barros Arana', 'amenity': 'pharmacy', 'brand': 'Cruz Verde', 'brand:wikidata': 'Q5856071', 'healthcare': 'pharmacy', 'name': 'Cruz Verde', 'opening_hours': 'Su-Fr 08:30-22:00; Sa 09:00-21:00', 'website': 'https://www.cruzverde.cl/'}}"
"{'type': 'node', 'id': 2152594739, 'lat': -36.9762185, 'lon': -72.9376655, 'tags': {'addr:city': 'Hualqui', 'addr:housenumber': '430', 'addr:street': 'Manuel Bulnes', 'amenity': 'pharmacy', 'healthcare': 'pharmacy', 'name': 'Farmax'}}"
"{'type': 'node', 'id': 2277320855, 'lat': -37.0990967, 'lon': -72.5614799, 'tags': {'addr:city': 'Yumbel', 'addr:housenumber': '756', 'addr:street': ""Paseo O'Higgins"", 'amenity': 'pharmacy', 'healthcare': 'pharmacy', 'name': 'Farmacia San Sebastián'}}"
"{'type': 'node', 'id': 2277320857, 'lat': -37.0989663, 'lon': -72.5613002, 'tags': {'addr:city': 'Yumbel', 'addr:housenumber': '751', 'addr:street': ""Paseo O'Higgins"", 'amenity': 'pharmacy', 'healthcare': 'pharmacy', 'name': 'Farmacias del Doctor Simi', 'source': 'GPS', 'website': 'https://www.farmaciasdesimilares.cl/'}}"
"{'type': 'node', 'id': 2291750514, 'lat': -36.8144344, 'lon': -73.0440838, 'tags': {'addr:country': 'CL', 'amenity': 'clinic', 'name': 'Centro Medico Universidad San Sebastián'}}"
"{'type': 'node', 'id': 2296069651, 'lat': -36.8328868, 'lon': -73.0057218, 'tags': {'amenity': 'pharmacy', 'emergency': 'no', 'name': 'Farmacia'}}"
"{'type': 'node', 'id': 2398092720, 'lat': -36.8282072, 'lon': -73.0548326, 'tags': {'addr:country': 'CL', 'amenity': 'clinic', 'name': 'Clínica Kenal'}}"
"{'type': 'node', 'id': 2821423995, 'lat': -36.8098655, 'lon': -73.0540334, 'tags': {'addr:city': 'Concepción', 'addr:country': 'CL', 'addr:housenumber': '1060', 'addr:street': 'Juan de Dios Rivera', 'alt_name': 'Centro de Salud Familiar Tucapel', 'amenity': 'clinic', 'emergency': 'yes', 'healthcare': 'clinic', 'name': 'CESFAM Tucapel', 'official_name': 'Centro de Salud Familiar Tucapel', 'phone': '(41) 2449401 – 2449403', 'wheelchair': 'yes'}}"
"{'type': 'node', 'id': 2957618068, 'lat': -36.828689, 'lon': -73.039644, 'tags': {'healthcare': 'blood_donation', 'name': 'Casa del Donante'}}"
"{'type': 'node', 'id': 2973579009, 'lat': -37.4689527, 'lon': -72.3385711, 'tags': {'addr:city': 'Los Ángeles', 'addr:housenumber': '600', 'addr:street': 'Avenida Alemania', 'amenity': 'pharmacy', 'brand': 'SalcoBrand', 'brand:wikidata': 'Q2877054', 'healthcare': 'pharmacy', 'name': 'SalcoBrand', 'not:brand:wikidata': 'Q2877054'}}"
"{'type': 'node', 'id': 3238970168, 'lat': -36.824761, 'lon': -73.0399421, 'tags': {'addr:street': 'San Martín', 'amenity': 'pharmacy', 'brand': 'Cruz Verde', 'brand:wikidata': 'Q5856071', 'healthcare': 'pharmacy', 'name': 'Cruz Verde'}}"
"{'type': 'node', 'id': 3238974150, 'lat': -36.8258305, 'lon': -73.0391876, 'tags': {'addr:city': 'Concepción', 'addr:housenumber': '197', 'addr:street': 'Janequeo', 'amenity': 'pharmacy', 'brand': 'Redfarma', 'drive_through': 'no', 'healthcare': 'pharmacy', 'name': 'Redfarma', 'opening_hours': 'Mo-Fr 08:30-20:00; Sa 08:30-19:00; Su 10:00-16:00', 'phone': '+56 41 2855068', 'website': 'https://redfarma.cl'}}"
"{'type': 'node', 'id': 3293412123, 'lat': -36.8290487, 'lon': -73.0641213, 'tags': {'addr:city': 'Concepción', 'addr:country': 'CL', 'addr:housenumber': '301', 'addr:street': 'Los Carrera Poniente', 'amenity': 'clinic', 'healthcare': 'clinic', 'name': 'Integramédica', 'opening_hours': 'Mo-Fr 08:00-20:30, Sa 08:30-14:00', 'website': 'https://www.integramedica.cl/wps/wcm/connect/internet/Home/centros-medicos/integramedica-bio-bio/mirador-bio-bio/Ubicacion/'}}"
"{'type': 'node', 'id': 3305993182, 'lat': -37.625898, 'lon': -72.5923594, 'tags': {'addr:city': 'Negrete', 'addr:country': 'CL', 'amenity': 'doctors', 'healthcare': 'doctor', 'name': 'Posta de Salud Rural Rihue'}}"
"{'type': 'node', 'id': 3436308346, 'lat': -36.899321, 'lon': -73.0328855, 'tags': {'addr:city': 'Chiguayante', 'addr:housenumber': '720', 'addr:street': '8 Oriente', 'amenity': 'pharmacy', 'brand': 'SalcoBrand', 'brand:wikidata': 'Q2877054', 'healthcare': 'pharmacy', 'name': 'SalcoBrand', 'source': 'Bing'}}"
"{'type': 'node', 'id': 3718823509, 'lat': -36.8271184, 'lon': -73.0403881, 'tags': {'addr:city': 'Concepción', 'addr:housenumber': '111-115', 'addr:place': 'Plaza Perú', 'amenity': 'pharmacy', 'brand': 'SalcoBrand', 'brand:wikidata': 'Q2877054', 'drive_through': 'no', 'healthcare': 'pharmacy', 'name': 'SalcoBrand', 'opening_hours': 'Mo-Fr 08:30-20:00; Sa 09:00-17:00', 'website': 'https://salcobrand.cl'}}"
"{'type': 'node', 'id': 3858007561, 'lat': -37.4695755, 'lon': -72.3510044, 'tags': {'addr:city': 'Los Ángeles', 'addr:housenumber': '348', 'addr:street': 'Colón', 'healthcare': 'alternative', 'healthcare:speciality': 'homeopathy', 'name': 'Knop'}}"
"{'type': 'node', 'id': 3859946132, 'lat': -37.4683432, 'lon': -72.3508864, 'tags': {'addr:city': 'Los Ángeles', 'addr:housenumber': '468', 'addr:street': 'Colón', 'amenity': 'pharmacy', 'brand': 'Farmacias Ahumada', 'brand:wikidata': 'Q5856069', 'healthcare': 'pharmacy', 'name': 'Farmacias Ahumada'}}"
"{'type': 'node', 'id': 3872178453, 'lat': -37.4696257, 'lon': -72.3535953, 'tags': {'addr:city': 'Los Ángeles', 'addr:housenumber': '357', 'addr:street': 'Mendoza', 'healthcare': 'laboratory', 'name': 'Laboratorio Clínico Central'}}"
"{'type': 'node', 'id': 3889827500, 'lat': -37.4676461, 'lon': -72.3506318, 'tags': {'addr:city': 'Los Ángeles', 'addr:housenumber': '411', 'addr:street': 'Colón', 'amenity': 'pharmacy', 'brand': 'Cruz Verde', 'brand:wikidata': 'Q5856071', 'healthcare': 'pharmacy', 'name': 'Cruz Verde'}}"
"{'type': 'node', 'id': 4069379152, 'lat': -37.4734411, 'lon': -72.3492129, 'tags': {'addr:city': 'Los Ángeles', 'addr:housenumber': '284', 'addr:street': 'Avenida Ricardo Vicuña', 'amenity': 'pharmacy', 'brand': 'Farmacias Ahumada', 'brand:wikidata': 'Q5856069', 'healthcare': 'pharmacy', 'name': 'Farmacias Ahumada'}}"
"{'type': 'node', 'id': 4073606434, 'lat': -37.4734381, 'lon': -72.3513814, 'tags': {'amenity': 'dentist', 'healthcare': 'dentist', 'name': 'Clínica Dental Sonría'}}"
"{'type': 'node', 'id': 4199037063, 'lat': -36.8341047, 'lon': -73.0531553, 'tags': {'amenity': 'pharmacy', 'name': 'Help'}}"
"{'type': 'node', 'id': 4315172890, 'lat': -36.4866717, 'lon': -72.7033457, 'tags': {'addr:city': 'Coelemu', 'addr:housenumber': '271', 'addr:street': 'Julio Lamas', 'amenity': 'pharmacy', 'healthcare': 'pharmacy', 'name': 'Mas'}}"
"{'type': 'node', 'id': 4315206790, 'lat': -36.4905456, 'lon': -72.7028996, 'tags': {'addr:city': 'Coelemu', 'addr:housenumber': '419', 'addr:street': 'Exequiel Larenas', 'amenity': 'pharmacy', 'healthcare': 'pharmacy', 'name': 'Vida Sur'}}"
"{'type': 'node', 'id': 4317695389, 'lat': -36.8239738, 'lon': -73.0378313, 'tags': {'addr:city': 'Concepcion', 'addr:country': 'CL', 'addr:housenumber': '1582', 'addr:street': 'San Martín', 'amenity': 'hospital', 'name': 'Hospital Traumatológico de Concepción', 'opening_hours': 'Mo-Th 07:30-17:00; Fr 07:30-16:00', 'phone': '413270000', 'website': 'www.ssconcepcion.cl', 'wikidata': 'Q93743616'}}"
"{'type': 'node', 'id': 4326449889, 'lat': -37.4745279, 'lon': -72.3475898, 'tags': {'addr:country': 'CL', 'addr:housenumber': '200', 'addr:street': 'Los Carrera', 'amenity': 'clinic', 'healthcare': 'clinic', 'name': 'Clínica Alta Salud'}}"
"{'type': 'node', 'id': 4341977391, 'lat': -36.8448923, 'lon': -73.0510086, 'tags': {'addr:country': 'CL', 'amenity': 'clinic', 'name': 'Clínica de la mujer - Sanatorio Alemán', 'wikidata': 'Q93743625'}}"
"{'type': 'node', 'id': 4347568763, 'lat': -37.2625299, 'lon': -72.7266892, 'tags': {'addr:country': 'CL', 'addr:housenumber': '95', 'addr:postcode': '4570000', 'addr:street': 'Baquedano', 'alt_name': 'Centro de Salud Familiar', 'amenity': 'clinic', 'healthcare': 'clinic', 'name': 'CESFAM Doctor Carlos Echeverría Véjar', 'official_name': 'CESFAM Doctor Carlos Echeverría Véjar', 'opening_hours': 'Fr 08:00-16:00', 'phone': '432332095'}}"
"{'type': 'node', 'id': 4366707193, 'lat': -37.6686985, 'lon': -72.0218167, 'tags': {'addr:country': 'CL', 'addr:housenumber': '210', 'addr:postcode': '4510000', 'addr:street': 'Rosas', 'alt_name': 'Centro Comunitario de Salud Familiar Santa Bárbara', 'amenity': 'doctors', 'healthcare': 'doctor', 'name': 'CECOSF Santa Bárbara', 'name:en': 'Community Family Health Center', 'official_name': 'CECOSF Santa Barbara', 'opening_hours': 'Mo-Fr 08:00-17:00'}}"
"{'type': 'node', 'id': 4474223690, 'lat': -36.6078525, 'lon': -72.0930686, 'tags': {'addr:city': 'Chillán', 'addr:country': 'CL', 'addr:housenumber': '440', 'addr:state': 'Región de Ñuble', 'addr:street': 'Avenida Argentina', 'amenity': 'pharmacy', 'healthcare': 'pharmacy', 'name': 'Farmacia Santos', 'name:es': 'Farmacia Santos'}}"
"{'type': 'node', 'id': 4474224189, 'lat': -36.6081506, 'lon': -72.093739, 'tags': {'addr:city': 'Chillán', 'addr:country': 'CL', 'addr:housenumber': '1137', 'addr:state': 'Región de Ñuble', 'addr:street': 'Libertad', 'amenity': 'clinic', 'healthcare': 'clinic', 'name': 'Inmunomedica', 'name:es': 'Inmunomedica'}}"
"{'type': 'node', 'id': 4494113896, 'lat': -36.7032006, 'lon': -71.893141, 'tags': {'addr:city': 'Pinto', 'addr:housenumber': '247', 'addr:street': 'Ernesto Riquelme', 'amenity': 'pharmacy', 'healthcare': 'pharmacy', 'name': 'Farmacia Becerra', 'name:es': 'Farmacia'}}"
"{'type': 'node', 'id': 4494177194, 'lat': -36.703155, 'lon': -71.893194, 'tags': {'addr:city': 'Pinto', 'addr:country': 'CL', 'addr:street': 'Ernesto Riquelme', 'amenity': 'doctors', 'healthcare': 'doctor', 'name': 'Doctor Rubilar', 'name:es': 'Doctor Rubilar'}}"
"{'type': 'node', 'id': 4615590150, 'lat': -36.7363164, 'lon': -72.9941918, 'tags': {'addr:country': 'CL', 'addr:street': 'Maipú', 'amenity': 'clinic', 'name': 'UAPO'}}"
"{'type': 'node', 'id': 4619375653, 'lat': -36.7368925, 'lon': -72.9930189, 'tags': {'addr:street': 'Freire', 'amenity': 'pharmacy', 'name': 'Doctor Simi'}}"
"{'type': 'node', 'id': 4619761604, 'lat': -36.7368542, 'lon': -72.9892228, 'tags': {'addr:country': 'CL', 'addr:street': 'Las Heras', 'amenity': 'clinic', 'name': 'Centro de diálisis Nephrocare'}}"
"{'type': 'node', 'id': 4665002241, 'lat': -36.8292656, 'lon': -73.0577016, 'tags': {'addr:street': 'Serrano', 'amenity': 'pharmacy', 'name': 'Laboratorio Pasteur'}}"
"{'type': 'node', 'id': 4665150220, 'lat': -36.8300595, 'lon': -73.0568913, 'tags': {'addr:street': 'Serrano', 'healthcare': 'podiatrist', 'name': 'Centro Integral: Salud y Podología'}}"
"{'type': 'node', 'id': 4665158817, 'lat': -36.8295983, 'lon': -73.0575081, 'tags': {'addr:country': 'CL', 'addr:street': 'Serrano', 'amenity': 'clinic', 'name': 'Dental Art'}}"
"{'type': 'node', 'id': 4668390054, 'lat': -36.8312973, 'lon': -73.0559863, 'tags': {'addr:country': 'CL', 'addr:street': 'San Martín', 'amenity': 'clinic', 'name': 'Clínica Dental'}}"
"{'type': 'node', 'id': 4669347489, 'lat': -36.8316325, 'lon': -73.0531684, 'tags': {'addr:country': 'CL', 'addr:street': 'Cochrane', 'amenity': 'clinic', 'name': 'Clínica estética Concepción'}}"
"{'type': 'node', 'id': 4669950128, 'lat': -36.8291976, 'lon': -73.0559252, 'tags': {'addr:country': 'CL', 'addr:street': 'Obispo Hipólito Salas', 'amenity': 'clinic', 'name': 'Clínica podológica: Footclinic'}}"
"{'type': 'node', 'id': 4670047606, 'lat': -36.828473, 'lon': -73.0553714, 'tags': {'addr:city': 'Concepción', 'addr:housenumber': '265', 'addr:street': 'Barros Arana', 'amenity': 'pharmacy', 'contact:facebook': 'https://www.facebook.com/FarmaciaMapucheMakelawen/', 'dispensing': 'yes', 'drive_through': 'no', 'healthcare': 'pharmacy', 'name': 'Farmacia Mapuche Makelawen', 'opening_hours': 'Mo-Fr 09:00-18:30; Sa 10:30-14:00', 'phone': '+56 224 063 700', 'website': 'https://farmaciamapuche.cl/'}}"
"{'type': 'node', 'id': 4670218368, 'lat': -36.8297619, 'lon': -73.0518057, 'tags': {'addr:country': 'CL', 'addr:street': 'San Martín', 'amenity': 'clinic', 'name': 'Clínica Dental San Martín'}}"
"{'type': 'node', 'id': 4670342432, 'lat': -36.8334108, 'lon': -73.0503913, 'tags': {'addr:country': 'CL', 'addr:street': 'Víctor Lamas', 'amenity': 'clinic', 'name': 'Clínica dental: Radio Dent'}}"
"{'type': 'node', 'id': 4670354985, 'lat': -36.832063, 'lon': -73.0512201, 'tags': {'addr:country': 'CL', 'addr:street': 'Avenida Chacabuco', 'amenity': 'clinic', 'name': 'Clínica Odontológica Advance'}}"
"{'type': 'node', 'id': 4670392928, 'lat': -36.8307362, 'lon': -73.050721, 'tags': {'addr:country': 'CL', 'addr:street': 'Cochrane', 'amenity': 'clinic', 'name': 'Clínica odontológica Andes'}}"
"{'type': 'node', 'id': 4670525064, 'lat': -36.978119, 'lon': -72.0906464, 'tags': {'addr:country': 'CL', 'alt_name': 'Centro de Salud Familiar', 'amenity': 'clinic', 'name': 'CESFAM Pemuco', 'official_name': 'Centro de Salud Familiar'}}"
"{'type': 'node', 'id': 4671934514, 'lat': -36.7131845, 'lon': -72.9767659, 'tags': {'addr:city': 'Lirquén', 'addr:housenumber': '4', 'addr:street': 'Camilo Henríquez', 'amenity': 'pharmacy', 'healthcare': 'pharmacy', 'name': 'Farmacia renacer'}}"
"{'type': 'node', 'id': 4671945432, 'lat': -36.713139, 'lon': -72.9755573, 'tags': {'addr:city': 'Lirquén', 'addr:street': 'Camilo Henríquez', 'amenity': 'dentist', 'healthcare': 'dentist', 'name': 'Consulta dental'}}"
"{'type': 'node', 'id': 4673136547, 'lat': -36.8334655, 'lon': -73.0049979, 'tags': {'addr:country': 'CL', 'amenity': 'clinic', 'name': 'Clínica odontologica integral'}}"
"{'type': 'node', 'id': 4688930397, 'lat': -37.4702327, 'lon': -72.353656, 'tags': {'addr:city': 'Los Ángeles', 'addr:housenumber': '594', 'addr:street': 'Lautaro', 'amenity': 'pharmacy', 'healthcare': 'pharmacy', 'name': 'Farmacia Step', 'name:es': 'Farmacia Step'}}"
"{'type': 'node', 'id': 4820570474, 'lat': -36.6027693, 'lon': -72.0997292, 'tags': {'addr:country': 'CL', 'addr:housenumber': '685', 'addr:state': 'Región de Ñuble', 'addr:street': 'Gamero', 'amenity': 'clinic', 'internet_access': 'wlan', 'name': 'Centro Médico Manantial', 'name:es': 'Centro Médico Manantial', 'opening_hours': 'Mo-Fr 08:30-20:30', 'phone': '422432326'}}"
"{'type': 'node', 'id': 5178241665, 'lat': -37.0110332, 'lon': -73.0004796, 'tags': {'addr:country': 'CL', 'amenity': 'doctors', 'healthcare': 'hospital', 'name': 'Posta Rural Patagual', 'operator': 'Departamento de Salud Municipal'}}"
"{'type': 'node', 'id': 5213416586, 'lat': -36.6713468, 'lon': -72.2797326, 'tags': {'addr:country': 'CL', 'amenity': 'doctors', 'healthcare': 'hospital', 'name': 'Posta de Salud Rural Rucapequén'}}"
"{'type': 'node', 'id': 5228037721, 'lat': -37.4571221, 'lon': -72.3430321, 'tags': {'addr:city': 'Biobio', 'addr:country': 'CL', 'addr:housenumber': '1558', 'addr:street': 'Morse', 'alt_name': 'Centro de Salud Familiar', 'amenity': 'clinic', 'name': 'CESFAM NORORIENTE Los Ángeles', 'official_name': 'Centro de Salud Familiar'}}"
"{'type': 'node', 'id': 5425777778, 'lat': -36.8246816, 'lon': -73.0526689, 'tags': {'addr:city': 'Concepción', 'addr:housenumber': '713', 'addr:street': 'Caupolicán', 'amenity': 'pharmacy', 'brand': 'Redfarma', 'drive_through': 'no', 'healthcare': 'pharmacy', 'name': 'Redfarma', 'opening_hours': 'Mo-Fr 09:00-19:30; Sa 10:30-18:00', 'phone': '+56 41 2855070', 'website': 'https://redfarma.cl'}}"
"{'type': 'node', 'id': 5428054755, 'lat': -36.8290872, 'lon': -73.0511856, 'tags': {'addr:country': 'CL', 'addr:street': 'Rengo', 'amenity': 'clinic', 'name': 'CruzBlanca', 'opening_hours': 'Mo-Fr 09:00-14:00'}}"
"{'type': 'node', 'id': 5430258302, 'lat': -36.7380571, 'lon': -72.9932392, 'tags': {'addr:street': 'Las Heras', 'amenity': 'pharmacy', 'name': 'Farmacia Municipal'}}"
"{'type': 'node', 'id': 5430258374, 'lat': -36.7375703, 'lon': -72.9953145, 'tags': {'addr:street': 'Freire', 'amenity': 'pharmacy', 'name': 'Cruze Verde'}}"
"{'type': 'node', 'id': 5441757715, 'lat': -36.8270172, 'lon': -73.0519006, 'tags': {'addr:city': 'Concepción', 'addr:housenumber': '541', 'addr:street': 'Barros Arana', 'amenity': 'dentist', 'healthcare': 'dentist', 'name': 'Clínica Dental Pacífico'}}"
"{'type': 'node', 'id': 5441757727, 'lat': -36.827485, 'lon': -73.0530363, 'tags': {'addr:city': 'Concepción', 'addr:housenumber': '451', 'addr:street': 'Barros Arana', 'amenity': 'pharmacy', 'brand': 'Redfarma', 'drive_through': 'no', 'healthcare': 'pharmacy', 'name': 'Redfarma', 'opening_hours': 'Mo-Fr 09:00-20:00; Sa 09:30-19:00', 'phone': '+56 41 3833111', 'website': 'https://redfarma.cl'}}"
"{'type': 'node', 'id': 5441757728, 'lat': -36.8275006, 'lon': -73.0530746, 'tags': {'addr:street': 'Barros Arana', 'amenity': 'pharmacy', 'name': 'Farmacias KNOP'}}"
"{'type': 'node', 'id': 5441757756, 'lat': -36.8271972, 'lon': -73.0523325, 'tags': {'addr:city': 'Concepción', 'addr:housenumber': '501', 'addr:street': 'Barros Arana', 'amenity': 'pharmacy', 'drive_through': 'no', 'healthcare': 'pharmacy', 'name': 'Ahumada', 'opening_hours': 'Mo-Fr 08:30-20:30; Sa 09:00-19:00; Su 10:00-15:00', 'website': 'https://www.farmaciasahumada.cl'}}"
"{'type': 'node', 'id': 5444265794, 'lat': -36.8262897, 'lon': -73.0531772, 'tags': {'addr:city': 'Concepción', 'addr:housenumber': '601', 'addr:street': 'Rengo', 'amenity': 'pharmacy', 'brand': 'Cruz Verde', 'brand:wikidata': 'Q5856071', 'drive_through': 'no', 'healthcare': 'pharmacy', 'name': 'Cruz Verde', 'opening_hours': 'Su-Fr 08:30-20:00; Sa 09:00-17:00;', 'website': 'https://www.cruzverde.cl/'}}"
"{'type': 'node', 'id': 5452442823, 'lat': -36.8329546, 'lon': -73.0056658, 'tags': {'amenity': 'pharmacy', 'name': 'Farmacia'}}"
"{'type': 'node', 'id': 5459309638, 'lat': -37.4664148, 'lon': -72.3494215, 'tags': {'addr:city': 'Los Ángeles', 'addr:housenumber': '599', 'addr:street': 'Almagro', 'amenity': 'pharmacy', 'brand': 'Farmacias del Dr. Simi', 'brand:wikidata': 'Q62564610', 'healthcare': 'pharmacy', 'name': 'Farmacias del Dr. Simi'}}"
"{'type': 'node', 'id': 5460461226, 'lat': -36.8269799, 'lon': -73.0478208, 'tags': {'addr:city': 'Concepción', 'addr:housenumber': '378', 'addr:street': 'Colo Colo', 'amenity': 'pharmacy', 'brand': 'Farmacias del Dr. Simi', 'brand:wikidata': 'Q62564610', 'drive_through': 'no', 'healthcare': 'pharmacy', 'name': 'Farmacias del Dr. Simi', 'opening_hours': 'Mo-Fr 09:00-18:00; Sa 10:30-14:30', 'website': 'https://www.drsimi.cl'}}"
"{'type': 'node', 'id': 5460461244, 'lat': -36.8238625, 'lon': -73.0484203, 'tags': {'addr:street': 'Castellón', 'amenity': 'pharmacy', 'building': 'yes', 'name': 'El Trébol'}}"
"{'type': 'node', 'id': 5648436143, 'lat': -36.8242126, 'lon': -73.0497678, 'tags': {'addr:street': 'Colo Colo', 'amenity': 'pharmacy', 'dispensing': 'yes', 'healthcare': 'pharmacy', 'name': 'Farmacia Veterinaria Vidas'}}"
"{'type': 'node', 'id': 5947665685, 'lat': -37.4028656, 'lon': -72.0127172, 'tags': {'addr:country': 'CL', 'amenity': 'doctors', 'healthcare': 'hospital', 'name': 'Posta de Canteras'}}"
"{'type': 'node', 'id': 6295547054, 'lat': -36.6079927, 'lon': -72.1028253, 'tags': {'addr:city': 'Chillán', 'addr:housenumber': '637', 'addr:street': 'Arauco', 'amenity': 'pharmacy', 'healthcare': 'pharmacy', 'name': 'Barrio Salud'}}"
"{'type': 'node', 'id': 6339825085, 'lat': -37.5944606, 'lon': -72.2756144, 'tags': {'addr:city': 'Los Angeles', 'addr:country': 'CL', 'amenity': 'doctors', 'healthcare': 'doctor', 'name': 'Posta de Salud Rural San Carlos'}}"
"{'type': 'node', 'id': 6339924885, 'lat': -37.6774635, 'lon': -72.1171334, 'tags': {'addr:country': 'CL', 'addr:street': 'Mulchén (Puente Granaderos) - Quilaco - Loncopangue - Porvenir', 'amenity': 'doctors', 'healthcare': 'doctor', 'name': 'Posta de Salud Rural Campamento', 'name:en': 'Rural Health Post Campamento', 'name:es': 'Posta de salud Rural Campamento', 'opening_hours': 'Mo-Th 08:30-17:30; Fr 08:30-16:30'}}"
"{'type': 'node', 'id': 6839015286, 'lat': -36.6085367, 'lon': -72.1030246, 'tags': {'addr:city': 'Chillán', 'addr:country': 'CL', 'addr:housenumber': '683', 'addr:state': 'Región de Ñuble', 'addr:street': 'Arauco', 'amenity': 'pharmacy', 'brand': 'Farmacias del Dr. Simi', 'brand:wikidata': 'Q62564610', 'healthcare': 'pharmacy', 'name': 'Farmacias del Dr. Simi'}}"
"{'type': 'node', 'id': 6992732213, 'lat': -36.8261851, 'lon': -73.0454187, 'tags': {'addr:country': 'CL', 'amenity': 'clinic', 'healthcare': 'clinic', 'name': 'Indimed', 'website': 'https://www.indimed.cl/index.php', 'wheelchair': 'yes'}}"
"{'type': 'node', 'id': 6993774001, 'lat': -36.8268733, 'lon': -73.0455108, 'tags': {'amenity': 'dentist', 'healthcare': 'dentist', 'healthcare:speciality': 'dentist', 'name': 'Inmunodent', 'opening_hours': 'Mo-Fr 09:00-20:00', 'phone': '41 210 8360'}}"
"{'type': 'node', 'id': 6993774010, 'lat': -36.8266943, 'lon': -73.0455833, 'tags': {'addr:country': 'CL', 'amenity': 'doctors', 'healthcare': 'doctor', 'healthcare:speciality': 'radiology', 'name': 'Cintimagen'}}"
"{'type': 'node', 'id': 7037352790, 'lat': -37.4057344, 'lon': -72.7960908, 'tags': {'addr:country': 'CL', 'amenity': 'doctors', 'healthcare': 'doctor', 'name': 'Posta de Salud Rural Culenco'}}"
"{'type': 'node', 'id': 7049637554, 'lat': -36.8261622, 'lon': -73.049311, 'tags': {'addr:city': 'Concepción', 'addr:housenumber': '746', 'addr:street': 'Barros Arana', 'amenity': 'pharmacy', 'dispensing': 'yes', 'drive_through': 'no', 'healthcare': 'pharmacy', 'name': 'Redfarma', 'opening_hours': 'Mo-Fr 09:30-20:30; Sa 09:30-18:00', 'website': 'https://www.redfarma.cl'}}"
"{'type': 'node', 'id': 7159008405, 'lat': -37.5017662, 'lon': -72.6700165, 'tags': {'addr:country': 'CL', 'amenity': 'doctors', 'healthcare': 'doctor', 'healthcare:speciality': 'physiotherapy', 'name': 'Kinesiología'}}"
"{'type': 'node', 'id': 7159388786, 'lat': -37.499271, 'lon': -72.6739492, 'tags': {'addr:city': 'Nacimiento', 'addr:housenumber': '675', 'addr:street': 'Villa Alegre', 'amenity': 'pharmacy', 'contact:facebook': 'https://www.facebook.com/profile.php?id=100014272082274&sk=about', 'dispensing': 'yes', 'healthcare': 'pharmacy', 'name': 'Farmacias Mi Botica'}}"
"{'type': 'node', 'id': 7159388792, 'lat': -37.5013793, 'lon': -72.6737138, 'tags': {'contact:website': 'http://www.laboratoriocentral.cl/index.php', 'healthcare': 'laboratory', 'name': 'Laboratorio Clínico Central'}}"
"{'type': 'node', 'id': 7164862970, 'lat': -36.3998861, 'lon': -72.8492059, 'tags': {'addr:country': 'CL', 'amenity': 'doctors', 'healthcare': 'doctor', 'healthcare:speciality': 'emergency', 'name': 'Posta de Salud Rural Vegas de Itata'}}"
"{'type': 'node', 'id': 7181885637, 'lat': -37.5024551, 'lon': -72.6694036, 'tags': {'addr:city': 'Nacimiento', 'addr:country': 'CL', 'addr:housenumber': '490', 'addr:postcode': '4550000', 'addr:street': 'Jorge Montt', 'amenity': 'dentist', 'healthcare': 'dentist', 'name': 'Centro Odontológico Alianza', 'note': 'Correcciones masivas a ortografía en nombres de importaciones hechas por equipo de gendarmería'}}"
"{'type': 'node', 'id': 7182062641, 'lat': -37.5001362, 'lon': -72.6755475, 'tags': {'addr:city': 'Nacimiento', 'addr:housenumber': '368', 'addr:postcode': '4550000', 'addr:street': 'Avenida La Cruz', 'amenity': 'dentist', 'contact:facebook': 'https://www.facebook.com/cdnacimiento/', 'contact:phone': '43 2 295637', 'healthcare': 'dentist', 'name': 'Clínica Dental Nacimiento', 'opening_hours': 'Mo-Fr 09:00-21:00; Sa 09:00-15:00'}}"
"{'type': 'node', 'id': 7185715512, 'lat': -37.4707337, 'lon': -72.3552275, 'tags': {'healthcare': 'yes', 'name': 'Alma Libre'}}"
"{'type': 'node', 'id': 7193612151, 'lat': -37.501005, 'lon': -72.6728368, 'tags': {'addr:city': 'Nacimiento', 'addr:housenumber': '549', 'addr:street': 'San Martín', 'amenity': 'pharmacy', 'brand': 'Farmacias del Dr. Simi', 'brand:wikidata': 'Q62564610', 'dispensing': 'yes', 'healthcare': 'pharmacy', 'name': 'Farmacias del Dr. Simi'}}"
"{'type': 'node', 'id': 7205058085, 'lat': -37.4719255, 'lon': -72.3494931, 'tags': {'addr:country': 'CL', 'addr:housenumber': '169', 'addr:street': 'Almagro', 'amenity': 'clinic', 'healthcare': 'clinic', 'name': 'Bío-Bío Salud'}}"
"{'type': 'node', 'id': 7309478272, 'lat': -37.4678225, 'lon': -71.9821912, 'tags': {'addr:city': 'Quilleco', 'addr:country': 'CL', 'addr:street': 'Bascur', 'alt_name': 'Centro de Salud Familiar', 'amenity': 'clinic', 'name': 'CESFAM Quilleco', 'official_name': 'Centro de Salud Familiar'}}"
"{'type': 'node', 'id': 7310261147, 'lat': -36.7856284, 'lon': -73.079613, 'tags': {'addr:country': 'CL', 'addr:housenumber': '7431', 'addr:street': 'Avenida Santa María', 'alt_name': 'Centro Comunitario de Salud Familiar', 'amenity': 'doctors', 'healthcare': 'doctor', 'name': 'CECOSF Parque Central', 'official_name': 'CECOSF Parque Central'}}"
"{'type': 'node', 'id': 7310261162, 'lat': -36.792313, 'lon': -73.0442528, 'tags': {'addr:country': 'CL', 'addr:housenumber': '1948', 'addr:street': 'Pedro Mariño de Lobera', 'alt_name': 'Centro de Salud Familiar', 'amenity': 'clinic', 'emergency': 'yes', 'healthcare': 'clinic', 'name': 'CESFAM Santa Sabina', 'official_name': 'CESFAM Santa Sabina'}}"
"{'type': 'node', 'id': 7310261163, 'lat': -36.8307593, 'lon': -73.0540212, 'tags': {'addr:country': 'CL', 'addr:housenumber': '262', 'addr:street': 'San Martín', 'amenity': 'doctors', 'healthcare': 'doctor', 'name': 'CRS Municipal', 'official_name': 'Centro de Referencia de Salud Municipal'}}"
"{'type': 'node', 'id': 7310261164, 'lat': -36.7778151, 'lon': -73.0217694, 'tags': {'addr:country': 'CL', 'alt_name': 'Centro Comunitario de Salud Familiar', 'amenity': 'doctors', 'healthcare': 'doctor', 'name': 'CECOSF Cosmito', 'official_name': 'CECOSF Cosmito'}}"
"{'type': 'node', 'id': 7310648710, 'lat': -36.9542831, 'lon': -72.5282416, 'tags': {'addr:country': 'CL', 'amenity': 'doctors', 'healthcare': 'doctor', 'name': 'Posta de Salud Rural Canchillas'}}"
"{'type': 'node', 'id': 7310648714, 'lat': -37.4322163, 'lon': -71.8160622, 'tags': {'addr:country': 'CL', 'amenity': 'doctors', 'healthcare': 'doctor', 'name': 'Posta de Salud Rural Tinajón'}}"
"{'type': 'node', 'id': 7310648715, 'lat': -37.4862429, 'lon': -71.8180489, 'tags': {'addr:country': 'CL', 'amenity': 'doctors', 'healthcare': 'doctor', 'name': 'Posta de Salud Rural Cañicura'}}"
"{'type': 'node', 'id': 7310648716, 'lat': -37.516605, 'lon': -71.8460176, 'tags': {'addr:country': 'CL', 'amenity': 'doctors', 'healthcare': 'doctor', 'name': 'Posta de Salud Rural El Castillo'}}"
"{'type': 'node', 'id': 7310648717, 'lat': -37.555048, 'lon': -71.9115716, 'tags': {'addr:country': 'CL', 'amenity': 'doctors', 'healthcare': 'doctor', 'name': 'Posta de Salud Rural Villucura'}}"
"{'type': 'node', 'id': 7310648757, 'lat': -37.6408573, 'lon': -71.7730814, 'tags': {'addr:country': 'CL', 'amenity': 'doctors', 'healthcare': 'doctor', 'name': 'Posta de Salud Rural El Huachi'}}"
"{'type': 'node', 'id': 7310648758, 'lat': -37.6618715, 'lon': -71.8640675, 'tags': {'addr:country': 'CL', 'amenity': 'doctors', 'healthcare': 'doctor', 'name': 'Posta de Salud Rural Los Junquillos'}}"
"{'type': 'node', 'id': 7317133579, 'lat': -37.0097625, 'lon': -72.9988769, 'tags': {'addr:country': 'CL', 'amenity': 'doctors', 'healthcare': 'doctor', 'name': 'Posta de Salud Rural Patagual'}}"
"{'type': 'node', 'id': 7317192424, 'lat': -37.2448584, 'lon': -72.8140783, 'tags': {'addr:country': 'CL', 'amenity': 'doctors', 'healthcare': 'doctor', 'name': 'Posta de Salud Rural Tanahuillín'}}"
"{'type': 'node', 'id': 7317192425, 'lat': -37.2811363, 'lon': -72.9563654, 'tags': {'addr:country': 'CL', 'amenity': 'doctors', 'healthcare': 'doctor', 'name': 'Posta de Salud Rural Purgatorio'}}"
"{'type': 'node', 'id': 7317192426, 'lat': -37.2761582, 'lon': -72.87325, 'tags': {'addr:country': 'CL', 'amenity': 'doctors', 'healthcare': 'doctor', 'name': 'Posta de Salud Rural Colico Alto'}}"
"{'type': 'node', 'id': 7317192427, 'lat': -37.284242, 'lon': -72.8087136, 'tags': {'addr:country': 'CL', 'amenity': 'doctors', 'healthcare': 'doctor', 'name': 'Posta de Salud Rural Torre Dorada'}}"
"{'type': 'node', 'id': 7317192428, 'lat': -37.2815557, 'lon': -72.6964519, 'tags': {'addr:country': 'CL', 'alt_name': 'Centro Comunitario de Salud Familiar', 'amenity': 'doctors', 'healthcare': 'doctor', 'name': 'CECOSF Laja', 'official_name': 'CECOSF Laja'}}"
"{'type': 'node', 'id': 7317192429, 'lat': -37.3172376, 'lon': -72.9224995, 'tags': {'addr:country': 'CL', 'amenity': 'doctors', 'healthcare': 'doctor', 'name': 'Posta de Salud Rural Chacay (Santa Juana)'}}"
"{'type': 'node', 'id': 7317192430, 'lat': -37.3838844, 'lon': -72.9655205, 'tags': {'addr:country': 'CL', 'amenity': 'doctors', 'healthcare': 'doctor', 'name': 'Posta de Salud Rural La Generala'}}"
"{'type': 'node', 'id': 7317192431, 'lat': -37.4129676, 'lon': -72.9109977, 'tags': {'addr:country': 'CL', 'amenity': 'doctors', 'healthcare': 'doctor', 'name': 'Posta de Salud Rural San Roque'}}"
"{'type': 'node', 'id': 7317192432, 'lat': -37.4520216, 'lon': -72.7680722, 'tags': {'addr:country': 'CL', 'amenity': 'doctors', 'healthcare': 'doctor', 'name': 'Posta de Salud Rural Dollinco'}}"
"{'type': 'node', 'id': 7317192433, 'lat': -37.5536213, 'lon': -72.5976098, 'tags': {'addr:country': 'CL', 'amenity': 'doctors', 'healthcare': 'doctor', 'name': 'Posta de Salud Rural Coihue'}}"
"{'type': 'node', 'id': 7317192434, 'lat': -37.5471541, 'lon': -72.4923689, 'tags': {'addr:country': 'CL', 'amenity': 'doctors', 'healthcare': 'doctor', 'name': 'Posta de Salud Rural Mesamávida'}}"
"{'type': 'node', 'id': 7317192435, 'lat': -37.576596, 'lon': -72.4298422, 'tags': {'addr:country': 'CL', 'amenity': 'doctors', 'healthcare': 'doctor', 'name': 'Posta de Salud Rural Tierras Libres'}}"
"{'type': 'node', 'id': 7838295946, 'lat': -37.5017712, 'lon': -72.6697541, 'tags': {'addr:city': 'Nacimiento', 'addr:housenumber': '336', 'addr:postcode': '4550000', 'addr:street': 'San Martín', 'amenity': 'pharmacy', 'brand': 'Cruz Verde', 'brand:wikidata': 'Q5856071', 'brand:wikipedia': 'es:Farmacias Cruz Verde', 'dispensing': 'yes', 'drive_through': 'no', 'healthcare': 'pharmacy', 'name': 'Cruz Verde', 'opening_hours': 'Mo-Fr 09:00-13:30, 15:00-18:00; Su 09:00-13:30'}}"
"{'type': 'node', 'id': 7879708668, 'lat': -37.5407849, 'lon': -72.8318834, 'tags': {'addr:country': 'CL', 'amenity': 'doctors', 'healthcare': 'doctor', 'name': 'Posta de Salud Rural Choroico'}}"
"{'type': 'node', 'id': 7956510733, 'lat': -37.5014294, 'lon': -72.6706661, 'tags': {'addr:city': 'Nacimiento', 'addr:country': 'CL', 'addr:housenumber': '401', 'addr:postcode': '4550000', 'addr:street': 'San Martín', 'amenity': 'pharmacy', 'brand': 'Cruz Verde', 'brand:wikidata': 'Q5856071', 'brand:wikipedia': 'es:Farmacias Cruz Verde', 'dispensing': 'yes', 'drive_through': 'no', 'healthcare': 'pharmacy', 'name': 'Cruz Verde', 'opening_hours': 'Mo-Fr 09:00-13:30, 15:00-18:00; Su 09:00-13:30'}}"
"{'type': 'node', 'id': 8017868424, 'lat': -37.4713677, 'lon': -72.3483925, 'tags': {'addr:country': 'CL', 'amenity': 'clinic', 'healthcare': 'clinic'}}"
"{'type': 'node', 'id': 8172392536, 'lat': -37.3708312, 'lon': -72.6761321, 'tags': {'addr:country': 'CL', 'amenity': 'doctors', 'healthcare': 'doctor', 'name': 'Posta de Salud Rural Millapoa'}}"
"{'type': 'node', 'id': 8231580221, 'lat': -37.5009951, 'lon': -72.6729146, 'tags': {'addr:city': 'Nacimiento', 'addr:housenumber': '559', 'addr:street': 'San Martín', 'amenity': 'pharmacy', 'healthcare': 'pharmacy', 'name': 'Redfarma'}}"
"{'type': 'node', 'id': 8256098452, 'lat': -37.4985813, 'lon': -72.6822459, 'tags': {'addr:city': 'Nacimiento', 'addr:country': 'CL', 'addr:housenumber': '356', 'addr:postcode': '4550000', 'addr:street': 'Los Castaños', 'amenity': 'doctors', 'contact:facebook': 'https://www.facebook.com/GOrehabilitacion/', 'healthcare': 'rehabilitation', 'healthcare:speciality': 'psychiatry;physiatry;occupational_therapist;dietitian', 'name': 'Go Rehabilitación'}}"
"{'type': 'node', 'id': 8262359866, 'lat': -37.5027323, 'lon': -72.6729627, 'tags': {'addr:city': 'Nacimiento', 'addr:country': 'CL', 'addr:housenumber': '555', 'addr:postcode': '4550000', 'addr:street': 'Aníbal Pinto', 'amenity': 'doctors', 'contact:mobile': '+56 9 4468 7701', 'contact:phone': '43 251 1125', 'contact:website': 'https://consultamedicadoctornovoa.negocio.site/', 'healthcare': 'doctor', 'healthcare:speciality': 'general', 'name': 'Consulta Médica Doctor Novoa', 'opening_hours': 'Mo-Fr 10:00-20:00'}}"
"{'type': 'node', 'id': 8262553839, 'lat': -37.5015378, 'lon': -72.6691242, 'tags': {'addr:city': 'Nacimiento', 'addr:housenumber': '382', 'addr:postcode': '4550000', 'addr:street': 'Jorge Montt', 'amenity': 'dentist', 'contact:email': 'ayelenasociados@gmail.com', 'contact:facebook': 'https://www.facebook.com/Ayelendental/', 'healthcare': 'dentist', 'healthcare:speciality': 'orthodontics;endodontics', 'name': 'Centro Odontológico Ayelén'}}"
"{'type': 'node', 'id': 8327799528, 'lat': -37.5020358, 'lon': -72.6692966, 'tags': {'addr:city': 'Nacimiento', 'addr:housenumber': '460', 'addr:postcode': '4550000', 'addr:street': 'Jorge Montt', 'contact:mobile': '+56 9 8645 9817', 'contact:phone': '+56 43 251 1910', 'healthcare': 'podiatrist', 'name': 'Podología Nacimiento', 'operator': 'Carlos Hermosilla Salazar'}}"
"{'type': 'node', 'id': 8435719641, 'lat': -37.5024195, 'lon': -72.6715006, 'tags': {'healthcare': 'physiotherapist', 'name': 'Kinfis'}}"
"{'type': 'node', 'id': 8630697827, 'lat': -36.6064731, 'lon': -72.0972495, 'tags': {'addr:city': 'Chillán', 'addr:country': 'CL', 'addr:housenumber': '425', 'addr:postcode': '3800720', 'addr:state': 'Región de Ñuble', 'addr:street': 'Sargento Aldea', 'amenity': 'dentist', 'healthcare': 'dentist', 'healthcare:speciality': 'odontología_general;ortodoncia;endodoncia;implantes_dentales;prótesis;higiene_dental;dentista', 'name': 'Centro Dental Safident', 'name:es': 'Safident', 'opening_hours': 'Mo-Fr 09:00-20:00'}}"
"{'type': 'node', 'id': 8659577616, 'lat': -37.5040106, 'lon': -72.6754171, 'tags': {'healthcare': 'centre', 'healthcare:speciality': 'vaccination', 'vaccination': 'covid19'}}"
"{'type': 'node', 'id': 8747343595, 'lat': -37.6359315, 'lon': -72.4558608, 'tags': {'addr:country': 'CL', 'amenity': 'doctors', 'healthcare': 'doctor', 'name': 'Posta'}}"
"{'type': 'node', 'id': 8927707054, 'lat': -36.4239486, 'lon': -71.9587493, 'tags': {'addr:city': 'San Carlos', 'addr:housenumber': '702', 'addr:street': 'Maipú', 'amenity': 'pharmacy', 'dispensing': 'yes', 'healthcare': 'pharmacy', 'name': 'Farmacia AltaVida'}}"
"{'type': 'node', 'id': 8940239189, 'lat': -36.6259072, 'lon': -72.0783487, 'tags': {'addr:city': 'Chillán', 'addr:country': 'CL', 'addr:housenumber': '2780', 'addr:state': 'Región de Ñuble', 'addr:street': 'Avenida Alonso de Ercilla', 'amenity': 'pharmacy', 'dispensing': 'yes', 'healthcare': 'pharmacy', 'name': 'Farmacias Nevados', 'opening_hours': 'Mo-Su 10:00-20:00'}}"
"{'type': 'node', 'id': 8989099052, 'lat': -36.7864485, 'lon': -73.0377634, 'tags': {'addr:city': 'Concepción', 'addr:street': 'Avenida Los Presidentes', 'amenity': 'pharmacy', 'brand': 'Cruz Verde', 'brand:wikidata': 'Q5856071', 'brand:wikipedia': 'es:Farmacias Cruz Verde', 'dispensing': 'yes', 'drive_through': 'no', 'healthcare': 'pharmacy', 'name': 'Cruz Verde', 'opening_hours': 'Mo-Sa 09:00-20:00, Su 10:00 - 20:00', 'website': 'https://www.cruzverde.cl'}}"
"{'type': 'node', 'id': 9071286364, 'lat': -37.5006585, 'lon': -72.6832829, 'tags': {'healthcare': 'podiatrist'}}"
"{'type': 'node', 'id': 9088723520, 'lat': -37.4683978, 'lon': -72.3355546, 'tags': {'addr:housenumber': '831', 'addr:postcode': '4440000', 'addr:street': 'Avenida Alemania', 'amenity': 'pharmacy', 'brand': 'Cruz Verde', 'brand:wikidata': 'Q5856071', 'healthcare': 'pharmacy', 'name': 'Cruz Verde', 'opening_hours': 'Mo-Fr 08:30-20:30; Sa 08:30-20:00; Su 09:30-20:00'}}"
"{'type': 'node', 'id': 9107758630, 'lat': -36.6092335, 'lon': -72.9451428, 'tags': {'addr:city': 'Tomé', 'addr:country': 'CL', 'addr:housenumber': '2276', 'addr:street': 'Santiago Osorio', 'alt_name': 'Centro Comunitario de Salud Familiar', 'amenity': 'doctors', 'healthcare': 'hospital', 'name': 'CECOSF Cerro Estanque', 'official_name': 'Centro Comunitario de Salud Familiar', 'phone': '(41) 217 0393'}}"
"{'type': 'node', 'id': 9123060791, 'lat': -36.4249525, 'lon': -71.9571591, 'tags': {'addr:city': 'San Carlos', 'addr:housenumber': '651', 'addr:street': 'Independencia', 'amenity': 'pharmacy', 'brand': 'Farmacias del Dr. Simi', 'brand:wikidata': 'Q62564610', 'dispensing': 'yes', 'healthcare': 'pharmacy', 'name': 'Farmacias del Dr. Simi'}}"
"{'type': 'node', 'id': 9276406011, 'lat': -36.4266701, 'lon': -71.9577362, 'tags': {'addr:city': 'San Carlos', 'addr:housenumber': '509', 'addr:street': 'Ignacio Serrano', 'amenity': 'pharmacy', 'brand': 'Cruz Verde', 'brand:wikidata': 'Q5856071', 'brand:wikipedia': 'es:Farmacias Cruz Verde', 'dispensing': 'yes', 'healthcare': 'pharmacy', 'name': 'Cruz Verde'}}"
"{'type': 'node', 'id': 9408479108, 'lat': -36.4255043, 'lon': -71.9573696, 'tags': {'addr:city': 'San Carlos', 'addr:housenumber': '601', 'addr:street': 'Independencia', 'amenity': 'pharmacy', 'dispensing': 'yes', 'healthcare': 'pharmacy', 'name': 'Farmacias Aragon'}}"
"{'type': 'node', 'id': 9760119817, 'lat': -36.7919308, 'lon': -73.0668931, 'tags': {'addr:country': 'CL', 'addr:housename': 'Mallplaza Trébol', 'addr:housenumber': '3177', 'addr:street': 'Avenida Jorge Alessandri', 'amenity': 'pharmacy', 'brand': 'Farmacias Ahumada', 'brand:wikidata': 'Q5856069', 'dispensing': 'yes', 'healthcare': 'pharmacy', 'name': 'Farmacias Ahumada'}}"
"{'type': 'node', 'id': 9767457479, 'lat': -36.8299208, 'lon': -73.0645438, 'tags': {'addr:city': 'Concepción', 'addr:housenumber': '301', 'addr:street': 'Avenida Los Carrera Poniente', 'amenity': 'pharmacy', 'brand': 'Cruz Verde', 'brand:wikidata': 'Q5856071', 'dispensing': 'yes', 'healthcare': 'pharmacy', 'name': 'Cruz Verde'}}"
"{'type': 'node', 'id': 9767457482, 'lat': -36.8293767, 'lon': -73.0636637, 'tags': {'addr:city': 'Concepción', 'addr:housenumber': '301', 'addr:street': 'Avenida Los Carrera Poniente', 'amenity': 'pharmacy', 'brand': 'SalcoBrand', 'brand:wikidata': 'Q2877054', 'dispensing': 'yes', 'healthcare': 'pharmacy', 'name': 'SalcoBrand'}}"
"{'type': 'node', 'id': 9788682575, 'lat': -37.5007471, 'lon': -72.6740901, 'tags': {'amenity': 'dentist', 'healthcare': 'dentist', 'name': 'Lumident'}}"
"{'type': 'node', 'id': 9791566322, 'lat': -36.8246143, 'lon': -73.0450794, 'tags': {'addr:city': 'Concepción', 'addr:housenumber': '1068', 'addr:street': 'Barros Arana', 'amenity': 'pharmacy', 'brand': 'SalcoBrand', 'brand:wikidata': 'Q2877054', 'contact:facebook': 'https://www.facebook.com/Salcobrand', 'dispensing': 'yes', 'drive_through': 'no', 'healthcare': 'pharmacy', 'name': 'SalcoBrand', 'opening_hours': 'Mo-Sa 09:30-20:00', 'website': 'https://salcobrand.cl'}}"
"{'type': 'node', 'id': 9806930608, 'lat': -36.4257477, 'lon': -71.9574144, 'tags': {'addr:city': 'San Carlos', 'addr:housenumber': '593', 'addr:street': 'Ignacio Serrano', 'amenity': 'pharmacy', 'brand': 'SalcoBrand', 'brand:wikidata': 'Q2877054', 'brand:wikipedia': 'es:Salcobrand', 'dispensing': 'yes', 'healthcare': 'pharmacy', 'name': 'SalcoBrand'}}"
"{'type': 'node', 'id': 10023166595, 'lat': -36.4333385, 'lon': -71.9615863, 'tags': {'addr:country': 'CL', 'amenity': 'doctors', 'healthcare': 'doctor', 'name': 'Centro Medico Prat'}}"
"{'type': 'node', 'id': 10288569589, 'lat': -36.4260307, 'lon': -71.9578305, 'tags': {'amenity': 'dentist', 'healthcare': 'dentist', 'name': 'Fabricando Sonrisas'}}"
"{'type': 'node', 'id': 10306091876, 'lat': -37.5025245, 'lon': -72.6694473, 'tags': {'addr:country': 'CL', 'amenity': 'doctors', 'healthcare': 'doctor', 'name': 'Consultorio Nacimiento', 'note': 'Correcciones masivas a ortografía en nombres de importaciones hechas por equipo de gendarmería'}}"
"{'type': 'node', 'id': 10616276796, 'lat': -36.6106303, 'lon': -72.1004847, 'tags': {'addr:city': 'Chillán', 'addr:housenumber': '801', 'addr:street': 'Maipón', 'amenity': 'pharmacy', 'brand': 'Cruz Verde', 'brand:wikidata': 'Q5856071', 'healthcare': 'pharmacy', 'name': 'Cruz Verde'}}"
"{'type': 'node', 'id': 10720336541, 'lat': -36.7424686, 'lon': -72.2973397, 'tags': {'addr:country': 'CL', 'amenity': 'clinic', 'healthcare': 'clinic', 'name': 'Centro Médico Bulnes'}}"
"{'type': 'node', 'id': 11121121005, 'lat': -37.4692507, 'lon': -72.3481198, 'tags': {'addr:housenumber': '197', 'addr:street': 'Colo Colo', 'amenity': 'pharmacy', 'healthcare': 'pharmacy', 'name': 'Farmacia Alfa', 'opening_hours': 'Mo-Fr 09:00-19:00; Sa 10:00-15:00', 'website': 'https://instagram.com/farmacias_alfa?igshid=MzRlODBiNWFlZA=='}}"
"{'type': 'node', 'id': 11134190916, 'lat': -36.6131906, 'lon': -72.1321134, 'tags': {'addr:city': 'Chillán', 'addr:country': 'CL', 'addr:housenumber': '1795', 'addr:street': 'Luis Arellano', 'alt_name': 'Centro Comunitario de Salud Familiar', 'amenity': 'doctors', 'healthcare': 'doctor', 'name': 'CECOSF Doña Isabel', 'official_name': 'Centro Comunitario de Salud Familiar'}}"
"{'type': 'node', 'id': 11134235611, 'lat': -36.6080845, 'lon': -72.095678, 'tags': {'addr:city': 'Chillán', 'addr:country': 'CL', 'addr:housenumber': '1163', 'addr:street': 'Libertad', 'alt_name': 'Centro Comunitario de Salud Mental', 'amenity': 'doctors', 'healthcare': 'hospital', 'healthcare:speciality': 'psychiatry', 'name': 'COSAM Ñuble', 'official_name': 'Centro Comunitario de Salud Mental'}}"
"{'type': 'node', 'id': 11151080985, 'lat': -36.4294377, 'lon': -71.958309, 'tags': {'addr:city': 'San Carlos', 'addr:country': 'CL', 'addr:housenumber': '529', 'addr:street': 'Sinforiano Ossa', 'amenity': 'doctors', 'healthcare': 'doctor', 'healthcare:speciality': 'radiology', 'name': 'Red Imagen Ñuble', 'phone': '+56 4 22 41 52 81'}}"
"{'type': 'node', 'id': 11163722676, 'lat': -36.8250389, 'lon': -73.044174, 'tags': {'addr:city': 'Concepción', 'addr:housenumber': '1107', 'addr:street': ""O'Higgins"", 'amenity': 'pharmacy', 'brand': 'Farmacias del Dr. Simi', 'brand:wikidata': 'Q62564610', 'drive_through': 'no', 'healthcare': 'pharmacy', 'name': 'Farmacias del Dr. Simi', 'opening_hours': 'Mo-Fr 09:00-18:00; Sa 10:00-15:00', 'website': 'https://www.drsimi.cl'}}"
"{'type': 'node', 'id': 11163900709, 'lat': -36.8247216, 'lon': -73.0520466, 'tags': {'addr:city': 'Concepción', 'addr:housenumber': '616', 'addr:street': 'Maipú', 'amenity': 'pharmacy', 'brand': 'Farmacias del Dr. Simi', 'brand:wikidata': 'Q62564610', 'drive_through': 'no', 'healthcare': 'pharmacy', 'name': 'Farmacias del Dr. Simi', 'opening_hours': 'Mo-Fr 09:00-17:00; Sa 09:30-15:00'}}"
"{'type': 'node', 'id': 11174779691, 'lat': -36.6122728, 'lon': -72.1315816, 'tags': {'addr:city': 'Chillán', 'addr:country': 'CL', 'addr:housenumber': '1780', 'addr:street': 'Luis Arellano', 'alt_name': 'Centro Comunitario de Salud Familiar', 'amenity': 'doctors', 'healthcare': 'doctor', 'name': 'CECOSF Doña Isabel', 'official_name': 'Centro Comunitario de Salud Familiar'}}"
"{'type': 'node', 'id': 11223838652, 'lat': -36.5887802, 'lon': -72.0773413, 'tags': {'amenity': 'pharmacy', 'brand': 'Cruz Verde', 'brand:wikidata': 'Q5856071', 'healthcare': 'pharmacy', 'name': 'Cruz Verde'}}"
"{'type': 'node', 'id': 11223838663, 'lat': -36.5886277, 'lon': -72.0775409, 'tags': {'amenity': 'pharmacy', 'brand': 'SalcoBrand', 'brand:wikidata': 'Q2877054', 'healthcare': 'pharmacy', 'name': 'SalcoBrand'}}"
"{'type': 'node', 'id': 11288974960, 'lat': -36.609157, 'lon': -72.1032661, 'tags': {'amenity': 'pharmacy', 'name': 'Farmacia Egipcia'}}"
"{'type': 'node', 'id': 11349307619, 'lat': -36.9737764, 'lon': -72.9370472, 'tags': {'addr:country': 'CL', 'alt_name': 'Centro de Salud Familiar', 'amenity': 'clinic', 'healthcare': 'doctor', 'name': 'CESFAM Hualqui', 'official_name': 'Centro de Salud Familiar'}}"
"{'type': 'node', 'id': 11349354872, 'lat': -36.8970146, 'lon': -72.8054312, 'tags': {'addr:country': 'CL', 'alt_name': 'Centro Comunitario de Salud Familiar', 'amenity': 'doctors', 'healthcare': 'doctor', 'name': 'CECOSF Copiulemu', 'official_name': 'Centro Comunitario de Salud Familiar'}}"
"{'type': 'node', 'id': 11349405803, 'lat': -36.9666921, 'lon': -72.9280785, 'tags': {'addr:country': 'CL', 'alt_name': 'Centro Comunitario de Salud Familiar', 'amenity': 'doctors', 'healthcare': 'doctor', 'name': 'CECOSF Hualqui', 'official_name': 'Centro Comunitario de Salud Familiar'}}"
"{'type': 'node', 'id': 11349456127, 'lat': -36.8084703, 'lon': -73.0723406, 'tags': {'addr:country': 'CL', 'alt_name': 'Servicio de Atención Primaria de Urgencia', 'amenity': 'doctors', 'emergency': 'yes', 'healthcare': 'doctor', 'name': 'SAPU Lorenzo Arenas', 'operator': 'Municipalidad de Concepción'}}"
"{'type': 'node', 'id': 11349471547, 'lat': -36.828429, 'lon': -73.0669754, 'tags': {'addr:country': 'CL', 'alt_name': 'Servicio de Atención Primaria de Urgencia', 'amenity': 'doctors', 'emergency': 'yes', 'healthcare': 'doctor', 'name': 'SAPU Juan Soto Fernández'}}"
"{'type': 'node', 'id': 11351503261, 'lat': -36.7435699, 'lon': -73.0052881, 'tags': {'addr:country': 'CL', 'alt_name': 'Centro Comunitario de Salud Familiar', 'amenity': 'doctors', 'healthcare': 'doctor', 'name': 'CECOSF Los Forjadores', 'official_name': 'Centro Comunitario de Salud Familiar'}}"
"{'type': 'node', 'id': 11351528026, 'lat': -36.9546437, 'lon': -73.0129301, 'tags': {'addr:country': 'CL', 'alt_name': 'Servicio de Atención Primaria de Urgencia', 'amenity': 'doctors', 'emergency': 'yes', 'healthcare': 'doctor', 'name': 'SAPU Leonera'}}"
"{'type': 'node', 'id': 11351626730, 'lat': -36.6167866, 'lon': -72.9388024, 'tags': {'addr:country': 'CL', 'alt_name': 'Centro Comunitario de Salud Familiar', 'amenity': 'doctors', 'healthcare': 'doctor', 'name': 'CECOSF El Santo Esfuerzo De Todos', 'official_name': 'Centro Comunitario de Salud Familiar'}}"
"{'type': 'node', 'id': 11356645545, 'lat': -36.6002121, 'lon': -72.9609048, 'tags': {'addr:country': 'CL', 'alt_name': 'Servicio de Urgencia de Alta Resolución', 'amenity': 'doctors', 'emergency': 'yes', 'healthcare': 'doctor', 'name': 'SAR Doctor Alberto Reyes', 'official_name': 'Servicio de Urgencia de Alta Resolución'}}"
"{'type': 'node', 'id': 11365306940, 'lat': -36.8281441, 'lon': -73.0485484, 'tags': {'addr:city': 'Concepción', 'addr:housenumber': '715', 'addr:street': 'San Martín', 'amenity': 'pharmacy', 'brand': 'Cruz Verde', 'brand:wikidata': 'Q5856071', 'drive_through': 'no', 'healthcare': 'pharmacy', 'name': 'Cruz Verde', 'opening_hours': 'Su-Fr 08:30-21:00; Sa 09:00-20:00', 'website': 'https://www.cruzverde.cl/'}}"
"{'type': 'node', 'id': 11369584587, 'lat': -36.8082891, 'lon': -73.0782203, 'tags': {'addr:city': 'Concepción', 'addr:housenumber': '3225', 'addr:street': 'Avenida 21 de Mayo', 'amenity': 'pharmacy', 'brand': 'Farmacias Ahumada', 'brand:wikidata': 'Q5856069', 'healthcare': 'pharmacy', 'name': 'Farmacias Ahumada', 'opening_hours': 'Mo-Sa 09:00-19:00; Su 09:00-16:00'}}"
"{'type': 'node', 'id': 11369866468, 'lat': -36.826639, 'lon': -73.0389824, 'tags': {'addr:city': 'Concepción', 'addr:housenumber': '1375', 'addr:street': 'Avenida Chacabuco', 'amenity': 'dentist', 'healthcare': 'dentist', 'healthcare:speciality': 'orthodontics', 'name': 'Odontológika'}}"
"{'type': 'node', 'id': 11386384145, 'lat': -36.6287063, 'lon': -72.1281173, 'tags': {'addr:country': 'CL', 'alt_name': 'Servicio de Atención Primaria de Urgencia', 'amenity': 'doctors', 'emergency': 'yes', 'healthcare': 'doctor', 'name': 'SAPU Doctor Federico Puga'}}"
"{'type': 'node', 'id': 11386392102, 'lat': -36.6186954, 'lon': -72.0811764, 'tags': {'addr:country': 'CL', 'alt_name': 'Servicio de Atención Primaria de Urgencia', 'amenity': 'doctors', 'emergency': 'yes', 'healthcare': 'doctor', 'name': 'SAPU Los Volcanes'}}"
"{'type': 'node', 'id': 11386404034, 'lat': -36.6247742, 'lon': -72.0973444, 'tags': {'addr:country': 'CL', 'alt_name': 'Servicio de Atención Primaria de Urgencia', 'amenity': 'doctors', 'emergency': 'yes', 'healthcare': 'doctor', 'name': 'SAPU San Ramón de Nonato'}}"
"{'type': 'node', 'id': 11386404932, 'lat': -36.6042968, 'lon': -72.120558, 'tags': {'addr:country': 'CL', 'alt_name': 'Servicio de Atención Primaria de Urgencia', 'amenity': 'doctors', 'emergency': 'yes', 'healthcare': 'doctor', 'name': 'SAPU Ultraestación'}}"
"{'type': 'node', 'id': 11386405604, 'lat': -36.4183192, 'lon': -71.9696387, 'tags': {'addr:country': 'CL', 'alt_name': 'Servicio de Atención Primaria de Urgencia', 'amenity': 'doctors', 'emergency': 'yes', 'healthcare': 'doctor', 'name': 'SAPU José Durán Trujillo'}}"
"{'type': 'node', 'id': 11386415288, 'lat': -36.6087919, 'lon': -72.0896601, 'tags': {'addr:country': 'CL', 'alt_name': 'Servicio de Urgencia de Alta Resolución', 'amenity': 'doctors', 'emergency': 'yes', 'healthcare': 'doctor', 'name': 'SAR Violeta Parra', 'official_name': 'Servicio de Urgencia de Alta Resolución'}}"
"{'type': 'node', 'id': 11388048019, 'lat': -37.4638887, 'lon': -72.3615603, 'tags': {'addr:city': 'Los Ángeles', 'addr:country': 'CL', 'addr:street': 'Avenida Los Ángeles 810', 'alt_name': 'Centro de Salud Familiar', 'amenity': 'clinic', 'healthcare': 'clinic', 'name': 'CESFAM Norte', 'official_name': 'Centro de Salud Familiar'}}"
"{'type': 'node', 'id': 11388212596, 'lat': -37.485136, 'lon': -72.2181125, 'tags': {'addr:city': 'Los Ángeles', 'addr:country': 'CL', 'addr:street': 'Avenida El Peral', 'alt_name': 'Centro Comunitario de Salud Familiar', 'amenity': 'doctors', 'healthcare': 'doctor', 'name': 'CECOSF ,El Peral', 'official_name': 'Centro Comunitario de Salud Familiar'}}"
"{'type': 'node', 'id': 11388320198, 'lat': -37.4628864, 'lon': -72.3422743, 'tags': {'addr:city': 'Los Ángeles', 'addr:country': 'CL', 'addr:housenumber': '198', 'addr:street': 'Argentina', 'alt_name': 'Centro Comunitario de Salud Familiar', 'amenity': 'doctors', 'healthcare': 'doctor', 'name': 'CECOSF Galvarino', 'official_name': 'Centro Comunitario de Salud Familiar'}}"
"{'type': 'node', 'id': 11396778414, 'lat': -36.6042986, 'lon': -72.1207453, 'tags': {'addr:country': 'CL', 'alt_name': 'Centro de Salud Familiar', 'amenity': 'clinic', 'healthcare': 'doctor', 'name': 'CESFAM Ultraestación Doctor Raúl San Martín González', 'official_name': 'Centro de Salud Familiar'}}"
"{'type': 'node', 'id': 11396820812, 'lat': -36.6093255, 'lon': -72.0893817, 'tags': {'addr:country': 'CL', 'alt_name': 'Centro de Salud Familiar', 'amenity': 'clinic', 'healthcare': 'doctor', 'name': 'CESFAM Violeta Parra', 'official_name': 'Centro de Salud Familiar'}}"
"{'type': 'node', 'id': 11398845795, 'lat': -36.4988773, 'lon': -72.2123601, 'tags': {'addr:country': 'CL', 'alt_name': 'Centro de Salud Familiar', 'amenity': 'clinic', 'healthcare': 'doctor', 'name': 'CESFAM San Nicolás', 'official_name': 'Centro de Salud Familiar'}}"
"{'type': 'node', 'id': 11398864365, 'lat': -36.5296929, 'lon': -72.4288851, 'tags': {'addr:country': 'CL', 'alt_name': 'Centro de Salud Familiar', 'amenity': 'clinic', 'healthcare': 'doctor', 'name': 'CESFAM Portezuelo', 'official_name': 'Centro de Salud Familiar'}}"
"{'type': 'node', 'id': 11398897650, 'lat': -36.3924807, 'lon': -72.3988395, 'tags': {'addr:country': 'CL', 'alt_name': 'Centro de Salud Familiar', 'amenity': 'clinic', 'healthcare': 'doctor', 'name': 'CESFAM Doctor David Benavente de Ninhue', 'official_name': 'Centro de Salud Familiar'}}"
"{'type': 'node', 'id': 11398897651, 'lat': -36.6265863, 'lon': -71.8444862, 'tags': {'addr:country': 'CL', 'alt_name': 'Centro de Salud Familiar', 'amenity': 'clinic', 'healthcare': 'doctor', 'name': 'CESFAM Coihueco', 'official_name': 'Centro de Salud Familiar'}}"
"{'type': 'node', 'id': 11398928137, 'lat': -36.8428424, 'lon': -72.1022687, 'tags': {'addr:country': 'CL', 'alt_name': 'Centro de Salud Familiar', 'amenity': 'clinic', 'healthcare': 'doctor', 'name': 'CESFAM Quiriquina', 'official_name': 'Centro de Salud Familiar'}}"
"{'type': 'node', 'id': 11398932478, 'lat': -37.1339619, 'lon': -72.1901348, 'tags': {'addr:country': 'CL', 'alt_name': 'Centro de Salud Familiar', 'amenity': 'clinic', 'healthcare': 'doctor', 'name': 'CESFAM Campanario', 'official_name': 'Centro de Salud Familiar'}}"
"{'type': 'node', 'id': 11401114323, 'lat': -36.7398696, 'lon': -72.2938137, 'tags': {'addr:country': 'CL', 'alt_name': 'Centro de Salud Familiar', 'amenity': 'clinic', 'healthcare': 'doctor', 'name': 'CESFAM Santa Clara', 'official_name': 'Centro de Salud Familiar'}}"
"{'type': 'node', 'id': 11401259961, 'lat': -36.4301367, 'lon': -72.6692809, 'tags': {'addr:country': 'CL', 'alt_name': 'Centro de Salud Familiar', 'amenity': 'clinic', 'healthcare': 'doctor', 'name': 'CESFAM Treguaco', 'official_name': 'Centro de Salud Familiar'}}"
"{'type': 'node', 'id': 11401376853, 'lat': -36.7879058, 'lon': -72.2114516, 'tags': {'addr:country': 'CL', 'alt_name': 'Centro Comunitario de Salud Familiar', 'amenity': 'doctors', 'healthcare': 'doctor', 'name': 'CECOSF Tres Esquinas', 'official_name': 'Centro Comunitario de Salud Familiar'}}"
"{'type': 'node', 'id': 11401458156, 'lat': -36.616515, 'lon': -72.10035, 'tags': {'addr:country': 'CL', 'alt_name': 'Centro Comunitario de Salud Mental', 'amenity': 'doctors', 'healthcare': 'psychiatry', 'healthcare:speciality': 'psychiatry', 'name': 'COSAM Chillán', 'official_name': 'Centro Comunitario de Salud Mental'}}"
"{'type': 'node', 'id': 11401701995, 'lat': -36.648085, 'lon': -72.4032923, 'tags': {'addr:country': 'CL', 'alt_name': 'Centro de Salud Familiar', 'amenity': 'clinic', 'healthcare': 'doctor', 'name': 'CESFAM Quinchamalí', 'official_name': 'Centro de Salud Familiar'}}"
"{'type': 'node', 'id': 11401712616, 'lat': -36.422452, 'lon': -71.9511426, 'tags': {'addr:country': 'CL', 'alt_name': 'Centro Comunitario de Salud Familiar', 'amenity': 'doctors', 'healthcare': 'doctor', 'name': 'CECOSF Valle Hondo', 'official_name': 'Centro Comunitario de Salud Familiar'}}"
"{'type': 'node', 'id': 11404288462, 'lat': -37.4904458, 'lon': -72.3283243, 'tags': {'addr:city': 'Los Ángeles', 'addr:country': 'CL', 'alt_name': 'Centro Comunitario de Salud Familiar', 'amenity': 'doctors', 'healthcare': 'doctor', 'name': 'CECOSF Villa Los Ríos', 'official_name': 'Centro Comunitario de Salud Familiar'}}"
"{'type': 'node', 'id': 11404291923, 'lat': -37.4866092, 'lon': -72.3433001, 'tags': {'addr:city': 'Los Angeles', 'addr:country': 'CL', 'addr:street': 'Avenida Los Carrera', 'alt_name': 'Centro Comunitario de Salud Familiar', 'amenity': 'doctors', 'healthcare': 'doctor', 'name': 'CECOSF Los Carrera', 'official_name': 'Centro Comunitario de Salud Familiar'}}"
"{'type': 'node', 'id': 11404304473, 'lat': -36.8578532, 'lon': -72.8787351, 'tags': {'addr:city': 'Concepción', 'addr:country': 'CL', 'addr:street': 'Autopista Concepción - Cabrero', 'alt_name': 'Centro Comunitario de Salud Familiar', 'amenity': 'doctors', 'healthcare': 'doctor', 'name': 'CECOSF Chaimavida', 'official_name': 'Centro Comunitario de Salud Familiar'}}"
"{'type': 'node', 'id': 11404329374, 'lat': -37.468329, 'lon': -72.3821442, 'tags': {'addr:city': 'Los Ángeles', 'addr:country': 'CL', 'alt_name': 'Servicio de Atención Primaria de Urgencia', 'amenity': 'doctors', 'emergency': 'yes', 'healthcare': 'clinic', 'name': 'SAPU Nuevo Horizonte'}}"
"{'type': 'node', 'id': 11404332962, 'lat': -37.4682708, 'lon': -72.3821424, 'tags': {'addr:city': 'Los Ángeles', 'addr:country': 'CL', 'alt_name': 'Centro de Salud Familiar', 'amenity': 'clinic', 'healthcare': 'clinic', 'name': 'CESFAM Nuevo horizonte', 'official_name': 'Centro de Salud Familiar'}}"
"{'type': 'node', 'id': 11406483111, 'lat': -36.6720126, 'lon': -72.9596655, 'tags': {'addr:city': 'Tomé', 'addr:country': 'CL', 'addr:street': 'Cardenal Antonio Samoré', 'alt_name': 'Centro Comunitario de Salud Familiar', 'amenity': 'doctors', 'healthcare': 'doctor', 'name': 'CECOSF punta de parra', 'official_name': 'Centro Comunitario de Salud Familiar'}}"
"{'type': 'node', 'id': 11406489999, 'lat': -36.735995, 'lon': -72.9907779, 'tags': {'addr:city': 'Penco', 'addr:country': 'CL', 'alt_name': 'Centro Comunitario de Salud Familiar', 'amenity': 'doctors', 'healthcare': 'doctor', 'name': 'CECOSF Penco', 'official_name': 'Centro Comunitario de Salud Familiar'}}"
"{'type': 'node', 'id': 11406516714, 'lat': -37.4913237, 'lon': -72.3276902, 'tags': {'addr:city': 'Los Ángeles', 'addr:country': 'CL', 'addr:housenumber': '2201', 'addr:street': 'Avenida Oriente', 'alt_name': 'Servicio de Urgencia de Alta Resolución', 'amenity': 'doctors', 'emergency': 'yes', 'healthcare': 'clinic', 'name': 'SAR Entre Rios', 'official_name': 'Servicio de Urgencia de Alta Resolución'}}"
"{'type': 'node', 'id': 11423206776, 'lat': -36.825402, 'lon': -73.0474712, 'tags': {'addr:city': 'Concepción', 'addr:housenumber': '890', 'addr:street': 'Barros Arana', 'amenity': 'pharmacy', 'brand': 'Cruz Verde', 'brand:wikidata': 'Q5856071', 'healthcare': 'pharmacy', 'name': 'Cruz Verde', 'opening_hours': 'Mo-Fr 08:30-21:00; Sa 09:00-20:00; Su 10:00-20:00'}}"
"{'type': 'node', 'id': 11433399222, 'lat': -36.8259432, 'lon': -73.0486995, 'tags': {'addr:city': 'Concepción', 'addr:housenumber': '780', 'addr:street': 'Barros Arana', 'amenity': 'pharmacy', 'brand': 'Cruz Verde', 'brand:wikidata': 'Q5856071', 'drive_through': 'no', 'healthcare': 'pharmacy', 'name': 'Cruz Verde', 'opening_hours': 'Su-Fr 08:30-20:30 Sa 09:00-19:00', 'website': 'https://www.cruzverde.cl'}}"
"{'type': 'node', 'id': 11433399223, 'lat': -36.8276165, 'lon': -73.0527055, 'tags': {'addr:city': 'Concepción', 'addr:housenumber': '472', 'addr:street': 'Barros Arana', 'amenity': 'pharmacy', 'brand': 'Cruz Verde', 'brand:wikidata': 'Q5856071', 'drive_through': 'no', 'healthcare': 'pharmacy', 'name': 'Cruz Verde', 'opening_hours': 'Su-Fr 08:30-21:00; Sa 09:00-19:00;', 'website': 'https://www.cruzverde.cl/'}}"
"{'type': 'node', 'id': 11433399224, 'lat': -36.8285495, 'lon': -73.0524537, 'tags': {'addr:city': 'Concepción', 'addr:housenumber': '449', 'addr:street': ""O'Higgins"", 'amenity': 'pharmacy', 'brand': 'Cruz Verde', 'brand:wikidata': 'Q5856071', 'drive_through': 'no', 'healthcare': 'pharmacy', 'name': 'Cruz Verde', 'opening_hours': 'Su-Fr 08:30-21:00; Sa 09:00-19:00;', 'website': 'https://www.cruzverde.cl/'}}"
"{'type': 'node', 'id': 11433407989, 'lat': -36.8253388, 'lon': -73.047871, 'tags': {'addr:city': 'Concepción', 'addr:housenumber': '871', 'addr:street': 'Barros Arana', 'amenity': 'pharmacy', 'brand': 'Redfarma', 'drive_through': 'no', 'healthcare': 'pharmacy', 'name': 'Redfarma', 'opening_hours': 'Mo-Fr 09:00-20:00; Sa 09:00-19:30; Su 10:00-18:30', 'phone': '+56 41 2222241', 'website': 'https://redfarma.cl'}}"
"{'type': 'node', 'id': 11433407990, 'lat': -36.8264017, 'lon': -73.0465055, 'tags': {'addr:city': 'Concepción', 'addr:housenumber': '914', 'addr:street': ""O'Higgins"", 'amenity': 'pharmacy', 'brand': 'Redfarma', 'drive_through': 'no', 'healthcare': 'pharmacy', 'name': 'Redfarma', 'opening_hours': 'Mo-Fr 09:00-19:30; Sa 09:00-17:30', 'phone': '+56 954 155 292', 'website': 'https://redfarma.cl'}}"
"{'type': 'node', 'id': 11433407991, 'lat': -36.8245653, 'lon': -73.051138, 'tags': {'addr:city': 'Concepción', 'addr:housenumber': '695', 'addr:street': 'Aníbal Pinto', 'amenity': 'pharmacy', 'drive_through': 'no', 'healthcare': 'pharmacy', 'name': 'Redfarma', 'opening_hours': 'Mo-Fr 09:30-19:30; Sa 10:00-18:00', 'phone': '+56 41 2515448', 'website': 'https://redfarma.cl'}}"
"{'type': 'node', 'id': 11433407992, 'lat': -36.8264917, 'lon': -73.0475443, 'tags': {'addr:city': 'Concepción', 'addr:housenumber': '825', 'addr:street': ""O'Higgins"", 'amenity': 'pharmacy', 'healthcare': 'pharmacy', 'name': 'Barrio Salud'}}"
"{'type': 'node', 'id': 11433407993, 'lat': -36.8270332, 'lon': -73.0518925, 'tags': {'addr:city': 'Concepción', 'addr:housenumber': '541', 'addr:street': 'Barros Arana', 'amenity': 'pharmacy', 'brand': 'Barrio Salud', 'drive_through': 'no', 'healthcare': 'pharmacy', 'name': 'Barrio Salud', 'opening_hours': 'Mo-Fr 09:00-20:00; Sa 10:00-15:00', 'website': 'https://barriosalud.cl'}}"
"{'type': 'node', 'id': 11433407994, 'lat': -36.8270675, 'lon': -73.0524533, 'tags': {'addr:city': 'Concepción', 'addr:housenumber': '524', 'addr:street': 'Rengo', 'amenity': 'pharmacy', 'brand': 'Barrio Salud', 'drive_through': 'no', 'healthcare': 'pharmacy', 'name': 'Barrio Salud', 'opening_hours': 'Mo-Fr 09:00-19:00; Sa 10:00-15:00', 'website': 'https://barriosalud.cl'}}"
"{'type': 'node', 'id': 11433407995, 'lat': -36.8253509, 'lon': -73.0504046, 'tags': {'addr:city': 'Concepción', 'addr:housenumber': '598', 'addr:street': 'Aníbal Pinto', 'amenity': 'pharmacy', 'brand': 'Barrio Salud', 'drive_through': 'no', 'healthcare': 'pharmacy', 'name': 'Barrio Salud', 'opening_hours': 'Mo-Fr 09:00-19:00; Sa 10:00-15:00', 'website': 'https://barriosalud.cl'}}"
"{'type': 'node', 'id': 11446371711, 'lat': -36.8099042, 'lon': -73.0541039, 'tags': {'addr:city': 'Concepción', 'addr:country': 'CL', 'addr:housenumber': '1060', 'addr:street': 'Juan de Dios Rivera', 'alt_name': 'Servicio de Urgencia de Alta Resolución Tucapel', 'amenity': 'doctors', 'emergency': 'yes', 'healthcare': 'clinic', 'name': 'SAR Tucapel', 'official_name': 'Servicio de Urgencia de Alta Resolución Tucapel', 'phone': '(41) 2449401 – 2449403', 'wheelchair': 'yes'}}"
"{'type': 'node', 'id': 11506315443, 'lat': -36.5782744, 'lon': -72.7620868, 'tags': {'amenity': 'doctors', 'healthcare': 'doctor', 'healthcare:speciality': 'emergency', 'name': 'Posta de Salud Rural Ranguelmo'}}"
"{'type': 'node', 'id': 11506324944, 'lat': -36.5907883, 'lon': -71.7651184, 'tags': {'amenity': 'doctors', 'healthcare': 'doctor', 'healthcare:speciality': 'emergency', 'name': 'Posta de Salud Rural Bustamante'}}"
"{'type': 'node', 'id': 11506334824, 'lat': -36.6080229, 'lon': -72.2610469, 'tags': {'amenity': 'doctors', 'healthcare': 'doctor', 'healthcare:speciality': 'emergency', 'name': 'Posta de Salud Rural Huape'}}"
"{'type': 'node', 'id': 11506337986, 'lat': -36.6078765, 'lon': -71.9280297, 'tags': {'amenity': 'doctors', 'healthcare': 'doctor', 'healthcare:speciality': 'emergency', 'name': 'Posta de Salud Rural Talquipén'}}"
"{'type': 'node', 'id': 11506342189, 'lat': -36.3978967, 'lon': -71.8434007, 'tags': {'amenity': 'doctors', 'healthcare': 'doctor', 'healthcare:speciality': 'emergency', 'name': 'Posta de Salud Rural La Gloria'}}"
"{'type': 'node', 'id': 11506353912, 'lat': -36.6476893, 'lon': -72.2230043, 'tags': {'amenity': 'doctors', 'healthcare': 'doctor', 'healthcare:speciality': 'emergency', 'name': 'Posta de Salud Rural Nebuco'}}"
"{'type': 'node', 'id': 11506353926, 'lat': -36.9780464, 'lon': -72.0904142, 'tags': {'amenity': 'doctors', 'healthcare': 'doctor', 'healthcare:speciality': 'emergency', 'name': 'Posta de Salud Rural Cartago'}}"
"{'type': 'node', 'id': 11506357114, 'lat': -36.6912189, 'lon': -71.8413577, 'tags': {'amenity': 'doctors', 'healthcare': 'doctor', 'healthcare:speciality': 'emergency', 'name': 'Posta de Salud Rural Tanilvoro'}}"
"{'type': 'node', 'id': 11506363786, 'lat': -36.8960078, 'lon': -71.7750461, 'tags': {'amenity': 'doctors', 'healthcare': 'doctor', 'healthcare:speciality': 'emergency', 'name': 'Posta de Salud Rural Agua Santa'}}"
"{'type': 'node', 'id': 11506371123, 'lat': -36.3662922, 'lon': -71.7721795, 'tags': {'amenity': 'doctors', 'healthcare': 'doctor', 'healthcare:speciality': 'emergency', 'name': 'Posta de Salud Rural Chacay (Ñiquén)'}}"
"{'type': 'node', 'id': 11506377694, 'lat': -36.7375545, 'lon': -72.3092685, 'tags': {'amenity': 'doctors', 'healthcare': 'doctor', 'healthcare:speciality': 'emergency', 'name': 'Posta de Salud Rural Las Raíces'}}"
"{'type': 'node', 'id': 11506383878, 'lat': -36.5025161, 'lon': -71.9119169, 'tags': {'amenity': 'doctors', 'healthcare': 'doctor', 'healthcare:speciality': 'emergency', 'name': 'Posta de Salud Rural Monte Blanco'}}"
"{'type': 'node', 'id': 11506387909, 'lat': -36.4717865, 'lon': -72.610291, 'tags': {'amenity': 'doctors', 'healthcare': 'doctor', 'healthcare:speciality': 'emergency', 'name': 'Posta de Salud Rural Minas de Leuque'}}"
"{'type': 'node', 'id': 11506388839, 'lat': -36.6544047, 'lon': -72.4587122, 'tags': {'amenity': 'doctors', 'healthcare': 'doctor', 'healthcare:speciality': 'emergency', 'name': 'Posta de Salud Rural Nueva Aldea'}}"
"{'type': 'node', 'id': 11506406053, 'lat': -36.8996868, 'lon': -72.0300541, 'tags': {'amenity': 'doctors', 'healthcare': 'doctor', 'healthcare:speciality': 'emergency', 'name': 'Posta de Salud Rural San Vicente (El Carmen)'}}"
"{'type': 'node', 'id': 11506406629, 'lat': -36.4971415, 'lon': -72.6636306, 'tags': {'amenity': 'doctors', 'healthcare': 'doctor', 'healthcare:speciality': 'emergency', 'name': 'Posta de Salud Rural Denecan'}}"
"{'type': 'node', 'id': 11506414411, 'lat': -36.9375295, 'lon': -72.3515721, 'tags': {'amenity': 'doctors', 'healthcare': 'doctor', 'healthcare:speciality': 'emergency', 'name': 'Posta de Salud Rural Gral. Cruz'}}"
"{'type': 'node', 'id': 11506415024, 'lat': -36.4691992, 'lon': -72.3884095, 'tags': {'amenity': 'doctors', 'healthcare': 'doctor', 'healthcare:speciality': 'emergency', 'name': 'Posta de Salud Rural El Sauce (Ninhue)'}}"
"{'type': 'node', 'id': 11506415372, 'lat': -36.9322707, 'lon': -71.8692702, 'tags': {'amenity': 'doctors', 'healthcare': 'doctor', 'healthcare:speciality': 'emergency', 'name': 'Posta de Salud Rural Trehualemu'}}"
"{'type': 'node', 'id': 11506415563, 'lat': -36.8322564, 'lon': -72.431522, 'tags': {'amenity': 'doctors', 'healthcare': 'doctor', 'healthcare:speciality': 'emergency', 'name': 'Posta de Salud Rural Casino'}}"
"{'type': 'node', 'id': 11506427068, 'lat': -36.5151768, 'lon': -72.7082377, 'tags': {'amenity': 'doctors', 'healthcare': 'doctor', 'healthcare:speciality': 'emergency', 'name': 'Posta de Salud Rural Guarilihue'}}"
"{'type': 'node', 'id': 11506433643, 'lat': -36.8932392, 'lon': -72.4293927, 'tags': {'amenity': 'doctors', 'healthcare': 'doctor', 'healthcare:speciality': 'emergency', 'name': 'Posta de Salud Rural Liucura Alto'}}"
"{'type': 'node', 'id': 11506468719, 'lat': -36.9178907, 'lon': -71.8055198, 'tags': {'amenity': 'doctors', 'healthcare': 'doctor', 'healthcare:speciality': 'emergency', 'name': 'Posta de Salud Rural Capilla Norte'}}"
"{'type': 'node', 'id': 11506469265, 'lat': -36.9533961, 'lon': -71.7860169, 'tags': {'amenity': 'doctors', 'healthcare': 'doctor', 'healthcare:speciality': 'emergency', 'name': 'Posta de Salud Rural Capilla Sur'}}"
"{'type': 'node', 'id': 11506470191, 'lat': -36.7379021, 'lon': -72.4933524, 'tags': {'amenity': 'doctors', 'healthcare': 'doctor', 'healthcare:speciality': 'emergency', 'name': 'Posta de Salud Rural Juan Enrique Mora'}}"
"{'type': 'node', 'id': 11506478410, 'lat': -36.6265006, 'lon': -72.6043249, 'tags': {'amenity': 'doctors', 'healthcare': 'doctor', 'healthcare:speciality': 'emergency', 'name': 'Posta de Salud Rural San Ignacio Palomares'}}"
"{'type': 'node', 'id': 11506479381, 'lat': -37.1017692, 'lon': -71.8099034, 'tags': {'amenity': 'doctors', 'healthcare': 'doctor', 'healthcare:speciality': 'emergency', 'name': 'Posta de Salud Rural San Antonio (Yungay)'}}"
"{'type': 'node', 'id': 11506491393, 'lat': -36.8464149, 'lon': -71.9010195, 'tags': {'amenity': 'doctors', 'healthcare': 'doctor', 'healthcare:speciality': 'emergency', 'name': 'Posta de Salud Rural El Calvario'}}"
"{'type': 'node', 'id': 11506493670, 'lat': -36.4704994, 'lon': -72.5198939, 'tags': {'amenity': 'doctors', 'healthcare': 'doctor', 'healthcare:speciality': 'emergency', 'name': 'Posta de Salud Rural Capellanía'}}"
"{'type': 'node', 'id': 11506499472, 'lat': -36.3992394, 'lon': -71.7385085, 'tags': {'amenity': 'doctors', 'healthcare': 'doctor', 'healthcare:speciality': 'emergency', 'name': 'Posta de Salud Rural Zemita'}}"
"{'type': 'node', 'id': 11506508482, 'lat': -36.9186389, 'lon': -72.5543343, 'tags': {'amenity': 'doctors', 'healthcare': 'doctor', 'healthcare:speciality': 'emergency', 'name': 'Posta de Salud Rural Chancal'}}"
"{'type': 'node', 'id': 11506532176, 'lat': -36.9887311, 'lon': -71.8496679, 'tags': {'amenity': 'doctors', 'healthcare': 'doctor', 'healthcare:speciality': 'emergency', 'name': 'Posta de Salud Rural Chamizal'}}"
"{'type': 'node', 'id': 11506856199, 'lat': -36.7660062, 'lon': -72.7217573, 'tags': {'addr:city': 'Florida', 'amenity': 'doctors', 'healthcare': 'doctor', 'name': 'Posta de Salud Rural Manco'}}"
"{'type': 'node', 'id': 11506863791, 'lat': -36.8010708, 'lon': -72.8231727, 'tags': {'addr:city': 'Florida', 'amenity': 'doctors', 'healthcare': 'doctor', 'name': 'Posta de Salud Rural Roa'}}"
"{'type': 'node', 'id': 11506866268, 'lat': -37.1618551, 'lon': -72.9121091, 'tags': {'addr:city': 'Hualqui', 'amenity': 'doctors', 'healthcare': 'doctor', 'name': 'Posta de Salud Rural Talcamávida'}}"
"{'type': 'node', 'id': 11506871659, 'lat': -36.5549331, 'lon': -72.8647087, 'tags': {'addr:city': 'Tome', 'amenity': 'doctors', 'healthcare': 'doctor', 'name': 'Posta de Salud Rural Menque'}}"
"{'type': 'node', 'id': 11506873584, 'lat': -36.8969237, 'lon': -72.8056013, 'tags': {'addr:city': 'Florida', 'amenity': 'doctors', 'healthcare': 'doctor', 'name': 'Posta de Salud Rural Copiulemu'}}"
"{'type': 'node', 'id': 11506886777, 'lat': -36.925103, 'lon': -72.6823027, 'tags': {'addr:city': 'Florida', 'amenity': 'doctors', 'healthcare': 'doctor', 'name': 'Posta de Salud Rural Cancha Los Monteros'}}"
"{'type': 'node', 'id': 11506891628, 'lat': -36.7082315, 'lon': -72.67663, 'tags': {'addr:city': 'Florida', 'amenity': 'doctors', 'healthcare': 'doctor', 'name': 'Posta de Salud Rural Granerillos'}}"
"{'type': 'node', 'id': 11506892317, 'lat': -37.5664608, 'lon': -72.171313, 'tags': {'addr:city': 'Los angeles', 'amenity': 'doctors', 'healthcare': 'doctor', 'name': 'Posta de Salud Rural Llano Blanco'}}"
"{'type': 'node', 'id': 11506895822, 'lat': -36.6289679, 'lon': -72.7910715, 'tags': {'addr:city': 'Tome', 'amenity': 'doctors', 'healthcare': 'doctor', 'name': 'Posta de Salud Rural Rafael'}}"
"{'type': 'node', 'id': 11506895823, 'lat': -36.556108, 'lon': -72.9583083, 'tags': {'addr:city': 'Tomé', 'amenity': 'doctors', 'healthcare': 'doctor', 'name': 'Posta de Salud Rural Coliumo'}}"
"{'type': 'node', 'id': 11506895824, 'lat': -37.3464463, 'lon': -72.1529849, 'tags': {'addr:city': 'Los Angeles', 'amenity': 'doctors', 'healthcare': 'doctor', 'name': 'Posta de Salud Rural El Durazno'}}"
"{'type': 'node', 'id': 11506896221, 'lat': -37.3958811, 'lon': -72.6210051, 'tags': {'addr:city': 'Los Angeles', 'amenity': 'doctors', 'healthcare': 'doctor', 'name': 'Posta de Salud Rural Millantú'}}"
"{'type': 'node', 'id': 11506897266, 'lat': -37.4106632, 'lon': -72.5355331, 'tags': {'addr:city': 'Los Angeles', 'amenity': 'doctors', 'healthcare': 'doctor', 'name': 'Posta de Salud Rural Los Robles'}}"
"{'type': 'node', 'id': 11506904986, 'lat': -37.3826183, 'lon': -72.2072311, 'tags': {'addr:city': 'Los Angeles', 'amenity': 'doctors', 'healthcare': 'doctor', 'name': 'Posta de Salud Rural San Gerardo'}}"
"{'type': 'node', 'id': 11506905256, 'lat': -37.3661309, 'lon': -72.096768, 'tags': {'addr:city': 'Los Angeles', 'amenity': 'doctors', 'healthcare': 'doctor', 'name': 'Posta de Salud Rural Alborada'}}"
"{'type': 'node', 'id': 11506906748, 'lat': -37.2724944, 'lon': -72.1899109, 'tags': {'addr:city': 'Los Angeles', 'amenity': 'doctors', 'healthcare': 'doctor', 'name': 'Posta de Salud Rural Los Molinos'}}"
"{'type': 'node', 'id': 11506906951, 'lat': -37.2760009, 'lon': -72.427611, 'tags': {'addr:city': 'Los Angeles', 'amenity': 'doctors', 'healthcare': 'doctor', 'name': 'Posta de Salud Rural Los Troncos'}}"
"{'type': 'node', 'id': 11506912163, 'lat': -37.2186052, 'lon': -72.3787795, 'tags': {'addr:city': 'Los Ángeles', 'amenity': 'doctors', 'healthcare': 'doctor', 'name': 'Posta de Salud Rural Salto del Laja'}}"
"{'type': 'node', 'id': 11506917390, 'lat': -37.2997824, 'lon': -72.2801436, 'tags': {'addr:city': 'Los Angeles', 'amenity': 'doctors', 'healthcare': 'doctor', 'name': 'Posta de Salud Rural Dicahue'}}"
"{'type': 'node', 'id': 11506994268, 'lat': -37.2884489, 'lon': -72.5912473, 'tags': {'addr:city': 'Laja', 'amenity': 'doctors', 'healthcare': 'doctor', 'name': 'Posta de Salud Rural La Colonia'}}"
"{'type': 'node', 'id': 11507002762, 'lat': -37.3492621, 'lon': -72.5344655, 'tags': {'addr:city': 'Laja', 'amenity': 'doctors', 'healthcare': 'doctor', 'name': 'Posta de Salud Rural Santa Elena'}}"
"{'type': 'node', 'id': 11507003943, 'lat': -37.2294108, 'lon': -72.6527016, 'tags': {'addr:city': 'San Rosendo', 'amenity': 'doctors', 'healthcare': 'doctor', 'name': 'Posta de Salud Rural Turquía'}}"
"{'type': 'node', 'id': 11507034313, 'lat': -37.2463645, 'lon': -72.5314413, 'tags': {'addr:city': 'Laja', 'amenity': 'doctors', 'healthcare': 'doctor', 'name': 'Posta de Salud Rural Puente Perales'}}"
"{'type': 'node', 'id': 11507047810, 'lat': -37.2089095, 'lon': -71.9067628, 'tags': {'addr:city': 'Tucapel', 'amenity': 'doctors', 'healthcare': 'doctor', 'name': 'Posta de Salud Rural Rucamanqui'}}"
"{'type': 'node', 'id': 11507061944, 'lat': -37.6834776, 'lon': -72.0063606, 'tags': {'addr:city': 'Quilaco', 'amenity': 'doctors', 'healthcare': 'doctor', 'name': 'Posta de Salud Rural Quilaco'}}"
"{'type': 'node', 'id': 11507088971, 'lat': -37.1322925, 'lon': -72.7241386, 'tags': {'addr:city': 'Yumbel', 'amenity': 'doctors', 'healthcare': 'doctor', 'name': 'Posta de Salud Rural Rere'}}"
"{'type': 'node', 'id': 11507106165, 'lat': -37.2027536, 'lon': -72.3503159, 'tags': {'addr:city': 'Cabrero', 'amenity': 'doctors', 'healthcare': 'doctor', 'name': 'Posta de Salud Rural Chillancito'}}"
"{'type': 'node', 'id': 11507127456, 'lat': -37.209024, 'lon': -72.4356341, 'tags': {'addr:city': 'Yumbel', 'amenity': 'doctors', 'healthcare': 'doctor', 'name': 'Posta de Salud Rural La Aguada'}}"
"{'type': 'node', 'id': 11507131558, 'lat': -37.0339589, 'lon': -72.2766463, 'tags': {'addr:city': 'Cabrero', 'amenity': 'doctors', 'healthcare': 'doctor', 'name': 'Posta de Salud Rural Colicheu'}}"
"{'type': 'node', 'id': 11507137652, 'lat': -37.2027201, 'lon': -72.6204362, 'tags': {'addr:city': 'Yumbel', 'amenity': 'doctors', 'healthcare': 'doctor', 'name': 'Posta de Salud Rural Río Claro'}}"
"{'type': 'node', 'id': 11507137653, 'lat': -36.9206536, 'lon': -72.4679965, 'tags': {'addr:city': 'Cabrero', 'amenity': 'doctors', 'healthcare': 'doctor', 'name': 'Posta de Salud Rural Quinel'}}"
"{'type': 'node', 'id': 11507138651, 'lat': -37.6664863, 'lon': -72.0169236, 'tags': {'addr:city': 'Santa Barbara', 'amenity': 'doctors', 'healthcare': 'doctor', 'name': 'Posta de Salud Rural Los Boldos'}}"
"{'type': 'node', 'id': 11507142081, 'lat': -37.5020972, 'lon': -72.0908967, 'tags': {'addr:city': 'Quilleco', 'amenity': 'doctors', 'healthcare': 'doctor', 'name': 'Posta de Salud Rural Río Pardo'}}"
"{'type': 'node', 'id': 11507145980, 'lat': -36.9875623, 'lon': -72.6239034, 'tags': {'addr:city': 'Yumbel', 'amenity': 'doctors', 'healthcare': 'doctor', 'name': 'Posta de Salud Rural Tomeco'}}"
"{'type': 'node', 'id': 11508411563, 'lat': -37.6357197, 'lon': -72.4557713, 'tags': {'addr:city': 'Mulchen', 'amenity': 'doctors', 'healthcare': 'doctor', 'name': 'Posta de Salud Rural Rapelco'}}"
"{'type': 'node', 'id': 11508423313, 'lat': -37.4661395, 'lon': -72.4996434, 'tags': {'addr:city': 'Los Angeles', 'amenity': 'doctors', 'healthcare': 'doctor', 'name': 'Posta de Salud Rural Virquenco'}}"
"{'type': 'node', 'id': 11635419789, 'lat': -37.0835041, 'lon': -72.4390627, 'tags': {'addr:housenumber': '95', 'addr:street': 'Zañartu', 'amenity': 'pharmacy', 'check_date': '2024-02-17', 'healthcare': 'pharmacy', 'level': '0', 'name': 'Farmacia'}}"
"{'type': 'node', 'id': 11635419791, 'lat': -37.0834714, 'lon': -72.4390257, 'tags': {'addr:housenumber': '95', 'addr:street': 'Zañartu', 'amenity': 'dentist', 'check_date': '2024-02-17', 'healthcare': 'dentist', 'level': '1'}}"
"{'type': 'node', 'id': 11961771346, 'lat': -36.8179088, 'lon': -73.0325455, 'tags': {'addr:city': 'Concepción', 'addr:housenumber': '2084', 'addr:street': 'Avenida San Juan Bosco', 'amenity': 'pharmacy', 'brand': 'Farmacias Ahumada', 'brand:wikidata': 'Q5856069', 'contact:facebook': 'https://www.facebook.com/farmaciasahumadacl/', 'dispensing': 'yes', 'drive_through': 'no', 'healthcare': 'pharmacy', 'name': 'Farmacias Ahumada', 'opening_hours': 'Mo-Fr 08:00-20:30; Sa 08:00-20:30; Su 08:30-19:00', 'website': 'https://www.farmaciasahumada.cl'}}"
"{'type': 'node', 'id': 11963333830, 'lat': -37.4462464, 'lon': -72.1245007, 'tags': {'amenity': 'doctors', 'healthcare': 'doctor', 'name': 'Posta de Salud Rural Chacayal Sur'}}"
"{'type': 'node', 'id': 11964942725, 'lat': -36.8283939, 'lon': -73.05516, 'tags': {'addr:city': 'Concepción', 'addr:housenumber': '289', 'addr:street': 'Barros Arana', 'amenity': 'pharmacy', 'drive_through': 'no', 'healthcare': 'pharmacy', 'name': 'Setop Pharma', 'phone': '+56 412 522 270'}}"
"{'type': 'node', 'id': 11965046045, 'lat': -36.8283758, 'lon': -73.0534615, 'tags': {'addr:city': 'Concepción', 'addr:housenumber': '461', 'addr:street': 'Lincoyán', 'amenity': 'pharmacy', 'healthcare': 'pharmacy', 'name': 'Farmacia DeltaSalud'}}"
"{'type': 'node', 'id': 11967475483, 'lat': -36.7924762, 'lon': -73.0442918, 'tags': {'addr:city': 'Concepción', 'addr:street': 'José Toribio Medina', 'amenity': 'doctors', 'healthcare': 'doctor', 'healthcare:speciality': 'emergency', 'name': 'SAPU Santa Sabina'}}"
"{'type': 'node', 'id': 11967717056, 'lat': -37.4571432, 'lon': -72.3427884, 'tags': {'addr:city': 'Biobio', 'addr:street': 'Morse', 'amenity': 'doctors', 'healthcare': 'doctor', 'healthcare:speciality': 'emergency', 'name': 'SAPU Nororiente'}}"
"{'type': 'node', 'id': 11973912439, 'lat': -36.5972872, 'lon': -72.1010751, 'tags': {'addr:city': 'Chillán', 'addr:street': 'Avenida Padre Alberto Hurtado', 'amenity': 'clinic', 'healthcare': 'clinic', 'name': 'CECOSF Padre Hurtado'}}"
"{'type': 'node', 'id': 11978098110, 'lat': -36.6005992, 'lon': -72.3908178, 'tags': {'amenity': 'doctors', 'healthcare': 'doctor', 'name': 'Posta de Salud Rural Cucha Cox'}}"
"{'type': 'node', 'id': 11978106733, 'lat': -36.8969719, 'lon': -71.8154432, 'tags': {'amenity': 'doctors', 'healthcare': 'doctor', 'name': 'Posta de Salud Rural Huemul'}}"
"{'type': 'node', 'id': 11978113549, 'lat': -36.8712292, 'lon': -71.7417302, 'tags': {'amenity': 'doctors', 'healthcare': 'doctor', 'name': 'Posta de Salud Rural Las Hormigas'}}"
"{'type': 'node', 'id': 11978125701, 'lat': -36.7725408, 'lon': -71.8203524, 'tags': {'amenity': 'doctors', 'healthcare': 'doctor', 'name': 'Posta de Salud Rural Ciruelito'}}"
"{'type': 'node', 'id': 11978140075, 'lat': -36.9778943, 'lon': -71.7992708, 'tags': {'amenity': 'doctors', 'healthcare': 'doctor', 'name': 'Posta de Salud Rural Castañal'}}"
"{'type': 'node', 'id': 12295228543, 'lat': -36.7430405, 'lon': -72.4733274, 'tags': {'amenity': 'pharmacy', 'brand': 'Farmacias del Dr. Simi', 'brand:wikidata': 'Q62564610', 'healthcare': 'pharmacy', 'name': 'Farmacias del Dr. Simi'}}"
"{'type': 'node', 'id': 12429503714, 'lat': -37.4691809, 'lon': -72.3494708, 'tags': {'addr:housenumber': '197', 'addr:street': 'Colo Colo', 'amenity': 'pharmacy', 'name': 'Farmacia Alfa', 'opening_hours': 'Mo-Sa 09:00-19:00'}}"
"{'type': 'node', 'id': 12442361021, 'lat': -36.3927244, 'lon': -72.39823, 'tags': {'addr:city': 'Ninhue', 'addr:housenumber': '309', 'addr:street': ""Libertador Bernardo O'Higgins"", 'amenity': 'pharmacy', 'healthcare': 'pharmacy', 'name': 'Nuevo Comienzo'}}"
