OSM_Data
"{'type': 'node', 'id': 2296573287, 'lat': -25.0165378, 'lon': -47.9372595, 'tags': {'amenity': 'hospital', 'name': 'Pronto Socorro'}}"
"{'type': 'node', 'id': 2301077764, 'lat': -24.7108287, 'lon': -47.5582568, 'tags': {'amenity': 'pharmacy', 'healthcare': 'pharmacy', 'name': 'Farmayelen'}}"
"{'type': 'node', 'id': 2301080499, 'lat': -24.7112257, 'lon': -47.5593852, 'tags': {'addr:housenumber': '40', 'addr:postcode': '11920-000', 'addr:street': 'Rua dos Estudantes', 'amenity': 'hospital', 'healthcare': 'hospital', 'name': 'Unidade Mista de Saúde', 'operator:ref:vatin': 'BR45550167000164', 'ref:CNES': '2081857'}}"
"{'type': 'node', 'id': 2301081181, 'lat': -24.7109871, 'lon': -47.559555, 'tags': {'amenity': 'hospital', 'healthcare': 'hospital', 'name': 'Pronto Socorro'}}"
"{'type': 'node', 'id': 2544980227, 'lat': -24.0987935, 'lon': -48.3653979, 'tags': {'amenity': 'pharmacy', 'dispensing': 'yes', 'healthcare': 'pharmacy', 'name': 'Drogaria do Camilo'}}"
"{'type': 'node', 'id': 2630211807, 'lat': -25.297579, 'lon': -48.326997, 'tags': {'addr:city': 'Guaraqueçaba', 'addr:housenumber': '47', 'addr:postcode': '83.390-000', 'addr:street': 'Avenida Maria Carolina de Lisboa', 'amenity': 'pharmacy', 'atm': 'yes', 'dispensing': 'no', 'drive_through': 'no', 'internet_access': 'no', 'name': 'Guaraquefarma', 'phone': '+55 41 3482-1495'}}"
"{'type': 'node', 'id': 2695672516, 'lat': -24.7173136, 'lon': -47.8791963, 'tags': {'amenity': 'hospital'}}"
"{'type': 'node', 'id': 2702036489, 'lat': -24.7164365, 'lon': -47.8791497, 'tags': {'amenity': 'hospital'}}"
"{'type': 'node', 'id': 2702059014, 'lat': -24.7037742, 'lon': -47.5597562, 'tags': {'amenity': 'pharmacy', 'healthcare': 'pharmacy', 'name': 'Farmelhor'}}"
"{'type': 'node', 'id': 2702059015, 'lat': -24.7042536, 'lon': -47.5596448, 'tags': {'amenity': 'pharmacy', 'healthcare': 'pharmacy'}}"
"{'type': 'node', 'id': 2702060445, 'lat': -24.7022456, 'lon': -47.5608268, 'tags': {'amenity': 'pharmacy', 'healthcare': 'pharmacy'}}"
"{'type': 'node', 'id': 2702087711, 'lat': -24.7301129, 'lon': -48.1088083, 'tags': {'amenity': 'pharmacy', 'healthcare': 'pharmacy'}}"
"{'type': 'node', 'id': 3097297278, 'lat': -24.727476, 'lon': -47.5345907, 'tags': {'addr:postcode': '11925-000', 'addr:street': 'Avenida São Paulo', 'amenity': 'hospital', 'healthcare': 'hospital', 'operator:ref:vatin': 'BR64037872000107', 'phone': '+55 13 3842 1629', 'ref:CNES': '2041529'}}"
"{'type': 'node', 'id': 3114847327, 'lat': -24.1734519, 'lon': -48.5065027, 'tags': {'amenity': 'pharmacy', 'dispensing': 'no'}}"
"{'type': 'node', 'id': 3469576413, 'lat': -25.0080168, 'lon': -47.9310243, 'tags': {'amenity': 'pharmacy'}}"
"{'type': 'node', 'id': 3469589054, 'lat': -25.0116822, 'lon': -47.9296189, 'tags': {'amenity': 'pharmacy', 'name': 'Laboratório Laborclin'}}"
"{'type': 'node', 'id': 3469590861, 'lat': -25.0105447, 'lon': -47.9300588, 'tags': {'amenity': 'pharmacy'}}"
"{'type': 'node', 'id': 3469648695, 'lat': -25.0135762, 'lon': -47.9280605, 'tags': {'amenity': 'hospital', 'name': 'Santa Casa'}}"
"{'type': 'node', 'id': 3499084972, 'lat': -25.0113606, 'lon': -47.9396532, 'tags': {'amenity': 'hospital'}}"
"{'type': 'node', 'id': 3499110820, 'lat': -25.019333, 'lon': -47.9352758, 'tags': {'amenity': 'hospital'}}"
"{'type': 'node', 'id': 3785388733, 'lat': -24.7053329, 'lon': -47.5573039, 'tags': {'healthcare': 'laboratory', 'name': 'Prolab Análises Clínicas'}}"
"{'type': 'node', 'id': 3928762854, 'lat': -24.5041132, 'lon': -47.841061, 'tags': {'amenity': 'clinic', 'name': 'Vitara'}}"
"{'type': 'node', 'id': 5022912135, 'lat': -24.1852744, 'lon': -48.5332074, 'tags': {'amenity': 'pharmacy', 'healthcare': 'pharmacy', 'name': 'Medfarma'}}"
"{'type': 'node', 'id': 6417144188, 'lat': -24.2861357, 'lon': -47.4583145, 'tags': {'amenity': 'pharmacy', 'dispensing': 'yes', 'healthcare': 'pharmacy'}}"
"{'type': 'node', 'id': 7198979185, 'lat': -24.5858191, 'lon': -48.5946978, 'tags': {'amenity': 'hospital', 'healthcare': 'hospital', 'name': 'Unidade Básica de Saúde'}}"
"{'type': 'node', 'id': 8312977691, 'lat': -24.2209422, 'lon': -48.7656555, 'tags': {'amenity': 'pharmacy', 'dispensing': 'yes', 'healthcare': 'pharmacy', 'name': 'Drogaria Socorro'}}"
"{'type': 'node', 'id': 8312980108, 'lat': -24.221185, 'lon': -48.7661446, 'tags': {'amenity': 'pharmacy', 'dispensing': 'yes', 'healthcare': 'pharmacy', 'name': 'Drogaria Janeiro'}}"
"{'type': 'node', 'id': 10582543936, 'lat': -25.2558868, 'lon': -48.7379279, 'tags': {'amenity': 'clinic', 'healthcare': 'clinic', 'name': 'Posto de Saúde Nice Alcântara Machado'}}"
"{'type': 'node', 'id': 10785812839, 'lat': -25.0848464, 'lon': -48.60215, 'tags': {'addr:housenumber': 'km 5', 'addr:street': 'Rodovia Régis Bittencourt', 'addr:suburb': 'Rio do Cedro', 'amenity': 'clinic', 'healthcare': 'clinic', 'name': 'Unidade de Apoio Divisa', 'operator:type': 'public'}}"
"{'type': 'node', 'id': 10957924667, 'lat': -25.2293754, 'lon': -48.7503541, 'tags': {'amenity': 'clinic', 'healthcare': 'clinic', 'name': 'UBS do Bairro Alto'}}"
"{'type': 'node', 'id': 11004575887, 'lat': -24.7328198, 'lon': -47.8230916, 'tags': {'addr:city': 'Pariquera Açu', 'addr:postcode': '11930000', 'addr:street': 'Rodovia Ivo Zanella', 'addr:suburb': 'Pariquera Mirim', 'amenity': 'clinic', 'healthcare': 'clinic', 'name': 'UBS PARIQUERA MIRIM'}}"
