OSM_Data
"{'type': 'node', 'id': 1710699166, 'lat': -17.7412366, 'lon': -48.6166678, 'tags': {'amenity': 'hospital', 'name': 'Hospital Municipal'}}"
"{'type': 'node', 'id': 1710752716, 'lat': -17.7475823, 'lon': -48.6196987, 'tags': {'amenity': 'pharmacy'}}"
"{'type': 'node', 'id': 1710752750, 'lat': -17.7477509, 'lon': -48.6196075, 'tags': {'amenity': 'pharmacy'}}"
"{'type': 'node', 'id': 1710752756, 'lat': -17.7411957, 'lon': -48.6170755, 'tags': {'amenity': 'pharmacy'}}"
"{'type': 'node', 'id': 1710752768, 'lat': -17.7481443, 'lon': -48.6191032, 'tags': {'amenity': 'pharmacy'}}"
"{'type': 'node', 'id': 1710752771, 'lat': -17.7441182, 'lon': -48.6302559, 'tags': {'addr:housenumber': '13', 'addr:postcode': '75680-072', 'addr:street': 'Rua Eça de Queirós', 'amenity': 'hospital', 'fax': '+55 64 3453 7690', 'healthcare': 'hospital', 'name': 'Hospital e Maternidade Nossa Senhora', 'phone': '+55 64 3453 1290', 'ref:CNES': '2570823', 'ref:vatin': 'BR02147775000110'}}"
"{'type': 'node', 'id': 1710752774, 'lat': -17.7424117, 'lon': -48.6238186, 'tags': {'amenity': 'pharmacy'}}"
"{'type': 'node', 'id': 1710752776, 'lat': -17.7423453, 'lon': -48.6258302, 'tags': {'amenity': 'pharmacy'}}"
"{'type': 'node', 'id': 1710752780, 'lat': -17.7413081, 'lon': -48.6253045, 'tags': {'amenity': 'pharmacy'}}"
"{'type': 'node', 'id': 1710752795, 'lat': -17.7446649, 'lon': -48.6214636, 'tags': {'amenity': 'pharmacy'}}"
"{'type': 'node', 'id': 1710752802, 'lat': -17.7422074, 'lon': -48.6236684, 'tags': {'amenity': 'pharmacy'}}"
"{'type': 'node', 'id': 1710752806, 'lat': -17.7443277, 'lon': -48.6183444, 'tags': {'amenity': 'pharmacy'}}"
"{'type': 'node', 'id': 1710752808, 'lat': -17.7416607, 'lon': -48.6244569, 'tags': {'amenity': 'pharmacy'}}"
"{'type': 'node', 'id': 1710752818, 'lat': -17.7409505, 'lon': -48.616523, 'tags': {'amenity': 'pharmacy'}}"
"{'type': 'node', 'id': 2078383577, 'lat': -17.7430611, 'lon': -48.6267856, 'tags': {'amenity': 'pharmacy', 'name': 'Drogaria Drogavida'}}"
"{'type': 'node', 'id': 2078393412, 'lat': -17.7428107, 'lon': -48.6251684, 'tags': {'amenity': 'pharmacy', 'name': 'Drogaria Bem Estar'}}"
"{'type': 'node', 'id': 2925771206, 'lat': -17.7465756, 'lon': -48.627909, 'tags': {'addr:city': 'Caldas Novas', 'addr:postcode': '75690-000', 'amenity': 'hospital', 'name': 'UPA - Unidade de Pronto Atendimento'}}"
"{'type': 'node', 'id': 2925771208, 'lat': -17.7472801, 'lon': -48.6285779, 'tags': {'addr:city': 'Caldas Novas', 'addr:housenumber': '600', 'addr:postcode': '75680-210', 'addr:street': 'Rua Doutor Ciro Palmerston', 'amenity': 'hospital', 'healthcare': 'hospital', 'name': 'Centro Médico Municipal', 'ref:CNES': '3893227'}}"
"{'type': 'node', 'id': 3191642218, 'lat': -18.4170196, 'lon': -49.216669, 'tags': {'addr:housenumber': '335', 'addr:postcode': '75503-520', 'addr:street': 'Praça da Bandeira', 'addr:suburb': 'Centro', 'amenity': 'hospital', 'healthcare': 'hospital', 'name': 'Hospital Santa Maria', 'phone': '+55 64 3431 8000', 'ref:CNES': '2589281', 'ref:vatin': 'BR02197747000107'}}"
"{'type': 'node', 'id': 3483080334, 'lat': -17.7227908, 'lon': -48.1649359, 'tags': {'addr:housenumber': '29', 'addr:postcode': '75780-000', 'addr:street': 'Rua Intendente José Vaz', 'addr:suburb': 'Centro', 'amenity': 'hospital', 'email': 'hsaopaulo@hotmail.com', 'healthcare': 'hospital', 'name': 'Hospital São Paulo', 'ref:CNES': '2442531', 'ref:vatin': 'BR01916808000186'}}"
"{'type': 'node', 'id': 4106696113, 'lat': -17.7211947, 'lon': -48.1638727, 'tags': {'addr:city': 'Ipameri', 'addr:housenumber': '7', 'addr:postcode': '75780-000', 'addr:street': 'Avenida Doutor Gomes da Frota', 'addr:suburb': 'Centro', 'amenity': 'hospital', 'emergency': 'yes', 'name': 'Pronto Socorro Mun. de Ipameri', 'operator': 'Prefeitura Municipal de Ipameri'}}"
"{'type': 'node', 'id': 6413312892, 'lat': -18.1349629, 'lon': -48.0847591, 'tags': {'addr:housenumber': '21', 'addr:postcode': '75740-000', 'addr:street': 'Rua José Alves Porto', 'addr:suburb': 'Centro', 'amenity': 'hospital', 'healthcare': 'hospital', 'name': 'Hospital e Maternidade de Goiandira', 'phone': '+55 64 3462 1380', 'ref:CNES': '2441799', 'ref:vatin': 'BR01130491000158'}}"
"{'type': 'node', 'id': 6417251387, 'lat': -18.1363564, 'lon': -48.0857309, 'tags': {'amenity': 'pharmacy', 'dispensing': 'yes', 'healthcare': 'pharmacy', 'name': 'Farmácia São Judas Tadeu'}}"
"{'type': 'node', 'id': 6417251389, 'lat': -18.1374053, 'lon': -48.0872893, 'tags': {'amenity': 'pharmacy', 'dispensing': 'yes', 'healthcare': 'pharmacy'}}"
"{'type': 'node', 'id': 6417251390, 'lat': -18.1373811, 'lon': -48.0872571, 'tags': {'amenity': 'dentist', 'healthcare': 'dentist'}}"
"{'type': 'node', 'id': 6417251442, 'lat': -18.1357364, 'lon': -48.0862553, 'tags': {'amenity': 'pharmacy', 'dispensing': 'yes', 'healthcare': 'pharmacy'}}"
"{'type': 'node', 'id': 6417251445, 'lat': -18.1350206, 'lon': -48.0845271, 'tags': {'amenity': 'pharmacy', 'dispensing': 'yes', 'healthcare': 'pharmacy'}}"
"{'type': 'node', 'id': 7538045460, 'lat': -17.325388, 'lon': -48.4248207, 'tags': {'addr:city': 'Palmelo', 'addr:postcode': '75210000', 'addr:street': 'Avenida 03 - Padre João Saint Clair da Cruz', 'addr:suburb': 'Centro', 'amenity': 'pharmacy', 'dispensing': 'yes', 'healthcare': 'pharmacy', 'name': 'Farmácia Palmelo'}}"
"{'type': 'node', 'id': 8490761374, 'lat': -18.1344147, 'lon': -48.0847576, 'tags': {'amenity': 'clinic', 'healthcare': 'clinic'}}"
"{'type': 'node', 'id': 8490761379, 'lat': -18.1314074, 'lon': -48.0866394, 'tags': {'amenity': 'clinic', 'healthcare': 'clinic'}}"
"{'type': 'node', 'id': 10264792909, 'lat': -17.3074466, 'lon': -49.0081437, 'tags': {'amenity': 'clinic'}}"
"{'type': 'node', 'id': 11508553292, 'lat': -18.419273, 'lon': -49.2315507, 'tags': {'amenity': 'hospital', 'healthcare': 'hospital', 'name': 'CAIS'}}"
