OSM_Data
"{'type': 'node', 'id': 3353497642, 'lat': 20.337226, 'lon': -77.1421313, 'tags': {'amenity': 'pharmacy', 'healthcare': 'pharmacy', 'name:es': 'Farmacia'}}"
"{'type': 'node', 'id': 3401145260, 'lat': 20.3447641, 'lon': -77.1201053, 'tags': {'amenity': 'pharmacy', 'healthcare': 'pharmacy'}}"
"{'type': 'node', 'id': 4318190895, 'lat': 20.3732825, 'lon': -76.6253356, 'tags': {'amenity': 'doctors', 'healthcare': 'doctor', 'name': 'Consultorio Polígono'}}"
"{'type': 'node', 'id': 4497713895, 'lat': 20.3461573, 'lon': -77.1212997, 'tags': {'addr:city': 'Manzanillo', 'addr:housenumber': '201', 'addr:postcode': '87510', 'addr:street': 'Calle Villuendas', 'amenity': 'dentist', 'healthcare': 'dentist', 'name': 'Clínica Estomatológica', 'phone': '(53)23-52131'}}"
"{'type': 'node', 'id': 4547334990, 'lat': 20.334452, 'lon': -77.0738843, 'tags': {'amenity': 'hospital', 'healthcare': 'hospital', 'name': 'Policlinico # 4 Luis Enrique de La Paz', 'name:es': 'Policlinico # 4 Luis Enrique de La Paz'}}"
"{'type': 'node', 'id': 4806162583, 'lat': 20.1551545, 'lon': -76.9579364, 'tags': {'amenity': 'hospital', 'emergency': 'ambulance_station', 'name': 'Policlinico Bartolome Maso', 'operator': 'Salud Publica'}}"
"{'type': 'node', 'id': 4939314462, 'lat': 20.3420391, 'lon': -77.0928477, 'tags': {'amenity': 'clinic', 'healthcare': 'clinic', 'name': 'Enfermeria', 'opening_hours': '24/7'}}"
"{'type': 'node', 'id': 5189058921, 'lat': 20.6933371, 'lon': -77.6029676, 'tags': {'amenity': 'pharmacy', 'healthcare': 'pharmacy'}}"
"{'type': 'node', 'id': 5225503122, 'lat': 20.3631694, 'lon': -76.634573, 'tags': {'addr:street': 'General Antonio Maceo', 'amenity': 'pharmacy', 'healthcare': 'pharmacy', 'name': 'Jesús Menéndez', 'name:en': 'Jesús Menéndez', 'name:es': 'Jesús Menéndez', 'opening_hours': '24/7'}}"
"{'type': 'node', 'id': 5299386673, 'lat': 20.8623118, 'lon': -76.6448413, 'tags': {'amenity': 'doctors', 'health_facility:type': 'office', 'healthcare': 'doctor', 'name': 'Consultorio Médico ""Reparto Jardín""', 'opening_hours': 'Mo-Fr 08:00-17:00', 'website': 'https://www.sld.cu/'}}"
"{'type': 'node', 'id': 5299392135, 'lat': 20.8619005, 'lon': -76.6427596, 'tags': {'amenity': 'doctors', 'health_facility:type': 'office', 'healthcare': 'doctor', 'name': 'Consultorio Médico ""Reparto Nuevo""', 'opening_hours': 'Mo-Fr 08:00-17:00', 'website': 'https://www.sld.cu/'}}"
"{'type': 'node', 'id': 5299393153, 'lat': 20.8660921, 'lon': -76.6390655, 'tags': {'amenity': 'doctors', 'health_facility:type': 'office', 'healthcare': 'doctor', 'name': 'Consultorio Médico ""Lavandería""', 'opening_hours': 'Mo-Fr 08:00-17:00', 'website': 'https://www.sld.cu/'}}"
"{'type': 'node', 'id': 5303305521, 'lat': 20.3808435, 'lon': -76.6436192, 'tags': {'addr:street': '16', 'amenity': 'pharmacy', 'healthcare': 'pharmacy', 'name:es': 'Farmacia'}}"
"{'type': 'node', 'id': 5303305621, 'lat': 20.3837484, 'lon': -76.6466229, 'tags': {'addr:street': '11', 'amenity': 'pharmacy', 'healthcare': 'pharmacy', 'name:es': 'Farmacia'}}"
"{'type': 'node', 'id': 5365066221, 'lat': 20.3712647, 'lon': -76.6474146, 'tags': {'amenity': 'pharmacy', 'healthcare': 'pharmacy', 'name': 'farmacia internacional', 'opening_hours': 'Mo-Sa 09:00-18:00'}}"
"{'type': 'node', 'id': 5501694323, 'lat': 20.2782445, 'lon': -77.1784036, 'tags': {'amenity': 'doctors', 'healthcare': 'doctor', 'healthcare:speciality': 'general', 'name': 'Consultorio Médico'}}"
"{'type': 'node', 'id': 5501694342, 'lat': 20.3469001, 'lon': -77.1072503, 'tags': {'amenity': 'pharmacy', 'healthcare': 'pharmacy', 'name:es': 'Farmacia'}}"
"{'type': 'node', 'id': 5501713021, 'lat': 20.3383513, 'lon': -77.1366272, 'tags': {'amenity': 'pharmacy', 'healthcare': 'pharmacy', 'name': 'Farmacia Nuevo Manzanillo', 'opening_hours': 'Mo-Sa 07:00-16:00'}}"
"{'type': 'node', 'id': 5501713421, 'lat': 20.3466433, 'lon': -77.1140568, 'tags': {'amenity': 'pharmacy', 'healthcare': 'pharmacy'}}"
"{'type': 'node', 'id': 5501713521, 'lat': 20.3305251, 'lon': -77.1272176, 'tags': {'addr:city': 'Ciudad de Manzanillo', 'addr:postcode': '87510', 'addr:street': 'Avenida Camilo Cienfuegos', 'amenity': 'pharmacy', 'dispensing': 'no', 'drive_through': 'yes', 'healthcare': 'pharmacy', 'opening_hours': '24/7'}}"
"{'type': 'node', 'id': 5518544132, 'lat': 20.8960097, 'lon': -77.9183254, 'tags': {'amenity': 'doctors', 'healthcare': 'doctor', 'healthcare:speciality': 'general', 'name': 'Consultorio Médico de la Familia', 'phone': '+53 32 836323'}}"
"{'type': 'node', 'id': 5564742926, 'lat': 20.341466, 'lon': -77.1242184, 'tags': {'addr:street': 'Calle Martí', 'amenity': 'pharmacy', 'healthcare': 'pharmacy', 'name': 'Bajada de la Colonia', 'opening_hours': '24/7'}}"
"{'type': 'node', 'id': 5564743525, 'lat': 20.2671122, 'lon': -77.1461355, 'tags': {'addr:street': 'Carretera a Campechuela', 'amenity': 'doctors', 'healthcare': 'doctor'}}"
"{'type': 'node', 'id': 5683166026, 'lat': 20.8636463, 'lon': -76.636861, 'tags': {'amenity': 'dentist', 'healthcare': 'dentist', 'name': 'Clínica Estomatológica René Pérez Guzmán', 'opening_hours': '24/7'}}"
"{'type': 'node', 'id': 5683207721, 'lat': 20.8631345, 'lon': -76.6378047, 'tags': {'amenity': 'pharmacy', 'healthcare': 'pharmacy', 'opening_hours': '24/7', 'operator': 'MINSAP'}}"
"{'type': 'node', 'id': 5683209722, 'lat': 20.8639948, 'lon': -76.6388753, 'tags': {'amenity': 'pharmacy', 'healthcare': 'pharmacy', 'name:es': 'Farmacia'}}"
"{'type': 'node', 'id': 5708969526, 'lat': 20.2124079, 'lon': -77.0456409, 'tags': {'amenity': 'hospital', 'name': 'Policlínico Docente Hermanos Labrada'}}"
"{'type': 'node', 'id': 6285177386, 'lat': 20.3377116, 'lon': -77.1225631, 'tags': {'addr:street': 'Calle Purisima', 'amenity': 'doctors', 'healthcare': 'doctor', 'name': 'Consultorio Médico de la Familia'}}"
"{'type': 'node', 'id': 6764855871, 'lat': 20.2198083, 'lon': -77.0559649, 'tags': {'amenity': 'pharmacy', 'name:es': 'Farmacia'}}"
"{'type': 'node', 'id': 7126290586, 'lat': 20.3306806, 'lon': -77.0673193, 'tags': {'amenity': 'pharmacy', 'name': 'La Curva'}}"
"{'type': 'node', 'id': 7310117378, 'lat': 19.9023181, 'lon': -77.3560933, 'tags': {'amenity': 'doctors', 'healthcare': 'doctor', 'healthcare:speciality': 'general', 'name': 'Consultorio Médico de la Familia', 'operator': 'Ministerio de Salud Pública MINSAP'}}"
"{'type': 'node', 'id': 7310117379, 'lat': 19.9022523, 'lon': -77.3652023, 'tags': {'amenity': 'doctors', 'healthcare': 'doctor', 'healthcare:speciality': 'general', 'name': 'Consultorio Médico de la Familia', 'operator': 'Ministerio de Salud Pública MINSAP'}}"
"{'type': 'node', 'id': 7310379212, 'lat': 19.9104017, 'lon': -77.1539555, 'tags': {'amenity': 'clinic', 'healthcare': 'hospital', 'name': 'Enfermería'}}"
"{'type': 'node', 'id': 7640420126, 'lat': 20.3783778, 'lon': -76.6381602, 'tags': {'addr:street': 'José Antonio Echavarría', 'amenity': 'pharmacy', 'healthcare': 'pharmacy', 'name:es': 'Farmacia', 'opening_hours': 'Mo-Fr 08:00-12:00, 14:00-18:00', 'phone': '23488374'}}"
"{'type': 'node', 'id': 7797480547, 'lat': 20.8933478, 'lon': -77.9206913, 'tags': {'amenity': 'pharmacy', 'dispensing': 'yes', 'healthcare': 'pharmacy', 'name': 'La Comunidad'}}"
"{'type': 'node', 'id': 7797622478, 'lat': 20.904731, 'lon': -77.9171755, 'tags': {'amenity': 'pharmacy', 'dispensing': 'yes', 'healthcare': 'pharmacy'}}"
"{'type': 'node', 'id': 7797650120, 'lat': 20.8921981, 'lon': -77.9215853, 'tags': {'amenity': 'hospital', 'healthcare': 'hospital', 'healthcare:speciality': 'general'}}"
"{'type': 'node', 'id': 8155995528, 'lat': 20.902053, 'lon': -77.2819187, 'tags': {'amenity': 'clinic', 'name': 'Hogar Materno'}}"
"{'type': 'node', 'id': 8313700819, 'lat': 20.1278019, 'lon': -76.850562, 'tags': {'health_facility:type': 'office', 'healthcare': 'doctor', 'healthcare:speciality': 'general', 'name': 'Consultorio Brazo Chiquito', 'opening_hours': '24/7'}}"
"{'type': 'node', 'id': 8809107621, 'lat': 20.9036206, 'lon': -76.7800492, 'tags': {'amenity': 'pharmacy', 'healthcare': 'pharmacy'}}"
"{'type': 'node', 'id': 8809108129, 'lat': 20.9037122, 'lon': -76.7806597, 'tags': {'amenity': 'clinic', 'healthcare': 'clinic', 'name': 'Hogar Materno'}}"
"{'type': 'node', 'id': 8855672917, 'lat': 20.2694198, 'lon': -77.2097547, 'tags': {'amenity': 'pharmacy'}}"
"{'type': 'node', 'id': 8856988917, 'lat': 20.2705161, 'lon': -77.2093358, 'tags': {'amenity': 'doctors', 'healthcare': 'doctor', 'healthcare:speciality': 'general', 'name': 'CMU'}}"
"{'type': 'node', 'id': 9459039621, 'lat': 20.3715962, 'lon': -76.6485606, 'tags': {'healthcare': 'laboratory', 'name': 'Laboratorio PCR'}}"
"{'type': 'node', 'id': 10748926553, 'lat': 20.3554227, 'lon': -76.6181878, 'tags': {'healthcare': 'laboratory', 'name': 'Laboratorio clínico'}}"
"{'type': 'node', 'id': 11709363270, 'lat': 20.3124832, 'lon': -76.9059428, 'tags': {'amenity': 'hospital', 'name': 'Policlínico'}}"
"{'type': 'node', 'id': 11891864941, 'lat': 20.7759473, 'lon': -76.6304288, 'tags': {'amenity': 'doctors', 'health_facility:type': 'office', 'healthcare': 'doctor', 'healthcare:speciality': 'general', 'name': 'Consultorio Médico de la Familia El Aguacate', 'opening_hours': 'Mo-Fr 08:00-16:00; Sa 08:00-12:00', 'operator': 'MINSAP', 'website': 'https://www.sld.cu/'}}"
"{'type': 'node', 'id': 11891895580, 'lat': 20.7844408, 'lon': -76.6300212, 'tags': {'amenity': 'doctors', 'health_facility:type': 'office', 'healthcare': 'doctor', 'healthcare:speciality': 'general', 'name': 'Consultorio Médico de la Familia Viviendas Campesinas', 'opening_hours': 'Mo-Fr 08:00-16:00; Sa 08:00-12:00', 'operator': 'MINSAP', 'website': 'https://www.sld.cu/'}}"
"{'type': 'node', 'id': 11933842790, 'lat': 20.8333779, 'lon': -77.5785823, 'tags': {'healthcare': 'blood_donation'}}"
"{'type': 'node', 'id': 12337847641, 'lat': 20.2816542, 'lon': -77.1294477, 'tags': {'amenity': 'pharmacy', 'healthcare': 'pharmacy', 'name': 'Farmacia San Francisco'}}"
"{'type': 'node', 'id': 12337996887, 'lat': 20.7619193, 'lon': -77.8594887, 'tags': {'amenity': 'hospital', 'name': 'Policlínico Haití'}}"
"{'type': 'node', 'id': 12337999832, 'lat': 20.7604791, 'lon': -77.8642657, 'tags': {'amenity': 'pharmacy', 'name': 'Farmacia'}}"
"{'type': 'node', 'id': 12338004722, 'lat': 20.8709179, 'lon': -77.9372166, 'tags': {'amenity': 'clinic', 'name': 'Hogar de Ancianos'}}"
