OSM_Data
"{'type': 'node', 'id': 479158318, 'lat': -3.7655048, 'lon': -38.6380756, 'tags': {'amenity': 'pharmacy', 'name': 'Farmácia Vilgna'}}"
"{'type': 'node', 'id': 3144314133, 'lat': -4.8505151, 'lon': -39.5748617, 'tags': {'amenity': 'pharmacy', 'healthcare': 'pharmacy'}}"
"{'type': 'node', 'id': 3145611525, 'lat': -4.8505347, 'lon': -39.57308, 'tags': {'amenity': 'pharmacy'}}"
"{'type': 'node', 'id': 3949084482, 'lat': -3.9425315, 'lon': -39.4285803, 'tags': {'amenity': 'hospital', 'name': 'Centro de Saúde'}}"
"{'type': 'node', 'id': 4674633189, 'lat': -4.1758172, 'lon': -38.8540951, 'tags': {'amenity': 'clinic', 'name': 'Posto de saúde'}}"
"{'type': 'node', 'id': 5241140432, 'lat': -3.7892939, 'lon': -39.2576407, 'tags': {'addr:city': 'Pentecoste', 'addr:postcode': '62640000', 'addr:street': 'Rua Padre Sinval Facundo', 'amenity': 'clinic', 'healthcare': 'clinic', 'name': 'UPA - Unidade de Pronto Atendimento', 'opening_hours': '24/7'}}"
"{'type': 'node', 'id': 5742176707, 'lat': -4.5288459, 'lon': -39.6214458, 'tags': {'amenity': 'clinic', 'healthcare': 'clinic', 'name': 'Posto de Saúde', 'operator': 'Sistema Único de Saúde', 'operator:short': 'SUS', 'operator:wikidata': 'Q7531056', 'operator:wikipedia': 'pt:Sistema Único de Saúde'}}"
"{'type': 'node', 'id': 5742294309, 'lat': -4.652767, 'lon': -39.6643289, 'tags': {'amenity': 'clinic', 'healthcare': 'clinic', 'name': 'Unidade Básica de Saúde', 'operator': 'Sistema Único de Saúde', 'operator:short': 'SUS', 'operator:wikidata': 'Q7531056', 'operator:wikipedia': 'pt:Sistema Único de Saúde'}}"
"{'type': 'node', 'id': 5742311852, 'lat': -4.6488892, 'lon': -39.67486, 'tags': {'amenity': 'clinic', 'healthcare': 'clinic', 'name': 'Posto de Saúde'}}"
"{'type': 'node', 'id': 5742332402, 'lat': -4.6496217, 'lon': -39.6760777, 'tags': {'amenity': 'pharmacy', 'dispensing': 'yes', 'healthcare': 'pharmacy'}}"
"{'type': 'node', 'id': 5742335157, 'lat': -4.6497072, 'lon': -39.6760455, 'tags': {'amenity': 'pharmacy', 'dispensing': 'yes', 'healthcare': 'pharmacy', 'name': 'Farmácia Sertão Central'}}"
"{'type': 'node', 'id': 5742339942, 'lat': -4.6489694, 'lon': -39.6764438, 'tags': {'amenity': 'pharmacy', 'dispensing': 'yes', 'healthcare': 'pharmacy', 'name': 'Lagofarma'}}"
"{'type': 'node', 'id': 6398649485, 'lat': -3.7346015, 'lon': -38.656652, 'tags': {'amenity': 'clinic', 'healthcare': 'clinic', 'name': 'Clínica Murilo Amaral'}}"
"{'type': 'node', 'id': 6868470279, 'lat': -3.7081119, 'lon': -38.6554925, 'tags': {'addr:city': 'Caucaia', 'addr:housenumber': '239', 'addr:postcode': '61625020', 'addr:street': 'Rua Franciso E. Barros', 'addr:suburb': 'Camurupim', 'amenity': 'hospital', 'healthcare': 'hospital', 'healthcare:speciality': 'nurses', 'internet_access': 'wlan', 'name': 'Clavre', 'operator': 'Banda Clavre', 'operator:type': 'community'}}"
"{'type': 'node', 'id': 7602589991, 'lat': -4.9633063, 'lon': -39.0124122, 'tags': {'amenity': 'pharmacy', 'name': 'Farmacia de Jesus'}}"
"{'type': 'node', 'id': 7733804981, 'lat': -4.0519003, 'lon': -39.4515002, 'tags': {'amenity': 'hospital', 'healthcare': 'hospital', 'name': 'Hospital e Maternidade Júlia Jorge'}}"
"{'type': 'node', 'id': 8333848717, 'lat': -4.8546315, 'lon': -39.5761054, 'tags': {'amenity': 'pharmacy', 'name': 'Drigaria Acesso Facil'}}"
"{'type': 'node', 'id': 8983370417, 'lat': -4.9649426, 'lon': -39.0120677, 'tags': {'amenity': 'pharmacy', 'name': 'Faemacia Bom Jesus'}}"
"{'type': 'node', 'id': 9196061873, 'lat': -4.2248924, 'lon': -38.921537, 'tags': {'amenity': 'pharmacy', 'name': 'Menor Preço', 'phone': '+55 85 988681932'}}"
"{'type': 'node', 'id': 10619989664, 'lat': -4.9709081, 'lon': -39.0219417, 'tags': {'amenity': 'clinic', 'healthcare': 'clinic', 'name': 'Clínica Afeto kids'}}"
"{'type': 'node', 'id': 10735249353, 'lat': -4.970239, 'lon': -39.0272463, 'tags': {'amenity': 'clinic', 'healthcare': 'clinic', 'name': 'UBS do Combate'}}"
"{'type': 'node', 'id': 11093458889, 'lat': -3.73915, 'lon': -39.5467654, 'tags': {'amenity': 'clinic', 'healthcare': 'clinic', 'name': 'UBS IRATINGA'}}"
"{'type': 'node', 'id': 11121718174, 'lat': -4.3520578, 'lon': -39.3223585, 'tags': {'addr:city': 'Canindé', 'addr:housenumber': '1386', 'addr:postcode': '6270000', 'addr:street': 'Rua José karam', 'addr:suburb': 'Santa Luzia', 'amenity': 'dentist', 'healthcare': 'dentist', 'name': 'Clínica Rocha Tavares', 'operator': 'Clinica Rocha Tavares'}}"
"{'type': 'node', 'id': 12175416825, 'lat': -3.8531371, 'lon': -38.6484061, 'tags': {'amenity': 'clinic', 'healthcare': 'clinic', 'healthcare:speciality': 'general', 'name': 'Unidade de Saúde da Família Tenente Ivaldo Silva', 'operator': 'prefeitura', 'operator:type': 'public'}}"
"{'type': 'node', 'id': 12175423245, 'lat': -3.888271, 'lon': -38.6837678, 'tags': {'addr:street': 'Rua Mundica Paula', 'amenity': 'clinic', 'healthcare': 'clinic', 'healthcare:speciality': 'psychiatry', 'name': 'CAPS Geral Maranguape'}}"
"{'type': 'node', 'id': 12175423263, 'lat': -3.8797041, 'lon': -38.6768437, 'tags': {'addr:housenumber': '217', 'addr:street': 'Rua Manoel Abreu Costa', 'amenity': 'hospital', 'healthcare': 'hospital', 'healthcare:speciality': 'general', 'name': 'Hospital Municipal Dr. Argeu Gurgel Braga Hersbster', 'operator': 'Prefeitura', 'operator:type': 'public'}}"
"{'type': 'node', 'id': 12175423278, 'lat': -3.8802995, 'lon': -38.6755567, 'tags': {'addr:housenumber': '1756B', 'addr:street': 'Avenida Senador Almir Pinto', 'addr:suburb': 'Outra Banda', 'amenity': 'pharmacy', 'dispensing': 'yes', 'healthcare': 'pharmacy', 'name': 'Farmácia Premium - Ambulatório'}}"
"{'type': 'node', 'id': 12348332101, 'lat': -3.9070006, 'lon': -38.675243, 'tags': {'amenity': 'hospital', 'healthcare': 'hospital', 'healthcare:speciality': 'general'}}"
"{'type': 'node', 'id': 12450174235, 'lat': -4.2130726, 'lon': -38.8652951, 'tags': {'addr:city': 'Pacoti', 'addr:postcode': '62770-000', 'addr:street': 'Boa Hora', 'amenity': 'clinic', 'healthcare': 'clinic', 'name': 'Posto de Saúde da Boa Hora'}}"
