OSM_Data
"{'type': 'node', 'id': 257565325, 'lat': -1.0538793, 'lon': -46.767591, 'tags': {'addr:housenumber': '500', 'addr:postcode': '68600-000', 'addr:street': 'Avenida Nazeazeno Ferreira', 'addr:suburb': 'Centro', 'amenity': 'hospital', 'email': 'associacaovtmedeiros@yahoo.com.br', 'healthcare': 'hospital', 'name': 'Hospital Geral de Bragança', 'ref:CNES': '2678756', 'ref:vatin': 'BR07981245000196', 'source': 'survey;DATASUS', 'wheelchair': 'limited'}}"
"{'type': 'node', 'id': 258373353, 'lat': -1.0502734, 'lon': -46.7687408, 'tags': {'addr:postcode': '68600-000', 'addr:street': 'Avenida Nazeazeno Ferreira', 'addr:suburb': 'Padre Luis', 'amenity': 'hospital', 'email': 'estelina@hsamz.com.br', 'fax': '+55 91 3425 1200', 'healthcare': 'hospital', 'name': 'Hospital Santo Antônio Maria Zaccaria', 'phone': '+55 91 3425 2177', 'ref:CNES': '2678403', 'ref:vatin': 'BR05320403000131', 'source': 'survey;DATASUS', 'wheelchair': 'yes'}}"
"{'type': 'node', 'id': 258373354, 'lat': -1.0575169, 'lon': -46.7639489, 'tags': {'addr:city': 'Bragança', 'addr:housenumber': '1038', 'addr:postcode': '68600-000', 'addr:street': 'Praça Antônio Pereira', 'addr:suburb': 'Centro', 'amenity': 'hospital', 'healthcare': 'hospital', 'name': 'Hospital das Clínicas de Bragança', 'ref:CNES': '2678322', 'ref:vatin': 'BR10016141000156', 'source': 'survey;DATASUS', 'wheelchair': 'limited'}}"
"{'type': 'node', 'id': 259796143, 'lat': -1.0547193, 'lon': -46.7670854, 'tags': {'amenity': 'pharmacy', 'brand': 'Extrafarma', 'brand:wikidata': 'Q20055480', 'brand:wikipedia': 'pt:Extrafarma', 'healthcare': 'pharmacy', 'name': 'Extrafarma', 'source': 'survey', 'wheelchair': 'limited'}}"
"{'type': 'node', 'id': 259796144, 'lat': -1.0552919, 'lon': -46.7669298, 'tags': {'amenity': 'pharmacy', 'healthcare': 'pharmacy', 'name': 'Big Ben', 'source': 'survey'}}"
"{'type': 'node', 'id': 259796145, 'lat': -1.0572235, 'lon': -46.763937, 'tags': {'amenity': 'pharmacy', 'healthcare': 'pharmacy', 'source': 'survey'}}"
"{'type': 'node', 'id': 259796146, 'lat': -1.0503921, 'lon': -46.7680055, 'tags': {'amenity': 'pharmacy', 'healthcare': 'pharmacy', 'name': 'Farmácia Juliana', 'source': 'survey'}}"
"{'type': 'node', 'id': 262477095, 'lat': -1.0540347, 'lon': -46.7625896, 'tags': {'amenity': 'pharmacy', 'healthcare': 'pharmacy', 'name': 'Erika Farma', 'source': 'survey'}}"
"{'type': 'node', 'id': 311868302, 'lat': -1.0504987, 'lon': -46.7683114, 'tags': {'amenity': 'pharmacy', 'dispensing': 'no', 'healthcare': 'pharmacy', 'name': 'Farmácia Popular'}}"
"{'type': 'node', 'id': 458462346, 'lat': -1.0747742, 'lon': -46.9037199, 'tags': {'access': 'public', 'amenity': 'clinic', 'fixme': 'Requer nome mais específico', 'name': 'RAIMUNDO ROQUE PINHEIRO', 'name:en': 'Posto'}}"
"{'type': 'node', 'id': 2416729482, 'lat': -1.1918304, 'lon': -47.1777492, 'tags': {'amenity': 'pharmacy', 'name': 'Drogaria Big Bem'}}"
"{'type': 'node', 'id': 2418291460, 'lat': -1.0552506, 'lon': -46.7638811, 'tags': {'addr:city': 'Bragança', 'addr:housename': 'Travessa Marcelino Castanho', 'addr:postcode': '68600-000', 'amenity': 'pharmacy', 'healthcare': 'pharmacy', 'name': 'Excelente Farma'}}"
"{'type': 'node', 'id': 4898437347, 'lat': -1.1308282, 'lon': -47.0594569, 'tags': {'amenity': 'clinic', 'healthcare': 'clinic', 'name': 'UBS', 'operator': 'Sistema Único de Saúde', 'operator:short': 'SUS', 'operator:wikidata': 'Q7531056'}}"
"{'type': 'node', 'id': 4958813824, 'lat': -0.6240066, 'lon': -47.3450566, 'tags': {'amenity': 'pharmacy', 'drive_through': 'no', 'name': 'Extrafarma'}}"
"{'type': 'node', 'id': 4958830722, 'lat': -0.6239482, 'lon': -47.3451264, 'tags': {'amenity': 'pharmacy', 'name': 'Big Ben Sal'}}"
"{'type': 'node', 'id': 5272788181, 'lat': -1.0561968, 'lon': -46.766447, 'tags': {'addr:city': 'Bragança', 'addr:postcode': '68600-000', 'addr:street': 'Avenida Nazeazeno Ferreira', 'addr:suburb': 'Centro', 'amenity': 'pharmacy', 'brand': 'Pague Menos', 'brand:wikidata': 'Q7124466', 'brand:wikipedia': 'pt:Pague Menos', 'healthcare': 'pharmacy', 'name': 'Pague Menos', 'wheelchair': 'yes'}}"
"{'type': 'node', 'id': 5316355057, 'lat': -1.1954414, 'lon': -47.1784985, 'tags': {'amenity': 'dentist', 'healthcare': 'dentist', 'name': 'Cons. Bernadinho'}}"
"{'type': 'node', 'id': 5316355058, 'lat': -1.1922895, 'lon': -47.178684, 'tags': {'amenity': 'dentist', 'healthcare': 'dentist', 'name': 'Dentistas'}}"
"{'type': 'node', 'id': 5316355059, 'lat': -1.1948889, 'lon': -47.1757049, 'tags': {'amenity': 'dentist', 'healthcare': 'dentist', 'name': 'OralMed'}}"
"{'type': 'node', 'id': 5333826653, 'lat': -1.1989182, 'lon': -47.1869099, 'tags': {'amenity': 'pharmacy', 'healthcare': 'pharmacy', 'name': 'Fármacia Paiva'}}"
"{'type': 'node', 'id': 5337222627, 'lat': -1.1925525, 'lon': -47.1800888, 'tags': {'amenity': 'pharmacy', 'healthcare': 'pharmacy', 'name': 'FarMais'}}"
"{'type': 'node', 'id': 5337538359, 'lat': -1.1931985, 'lon': -47.1805793, 'tags': {'healthcare': 'yes', 'name': 'SESMA'}}"
"{'type': 'node', 'id': 5339960770, 'lat': -1.1916041, 'lon': -47.1782895, 'tags': {'amenity': 'pharmacy', 'healthcare': 'pharmacy', 'name': 'FarMais'}}"
"{'type': 'node', 'id': 5353480177, 'lat': -1.1947317, 'lon': -47.1717503, 'tags': {'amenity': 'clinic', 'healthcare': 'clinic', 'name': 'Clinimed'}}"
"{'type': 'node', 'id': 5353480194, 'lat': -1.1946956, 'lon': -47.1713636, 'tags': {'amenity': 'dentist', 'healthcare': 'dentist', 'name': 'Dentalli'}}"
"{'type': 'node', 'id': 6152291154, 'lat': -1.1960173, 'lon': -47.1818225, 'tags': {'amenity': 'pharmacy', 'healthcare': 'pharmacy', 'name': 'Farmácia Imperial'}}"
"{'type': 'node', 'id': 6575506686, 'lat': -0.7967988, 'lon': -47.6009278, 'tags': {'amenity': 'hospital', 'name': 'Sec Saúde Magalhães Barata'}}"
"{'type': 'node', 'id': 6603643720, 'lat': -1.1283785, 'lon': -47.6238485, 'tags': {'amenity': 'hospital', 'healthcare': 'hospital'}}"
"{'type': 'node', 'id': 6751340797, 'lat': -1.3362412, 'lon': -47.539026, 'tags': {'amenity': 'clinic', 'name': 'Unidade de Saúde da Família do Jejú'}}"
"{'type': 'node', 'id': 7230665704, 'lat': -1.1858466, 'lon': -46.8559981, 'tags': {'amenity': 'clinic', 'name': 'Posto de Saúde km 18'}}"
"{'type': 'node', 'id': 8525221106, 'lat': -1.7657931, 'lon': -47.4479513, 'tags': {'addr:city': 'IRITUIA', 'addr:postcode': '68665000', 'addr:street': 'Av. Aluisio Chaves S/N KM 14', 'addr:suburb': 'VILA SÃO FRANISCO', 'amenity': 'hospital', 'emergency': 'no', 'healthcare': 'hospital', 'healthcare:speciality': 'general', 'name': 'CAPS I - Irituia PA - Centro de Atenção Psicossocial'}}"
"{'type': 'node', 'id': 8560745774, 'lat': -1.6767973, 'lon': -47.7720644, 'tags': {'amenity': 'pharmacy', 'dispensing': 'yes', 'healthcare': 'pharmacy'}}"
"{'type': 'node', 'id': 8560745776, 'lat': -1.6770225, 'lon': -47.7721891, 'tags': {'amenity': 'pharmacy', 'dispensing': 'yes', 'healthcare': 'pharmacy'}}"
"{'type': 'node', 'id': 8560745781, 'lat': -1.677666, 'lon': -47.7717908, 'tags': {'amenity': 'pharmacy', 'dispensing': 'yes', 'healthcare': 'pharmacy'}}"
"{'type': 'node', 'id': 8560785679, 'lat': -1.6750224, 'lon': -47.7731091, 'tags': {'amenity': 'pharmacy', 'dispensing': 'yes', 'healthcare': 'pharmacy'}}"
"{'type': 'node', 'id': 8690836917, 'lat': -1.1871984, 'lon': -47.183052, 'tags': {'amenity': 'hospital', 'name': 'Sespa Coordenação de Endemias'}}"
"{'type': 'node', 'id': 8821443317, 'lat': -0.7087799, 'lon': -47.6992132, 'tags': {'addr:housenumber': '303', 'addr:postcode': '68760-000', 'addr:street': 'Avenida Magalhães Barata', 'addr:suburb': 'Aterro', 'amenity': 'hospital', 'email': 'saudemarapanim.para@gmail.com', 'healthcare': 'hospital', 'name': 'Hospital Municipal Marapanim laboratório de Malária', 'operator:ref:vatin': 'BR05171681000174', 'phone': '+55 91 3723 1555', 'ref:CNES': '2621584'}}"
"{'type': 'node', 'id': 9702926064, 'lat': -1.8231732, 'lon': -47.7596271, 'tags': {'amenity': 'hospital', 'healthcare': 'hospital', 'name': 'Posto de saúde USF', 'operator': 'Laysa Lopes'}}"
"{'type': 'node', 'id': 10659336051, 'lat': -1.7478191, 'lon': -47.0638154, 'tags': {'addr:city': 'CAPITÃO POÇO', 'addr:housenumber': '338', 'addr:postcode': '68650000', 'addr:street': 'Travessa José Barros da Silva', 'addr:suburb': 'TATAJUBA', 'amenity': 'pharmacy', 'dispensing': 'yes', 'drive_through': 'no', 'email': 'drogariadkfarma@gmail.com', 'healthcare': 'pharmacy', 'name': 'DK FARMA', 'opening_hours': 'Mo-Su 07:00-22:00', 'operator': 'Dra PAMELA KATHIUCIA ALMEIDA SANTIAGO', 'phone': '5591985785859'}}"
"{'type': 'node', 'id': 12503583734, 'lat': -0.77085, 'lon': -47.1764431, 'tags': {'addr:city': 'São João de Pirabas', 'addr:postcode': '68719-000', 'addr:street': 'Avenida São Pedro, 490.', 'addr:suburb': 'Independência', 'amenity': 'pharmacy', 'building': 'retail', 'building:levels': '0', 'check_date': '2025-01-11', 'check_date:currency:XBT': '2025-01-12', 'currency:USDT': 'yes', 'currency:XBT': 'yes', 'description': 'Primeira Farmácia de São João de Pirabas, localizada no coração da cidade.', 'dispensing': 'yes', 'drive_through': 'no', 'healthcare': 'pharmacy', 'height': '0', 'name': 'Farmácia do Seu Manoel', 'opening_hours': 'Mo-Sa 08:00-12:00,15:00-20:00; Su 08:00-12:00,17:00-20:00; PH 08:00-12:00,17:00-20:00; SH 08:00-12:00,17:00-20:00', 'payment:cash': 'yes', 'payment:coinos': 'yes', 'payment:credit_cards': 'yes', 'payment:cryptocurrencies': 'yes', 'payment:debit_cards': 'yes', 'payment:lightning': 'yes', 'payment:lightning_contactless': 'yes', 'payment:onchain': 'yes', 'phone': '5591985647024', 'smoking': 'outside', 'survey:date': '2025-01-11', 'website': 'https://www.farmaciadoseumanoel.com.br/'}}"
