OSM_Data
"{'type': 'node', 'id': 2012401969, 'lat': -18.8442622, 'lon': -46.7908735, 'tags': {'amenity': 'hospital', 'healthcare': 'hospital', 'name': 'Unidade Mista de Saúde Dona Inês', 'operator': 'Sistema Único de Saúde', 'operator:short': 'SUS', 'operator:wikidata': 'Q7531056'}}"
"{'type': 'node', 'id': 2411049561, 'lat': -18.5896834, 'lon': -46.5150641, 'tags': {'addr:housenumber': '188', 'addr:postcode': '38700-122', 'addr:street': 'Rua Olegário Maciel', 'amenity': 'pharmacy', 'healthcare': 'pharmacy', 'name': 'Farmácia Nacional Canaan', 'name:pt': 'Farmácia Nacional Canaan', 'phone': '+55 (34 3823 1313', 'website': 'https://www.farmacianacional.com.br/'}}"
"{'type': 'node', 'id': 3925692852, 'lat': -19.5204474, 'lon': -45.7895035, 'tags': {'amenity': 'hospital', 'name': 'Hospital Municipal', 'source': 'IBGE'}}"
"{'type': 'node', 'id': 4094499890, 'lat': -18.8427868, 'lon': -46.7935312, 'tags': {'addr:city': 'Guimarânia', 'addr:housenumber': '500', 'addr:postcode': '38730-000', 'addr:street': 'Rua Conseilheiro Rufino', 'addr:suburb': 'Centro', 'amenity': 'pharmacy', 'healthcare': 'pharmacy', 'name': 'Farmácia Paratodos'}}"
"{'type': 'node', 'id': 4095448912, 'lat': -18.8442526, 'lon': -46.7940548, 'tags': {'addr:street': 'Rua Tamoios', 'amenity': 'pharmacy', 'healthcare': 'pharmacy', 'name': 'Farmácia do Povo'}}"
"{'type': 'node', 'id': 4347354695, 'lat': -18.6043703, 'lon': -46.5208123, 'tags': {'addr:housenumber': '2232', 'addr:postcode': '38700-246', 'addr:street': 'Rua Sergipe', 'amenity': 'pharmacy', 'healthcare': 'pharmacy', 'name': 'Farmácia do Otinho', 'name:pt': 'Farmácia do Otinho', 'phone': '+55 34 3825 3003', 'website': 'http://www.farmaciadootinho.com/'}}"
"{'type': 'node', 'id': 4542178291, 'lat': -19.3228362, 'lon': -46.0351544, 'tags': {'addr:housenumber': '39', 'addr:postcode': '38800-000', 'addr:street': 'Rua Rio Formoso', 'amenity': 'clinic', 'healthcare': 'clinic', 'internet_access': 'wlan', 'name': 'Juliana Martins Estética', 'opening_hours': 'Tu-Fr 13:00-18:00', 'phone': '+55 34 9 9815 3821'}}"
"{'type': 'node', 'id': 4929674979, 'lat': -19.1976633, 'lon': -46.2404506, 'tags': {'amenity': 'pharmacy', 'healthcare': 'pharmacy', 'name': 'Drogaria Manancial', 'phone': '+55 34 3855 1353'}}"
"{'type': 'node', 'id': 4939077780, 'lat': -18.5748874, 'lon': -46.5128102, 'tags': {'amenity': 'pharmacy', 'healthcare': 'pharmacy', 'name': 'Farmácia Universitária', 'operator': 'UNIPAM'}}"
"{'type': 'node', 'id': 4942519453, 'lat': -18.5754841, 'lon': -46.5111496, 'tags': {'amenity': 'clinic', 'healthcare': 'clinic', 'name': 'Clínica Equilíbrio Emocional'}}"
"{'type': 'node', 'id': 4942584608, 'lat': -18.5778981, 'lon': -46.5179807, 'tags': {'amenity': 'pharmacy', 'healthcare': 'pharmacy', 'name': 'Drogaria Central'}}"
"{'type': 'node', 'id': 4942584615, 'lat': -18.5785169, 'lon': -46.5175076, 'tags': {'amenity': 'pharmacy', 'healthcare': 'pharmacy', 'name': 'Drogaria Betel'}}"
"{'type': 'node', 'id': 4975582404, 'lat': -19.5899319, 'lon': -46.9377217, 'tags': {'addr:housenumber': '68', 'addr:postcode': '38183-085', 'addr:street': 'Praça Coronel José Adolfo', 'addr:suburb': 'Centro', 'amenity': 'hospital', 'healthcare': 'hospital', 'name': 'Hospital Regional Dom Bosco', 'ref:CNES': '2164612', 'ref:vatin': 'BR16906935000171', 'source': 'IBGE;DATASUS'}}"
"{'type': 'node', 'id': 5962963327, 'lat': -18.7784559, 'lon': -46.4049191, 'tags': {'amenity': 'dentist', 'healthcare': 'dentist'}}"
"{'type': 'node', 'id': 6716167014, 'lat': -19.5999181, 'lon': -46.9302785, 'tags': {'addr:housenumber': '428', 'addr:street': 'Rua Engenheiro José Martins', 'amenity': 'clinic', 'name': 'Clínica Maria Bigai'}}"
"{'type': 'node', 'id': 8761539623, 'lat': -18.5882001, 'lon': -46.5150221, 'tags': {'amenity': 'pharmacy', 'brand': 'Pague Menos', 'brand:wikidata': 'Q7124466', 'brand:wikipedia': 'pt:Pague Menos', 'dispensing': 'yes', 'healthcare': 'pharmacy', 'name': 'Pague Menos'}}"
"{'type': 'node', 'id': 8768882872, 'lat': -18.5848535, 'lon': -46.5115094, 'tags': {'healthcare': 'laboratory', 'name': 'UFU'}}"
"{'type': 'node', 'id': 11081426352, 'lat': -18.5752715, 'lon': -46.4969368, 'tags': {'healthcare': 'yes', 'healthcare:speciality': 'vaccination', 'name': 'USF Nova Floresta'}}"
"{'type': 'node', 'id': 11081808985, 'lat': -18.5832957, 'lon': -46.5186755, 'tags': {'addr:door': '879', 'addr:street': 'Avenida Paracatu', 'check_date': '2023-08-19', 'healthcare': 'laboratory', 'name': 'CEPAC'}}"
"{'type': 'node', 'id': 11081808986, 'lat': -18.5831729, 'lon': -46.5186755, 'tags': {'addr:street': 'Avenida Paracatu', 'amenity': 'clinic', 'healthcare': 'clinic', 'name': 'Clínica Da Mulher'}}"
"{'type': 'node', 'id': 11081808997, 'lat': -18.5852182, 'lon': -46.5130407, 'tags': {'amenity': 'pharmacy', 'healthcare': 'pharmacy', 'name': 'Farmácia Municipal - Farmacinha', 'operator': 'Prefeitura de Patos de Minas'}}"
"{'type': 'node', 'id': 11081808998, 'lat': -18.6000946, 'lon': -46.5162166, 'tags': {'addr:street': 'Rua Doutor Marcolino', 'healthcare': 'laboratory', 'name': 'Centro de Excelência em Diagnósticos', 'operator': 'Hospital Vera Cruz'}}"
"{'type': 'node', 'id': 11083956920, 'lat': -18.5883548, 'lon': -46.5123517, 'tags': {'amenity': 'pharmacy', 'brand': 'Drogaria Araujo', 'brand:wikidata': 'Q10268807', 'healthcare': 'pharmacy', 'name': 'Drogaria Araujo'}}"
"{'type': 'node', 'id': 11086605217, 'lat': -18.5950198, 'lon': -46.5151295, 'tags': {'amenity': 'pharmacy', 'check_date': '2023-08-21', 'healthcare': 'pharmacy', 'name': 'Farmácia Científica'}}"
"{'type': 'node', 'id': 11088545928, 'lat': -18.5747963, 'lon': -46.511245, 'tags': {'amenity': 'dentist', 'healthcare': 'dentist'}}"
"{'type': 'node', 'id': 11090172015, 'lat': -18.5756133, 'lon': -46.5149304, 'tags': {'amenity': 'dentist', 'healthcare': 'dentist', 'name': 'sóriso'}}"
"{'type': 'node', 'id': 11090575081, 'lat': -18.5730739, 'lon': -46.5122845, 'tags': {'amenity': 'clinic', 'healthcare': 'rehabilitation', 'name': 'Viver o passo'}}"
"{'type': 'node', 'id': 11090628010, 'lat': -18.5728876, 'lon': -46.5127828, 'tags': {'addr:street': 'Rua Olimpio Pereira de Melo', 'healthcare': 'rehabilitation', 'healthcare:speciality': 'physiotherapy', 'name': 'Cliníca de Fisioterapia - UNIPAM', 'operator': 'UNIPAM'}}"
"{'type': 'node', 'id': 11090692710, 'lat': -18.5730861, 'lon': -46.5117331, 'tags': {'amenity': 'clinic', 'healthcare': 'physiotherapist', 'name': 'Aconchego'}}"
"{'type': 'node', 'id': 11094323482, 'lat': -18.5826873, 'lon': -46.519003, 'tags': {'healthcare': 'laboratory', 'name': 'Carlos Chagas'}}"
"{'type': 'node', 'id': 11094349101, 'lat': -18.576988, 'lon': -46.5146991, 'tags': {'addr:door': '510', 'check_date': '2023-08-09', 'healthcare': 'psychotherapist', 'name': 'Psicologia Especializada'}}"
"{'type': 'node', 'id': 11094369703, 'lat': -18.5939635, 'lon': -46.5164716, 'tags': {'amenity': 'clinic', 'healthcare': 'clinic', 'name': 'Queiroz Pinheiro'}}"
"{'type': 'node', 'id': 11094385901, 'lat': -18.5944594, 'lon': -46.5163849, 'tags': {'amenity': 'clinic', 'healthcare': 'clinic', 'name': 'Otorrino'}}"
"{'type': 'node', 'id': 11094398912, 'lat': -18.5983279, 'lon': -46.5167777, 'tags': {'healthcare': 'laboratory', 'name': 'Medic Imagem'}}"
"{'type': 'node', 'id': 11094452402, 'lat': -18.5914154, 'lon': -46.5150566, 'tags': {'amenity': 'dentist', 'healthcare': 'dentist', 'name': 'Belodente'}}"
"{'type': 'node', 'id': 11094478010, 'lat': -18.5801301, 'lon': -46.5164894, 'tags': {'healthcare': 'psychotherapist', 'name': 'Humanizar'}}"
"{'type': 'node', 'id': 11094479399, 'lat': -18.5823949, 'lon': -46.5185869, 'tags': {'amenity': 'dentist', 'check_date': '2023-08-19', 'healthcare': 'dentist', 'name': 'Odontologia Especializada'}}"
"{'type': 'node', 'id': 11094480609, 'lat': -18.5978559, 'lon': -46.5168476, 'tags': {'healthcare': 'laboratory', 'name': 'Medic Imagem'}}"
"{'type': 'node', 'id': 11094492607, 'lat': -18.5865029, 'lon': -46.5178045, 'tags': {'amenity': 'clinic', 'healthcare': 'clinic', 'name': 'One Núcleo de Saúde'}}"
"{'type': 'node', 'id': 11094515633, 'lat': -18.5974876, 'lon': -46.5161072, 'tags': {'addr:door': '402', 'amenity': 'clinic', 'check_date': '2023-08-21', 'healthcare': 'clinic', 'name': 'Instituto das Especialidades'}}"
"{'type': 'node', 'id': 11094523560, 'lat': -18.5917808, 'lon': -46.5148458, 'tags': {'amenity': 'pharmacy', 'brand': 'Drogasil', 'brand:wikidata': 'Q5308185', 'healthcare': 'pharmacy', 'name': 'Drogasil', 'wheelchair': 'yes'}}"
"{'type': 'node', 'id': 11094525251, 'lat': -18.5943491, 'lon': -46.515084, 'tags': {'amenity': 'pharmacy', 'healthcare': 'pharmacy', 'name': 'Farmácia Regional'}}"
"{'type': 'node', 'id': 11094555218, 'lat': -18.5839217, 'lon': -46.5150094, 'tags': {'amenity': 'dentist', 'healthcare': 'dentist', 'name': 'Faccia'}}"
"{'type': 'node', 'id': 11094593711, 'lat': -18.5942505, 'lon': -46.5150863, 'tags': {'amenity': 'clinic', 'healthcare': 'clinic', 'name': 'Magras'}}"
"{'type': 'node', 'id': 11103365448, 'lat': -18.5976416, 'lon': -46.5169013, 'tags': {'amenity': 'clinic', 'check_date': '2023-08-09', 'healthcare': 'clinic', 'name': 'Clínica de Tratamento de Dor'}}"
"{'type': 'node', 'id': 11103365459, 'lat': -18.6012322, 'lon': -46.5148821, 'tags': {'amenity': 'dentist', 'check_date': '2023-08-09', 'healthcare': 'dentist', 'name': 'Inpes'}}"
"{'type': 'node', 'id': 11103395753, 'lat': -18.5833149, 'lon': -46.5190043, 'tags': {'amenity': 'clinic', 'check_date': '2023-08-09', 'healthcare': 'clinic', 'name': 'AVORIO'}}"
"{'type': 'node', 'id': 11103396783, 'lat': -18.5899578, 'lon': -46.5150209, 'tags': {'amenity': 'pharmacy', 'check_date': '2023-08-27', 'healthcare': 'pharmacy', 'name': 'Bioativa'}}"
"{'type': 'node', 'id': 11103396795, 'lat': -18.5866568, 'lon': -46.5148018, 'tags': {'amenity': 'dentist', 'check_date': '2023-08-09', 'healthcare': 'dentist', 'name': 'Especializada'}}"
"{'type': 'node', 'id': 11103406697, 'lat': -18.5930108, 'lon': -46.5160394, 'tags': {'amenity': 'clinic', 'check_date': '2023-08-09', 'healthcare': 'clinic', 'name': 'Maternar'}}"
"{'type': 'node', 'id': 11105567839, 'lat': -18.5935009, 'lon': -46.51409, 'tags': {'amenity': 'hospital', 'emergency': 'yes', 'healthcare': 'hospital'}}"
"{'type': 'node', 'id': 11112202950, 'lat': -18.5800497, 'lon': -46.5049241, 'tags': {'amenity': 'dentist', 'check_date': '2023-08-13', 'healthcare': 'dentist', 'name': 'Dr. Daniel Ferreira', 'phone': '+55 34 99236-3192'}}"
"{'type': 'node', 'id': 11112202953, 'lat': -18.5830694, 'lon': -46.5062799, 'tags': {'amenity': 'clinic', 'check_date': '2023-08-13', 'healthcare': 'clinic', 'name': 'Jardim Paraiso'}}"
"{'type': 'node', 'id': 11117851238, 'lat': -18.5813321, 'lon': -46.5185912, 'tags': {'check_date': '2023-08-15', 'healthcare': 'physiotherapist', 'name': 'Stout Alfa'}}"
"{'type': 'node', 'id': 11125887380, 'lat': -18.5849709, 'lon': -46.5147828, 'tags': {'check_date': '2023-08-18', 'healthcare': 'laboratory', 'name': 'Carlos Chagas'}}"
"{'type': 'node', 'id': 11128967729, 'lat': -18.5833401, 'lon': -46.5147364, 'tags': {'amenity': 'clinic', 'check_date': '2023-08-19', 'healthcare': 'clinic', 'healthcare:speciality': 'dermatology', 'name': 'Dr. Jéssica Bicalho'}}"
"{'type': 'node', 'id': 11135074356, 'lat': -18.5813866, 'lon': -46.5189776, 'tags': {'amenity': 'dentist', 'check_date': '2023-08-21', 'healthcare': 'dentist', 'name': 'Uzza'}}"
"{'type': 'node', 'id': 11135094788, 'lat': -18.6018226, 'lon': -46.5158816, 'tags': {'amenity': 'dentist', 'check_date': '2023-08-21', 'healthcare': 'dentist', 'name': 'OralUnic Implantes'}}"
"{'type': 'node', 'id': 11135109369, 'lat': -18.5950728, 'lon': -46.5156277, 'tags': {'amenity': 'dentist', 'check_date': '2023-08-21', 'healthcare': 'dentist', 'name': 'Arcade'}}"
"{'type': 'node', 'id': 11135161232, 'lat': -18.5863426, 'lon': -46.5147108, 'tags': {'amenity': 'clinic', 'check_date': '2023-08-21', 'healthcare': 'clinic', 'name': 'Clínica Oliveire'}}"
"{'type': 'node', 'id': 11137333200, 'lat': -18.5894565, 'lon': -46.5147566, 'tags': {'amenity': 'dentist', 'check_date': '2023-08-22', 'healthcare': 'dentist', 'name': 'Amiga'}}"
"{'type': 'node', 'id': 11168349159, 'lat': -18.5860057, 'lon': -46.517147, 'tags': {'check_date': '2023-09-04', 'description': 'Psicologia', 'fixme': 'type', 'fixme:type': 'fixme', 'healthcare': 'psychotherapist', 'name': 'Marcio Greca'}}"
"{'type': 'node', 'id': 11168349166, 'lat': -18.5828052, 'lon': -46.5165414, 'tags': {'amenity': 'clinic', 'check_date': '2023-09-04', 'healthcare': 'clinic', 'name': 'Elevan'}}"
"{'type': 'node', 'id': 11168349176, 'lat': -18.5796475, 'lon': -46.5169702, 'tags': {'amenity': 'dentist', 'check_date': '2023-09-04', 'healthcare': 'dentist', 'name': 'Odontopediatria', 'operator': 'Ana Luiza Ribeiro'}}"
"{'type': 'node', 'id': 11168349177, 'lat': -18.5795112, 'lon': -46.5170094, 'tags': {'amenity': 'dentist', 'check_date': '2023-09-04', 'healthcare': 'dentist', 'name': 'Jéssica rosa'}}"
