OSM_Data
"{'type': 'node', 'id': 286076555, 'lat': 45.2710514, 'lon': -75.2920096, 'tags': {'amenity': 'pharmacy', 'brand': 'Jean Coutu', 'brand:wikidata': 'Q3117457', 'brand:wikipedia': 'en:Jean Coutu Group', 'check_date': '2023-08-01', 'dispensing': 'yes', 'healthcare': 'pharmacy', 'name': 'Jean Coutu'}}"
"{'type': 'node', 'id': 293056235, 'lat': 45.4759251, 'lon': -74.2996154, 'tags': {'addr:city': 'Rigaud', 'addr:housenumber': '59', 'addr:province': 'QC', 'addr:street': 'Rue Saint-Viateur', 'amenity': 'clinic', 'healthcare': 'clinic', 'healthcare:speciality': 'general', 'name': 'CLSC de Vaudreuil-Soulanges'}}"
"{'type': 'node', 'id': 334995781, 'lat': 44.6718245, 'lon': -74.987257, 'tags': {'brand': 'American Red Cross', 'brand:wikidata': 'Q470110', 'donation:compensation': 'no', 'healthcare': 'blood_donation', 'name': 'American Red Cross', 'official_name': 'The American National Red Cross', 'short_name': 'Red Cross'}}"
"{'type': 'node', 'id': 354760274, 'lat': 44.6353237, 'lon': -75.0801511, 'tags': {'amenity': 'doctors', 'healthcare': 'doctor', 'name': 'Hospice of St. Lawrence County'}}"
"{'type': 'node', 'id': 354782227, 'lat': 44.5959192, 'lon': -75.1528082, 'tags': {'addr:city': 'Canton', 'addr:housenumber': '80', 'addr:postcode': '13617', 'addr:state': 'NY', 'addr:street': 'East Main Street', 'addr:unit': 'East Wing', 'amenity': 'clinic', 'branch': 'Canton', 'brand': 'St. Lawrence Health Urgent Care', 'healthcare': 'clinic', 'healthcare:speciality': 'urgent', 'name': 'St. Lawrence Health Urgent Care', 'operator': 'St. Lawrence Health System', 'operator:type': 'private_non_profit', 'operator:wikidata': 'Q107313439', 'phone': '+1 315-386-3300', 'website': 'https://www.stlawrencehealthsystem.org/locations/ej-noble/urgent-care'}}"
"{'type': 'node', 'id': 365301683, 'lat': 44.5999766, 'lon': -75.1489756, 'tags': {'addr:city': 'Canton', 'amenity': 'pharmacy', 'brand': 'Kinney Drugs', 'brand:wikidata': 'Q6414090', 'dispensing': 'yes', 'healthcare': 'pharmacy', 'name': 'Kinney Drugs', 'url': 'http://kinneydrugs.com/inside/storeDetails.php?id=916'}}"
"{'type': 'node', 'id': 365301713, 'lat': 44.943992, 'lon': -74.90028, 'tags': {'addr:city': 'Massena', 'amenity': 'pharmacy', 'brand': 'Kinney Drugs', 'brand:wikidata': 'Q6414090', 'dispensing': 'yes', 'healthcare': 'pharmacy', 'name': 'Kinney Drugs', 'url': 'http://kinneydrugs.com/inside/storeDetails.php?id=939'}}"
"{'type': 'node', 'id': 365301714, 'lat': 44.852003, 'lon': -74.271272, 'tags': {'addr:city': 'Malone', 'amenity': 'pharmacy', 'dispensing': 'yes', 'name': 'Kinney Drugs', 'url': 'http://kinneydrugs.com/inside/storeDetails.php?id=914'}}"
"{'type': 'node', 'id': 365301728, 'lat': 44.6856902, 'lon': -74.9846237, 'tags': {'addr:city': 'Potsdam', 'amenity': 'pharmacy', 'brand': 'Kinney Drugs', 'brand:wikidata': 'Q6414090', 'dispensing': 'yes', 'healthcare': 'pharmacy', 'name': 'Kinney Drugs', 'url': 'http://kinneydrugs.com/inside/storeDetails.php?id=917', 'wheelchair': 'yes'}}"
"{'type': 'node', 'id': 833249019, 'lat': 45.434859, 'lon': -75.1605604, 'tags': {'amenity': 'doctors', 'healthcare': 'doctor', 'source': 'CanVec 6.0 - NRCan'}}"
"{'type': 'node', 'id': 1074312871, 'lat': 45.2566485, 'lon': -74.1251118, 'tags': {'addr:city': 'Salaberry-de-Valleyfield', 'addr:housenumber': '3', 'addr:street': 'Rue Champlain', 'amenity': 'dentist', 'healthcare': 'dentist', 'name': 'Dr. Nguyen Luong Phuc', 'opening_hours': 'Mo,Th 09:00-20:00; Tu 10:00-20:00; We 08:00-17:30; Fr 08:30-15:00; Sa,Su off', 'source': 'NRCan-CanVec-7.0'}}"
"{'type': 'node', 'id': 1074521281, 'lat': 45.3988587, 'lon': -74.1330004, 'tags': {'addr:city': 'Saint-Lazare', 'addr:housenumber': '1710', 'addr:postcode': 'J7T 2X8', 'addr:province': 'QC', 'addr:street': 'Chemin Sainte-Angélique', 'addr:unit': '3', 'amenity': 'doctors', 'building': 'yes', 'healthcare': 'doctor', 'healthcare:speciality': 'general', 'name': 'Clinique Médicale \u200bSaint-Lazare - Dr. Patrice Lepage'}}"
"{'type': 'node', 'id': 1383900796, 'lat': 45.0866126, 'lon': -74.1735934, 'tags': {'amenity': 'pharmacy', 'brand': 'Uniprix', 'brand:wikidata': 'Q683265', 'brand:wikipedia': 'fr:Uniprix (pharmacies)', 'building': 'yes', 'healthcare': 'pharmacy', 'name': 'Uniprix', 'source': 'NRCan-CanVec-7.0'}}"
"{'type': 'node', 'id': 1740933118, 'lat': 45.4801773, 'lon': -74.2887987, 'tags': {'addr:city': 'Rigaud', 'addr:housenumber': '464', 'addr:province': 'QC', 'addr:street': 'Chemin de la Grande-Ligne', 'amenity': 'pharmacy', 'brand': 'Jean Coutu', 'brand:wikidata': 'Q3117457', 'brand:wikipedia': 'fr:Groupe Jean Coutu', 'dispensing': 'yes', 'drive_through': 'no', 'healthcare': 'pharmacy', 'name': 'Jean Coutu'}}"
"{'type': 'node', 'id': 1757773555, 'lat': 45.4763214, 'lon': -74.3044714, 'tags': {'addr:city': 'Rigaud', 'addr:housenumber': '1', 'addr:province': 'QC', 'addr:street': ""Rue de l'Hôtel-de-Ville"", 'amenity': 'clinic', 'healthcare': 'clinic', 'healthcare:speciality': 'general', 'name': 'Centre de Santé de Rigaud'}}"
"{'type': 'node', 'id': 1757802867, 'lat': 45.2963455, 'lon': -74.1790238, 'tags': {'amenity': 'pharmacy', 'brand': 'Familiprix', 'brand:wikidata': 'Q3064881', 'brand:wikipedia': 'fr:Familiprix', 'healthcare': 'pharmacy', 'name': 'Familiprix', 'operator': 'Michel Vinet'}}"
"{'type': 'node', 'id': 1996292341, 'lat': 44.6709324, 'lon': -74.9870937, 'tags': {'amenity': 'pharmacy', 'dispensing': 'no', 'healthcare': 'pharmacy', 'name': 'Harris Medical'}}"
"{'type': 'node', 'id': 2092632404, 'lat': 44.666748, 'lon': -74.993355, 'tags': {'addr:city': 'Potsdam', 'addr:housenumber': '48', 'addr:postcode': '13676', 'addr:state': 'NY', 'addr:street': 'Maple Street', 'amenity': 'pharmacy', 'brand': 'Kinney Drugs', 'brand:wikidata': 'Q6414090', 'dispensing': 'yes', 'drive_through': 'yes', 'healthcare': 'pharmacy', 'name': 'Kinney Drugs', 'phone': '+1-315-262-0529'}}"
"{'type': 'node', 'id': 2420116250, 'lat': 45.3147005, 'lon': -75.2193953, 'tags': {'amenity': 'clinic', 'healthcare': 'clinic'}}"
"{'type': 'node', 'id': 2508971652, 'lat': 45.0210398, 'lon': -74.7299221, 'tags': {'amenity': 'clinic', 'healthcare': 'clinic', 'name': 'Seaway Valley Community Health Centre'}}"
"{'type': 'node', 'id': 2509684262, 'lat': 45.140273, 'lon': -74.4995391, 'tags': {'amenity': 'pharmacy', 'brand': 'I.D.A.', 'brand:wikidata': 'Q65553883', 'healthcare': 'pharmacy', 'name': 'I.D.A.'}}"
"{'type': 'node', 'id': 2578987467, 'lat': 45.6502397, 'lon': -74.9407858, 'tags': {'amenity': 'pharmacy', 'healthcare': 'pharmacy', 'name': 'Proximed', 'source': 'bing'}}"
"{'type': 'node', 'id': 3470379997, 'lat': 44.9007038, 'lon': -75.1831589, 'tags': {'healthcare': 'physiotherapist', 'name': 'Morrisburg Physiotherapy'}}"
"{'type': 'node', 'id': 3470380009, 'lat': 44.9009571, 'lon': -75.1827147, 'tags': {'alt_name': 'Seaway Valley Pharmacy', 'amenity': 'pharmacy', 'brand': 'PharmaChoice', 'brand:wikidata': 'Q7180716', 'brand:wikipedia': 'en:PharmaChoice', 'healthcare': 'pharmacy', 'name': 'PharmaChoice'}}"
"{'type': 'node', 'id': 3470380016, 'lat': 44.8498041, 'lon': -75.3168606, 'tags': {'healthcare': 'alternative', 'healthcare:speciality': 'chiropractic', 'name': 'Upper Canada Chiropractic Centre'}}"
"{'type': 'node', 'id': 3879139515, 'lat': 45.2696862, 'lon': -74.1181819, 'tags': {'amenity': 'pharmacy', 'name': 'Accès Pharma', 'operator': 'Pharmacie Hélène de Champlain'}}"
"{'type': 'node', 'id': 3885190449, 'lat': 45.2646932, 'lon': -74.1301451, 'tags': {'addr:city': 'Salaberry-de-Valleyfield', 'addr:housenumber': '71', 'addr:postcode': 'J6S 3V1', 'addr:province': 'Québec', 'addr:street': 'Rue Maden', 'amenity': 'clinic', 'healthcare': 'clinic', 'name': 'CLSC de Salaberry-de-Valleyfield', 'opening_hours': 'Mo-Fr 08:30-20:00; Sa-Su 08:30-12:00,13:00-16:00', 'operator': 'Gouvernement du Québec', 'phone': '+1-450-371-0143', 'website': 'https://santemonteregie.qc.ca/ouest', 'wheelchair': 'yes'}}"
"{'type': 'node', 'id': 3902403688, 'lat': 45.2618932, 'lon': -74.1281824, 'tags': {'amenity': 'pharmacy', 'brand': 'Jean Coutu', 'brand:wikidata': 'Q3117457', 'brand:wikipedia': 'en:Jean Coutu Group', 'healthcare': 'pharmacy', 'name': 'Jean Coutu'}}"
"{'type': 'node', 'id': 3931458936, 'lat': 45.2659386, 'lon': -74.1267899, 'tags': {'amenity': 'pharmacy', 'brand': 'Familiprix', 'brand:wikidata': 'Q3064881', 'healthcare': 'pharmacy', 'name': 'Familiprix'}}"
"{'type': 'node', 'id': 3931458938, 'lat': 45.2660104, 'lon': -74.1266063, 'tags': {'amenity': 'clinic', 'name': 'Clinique de radiologie Valleyfield'}}"
"{'type': 'node', 'id': 3931476307, 'lat': 45.2424472, 'lon': -74.1258702, 'tags': {'addr:city': 'Salaberry-de-Valleyfield', 'addr:housenumber': '408', 'addr:street': 'Rue Jeanne-Mance', 'amenity': 'pharmacy', 'brand:wikidata': 'Q3408523', 'healthcare': 'pharmacy', 'name': 'Proxim', 'wheelchair': 'yes'}}"
"{'type': 'node', 'id': 4096407305, 'lat': 45.2632079, 'lon': -74.1323384, 'tags': {'amenity': 'dentist', 'healthcare': 'dentist', 'name': 'Dr. Andre Dufour'}}"
"{'type': 'node', 'id': 4141880911, 'lat': 45.2594219, 'lon': -74.1279611, 'tags': {'amenity': 'clinic', 'healthcare': 'clinic', 'name': 'Centre Montérégien de Réadaptation'}}"
"{'type': 'node', 'id': 4143839521, 'lat': 45.1029173, 'lon': -75.2296357, 'tags': {'alt_name': 'Chesterville Pharmacy', 'amenity': 'pharmacy', 'brand': 'PharmaChoice', 'brand:wikidata': 'Q7180716', 'brand:wikipedia': 'en:PharmaChoice', 'healthcare': 'pharmacy', 'name': 'PharmaChoice'}}"
"{'type': 'node', 'id': 4144489325, 'lat': 45.2518226, 'lon': -74.1452491, 'tags': {'amenity': 'pharmacy', 'healthcare': 'pharmacy', 'name': 'Uniprix Clinique'}}"
"{'type': 'node', 'id': 4170565482, 'lat': 45.2562425, 'lon': -74.1289825, 'tags': {'amenity': 'clinic', 'healthcare': 'clinic', 'name': 'CSSS du Suroît - Division Santé Mentale'}}"
"{'type': 'node', 'id': 4239953720, 'lat': 45.4586842, 'lon': -74.141259, 'tags': {'addr:city': 'Hudson', 'addr:housenumber': '465', 'addr:province': 'QC', 'addr:street': 'Rue Main', 'amenity': 'pharmacy', 'brand': 'Brunet', 'brand:wikidata': 'Q2926589', 'healthcare': 'pharmacy', 'name': 'Brunet', 'operator': 'M. Najm, M. Rabbat'}}"
"{'type': 'node', 'id': 4241336361, 'lat': 45.267737, 'lon': -74.1312595, 'tags': {'amenity': 'clinic', 'name': 'Globuline'}}"
"{'type': 'node', 'id': 4244633593, 'lat': 44.9010023, 'lon': -75.1821424, 'tags': {'healthcare': 'alternative', 'healthcare:speciality': 'chiropractic', 'name': 'Morrisburg Chiropractic'}}"
"{'type': 'node', 'id': 4360898145, 'lat': 45.3989184, 'lon': -74.1355389, 'tags': {'addr:city': 'Saint-Lazare', 'addr:housenumber': '1780', 'addr:postcode': 'J7T 2X8', 'addr:province': 'QC', 'addr:street': 'Chemin Sainte-Angélique', 'amenity': 'pharmacy', 'brand': 'Pharmaprix', 'brand:wikidata': 'Q1820137', 'brand:wikipedia': 'fr:Pharmaprix', 'email': 'fphx1904@pharmaprix.ca', 'fax': '+1 450-424-7064', 'healthcare': 'pharmacy', 'name': 'Pharmaprix', 'opening_hours': 'Mo-Fr 09:00-22:00; Sa,Su 09:00-21:00', 'opening_hours:covid19': 'Mo-Su 09:00-20:00', 'phone': '+1 450 424 5751', 'website': 'https://www.pharmaprix.ca/en/store-locator/store/1904', 'website:en': 'https://www.pharmaprix.ca/en/store-locator/store/1904', 'website:fr': 'https://www.pharmaprix.ca/fr/store-locator/store/1904'}}"
"{'type': 'node', 'id': 4360899313, 'lat': 45.4006471, 'lon': -74.1363147, 'tags': {'addr:city': 'Saint-Lazare', 'addr:housenumber': '1811', 'addr:postcode': 'J7T 2X9', 'addr:province': 'QC', 'addr:street': 'Chemin Sainte-Angélique', 'amenity': 'pharmacy', 'brand': 'Familiprix', 'brand:wikidata': 'Q3064881', 'brand:wikipedia': 'fr:Familiprix', 'dispensing': 'yes', 'healthcare': 'pharmacy', 'level': '1', 'name': 'Familiprix', 'opening_hours': 'Mo-Fr 09:00-21:00; Sa,Su 09:00-17:00', 'operator': 'Sandra Bordus', 'phone': '+1-450-455-4331'}}"
"{'type': 'node', 'id': 4401860196, 'lat': 45.458676, 'lon': -74.1412676, 'tags': {'addr:city': 'Hudson', 'addr:housenumber': '465', 'addr:province': 'QC', 'addr:street': 'Rue Main', 'addr:unit': '200', 'amenity': 'clinic', 'healthcare': 'clinic', 'healthcare:speciality': 'general', 'name': 'Hudson Médicentre'}}"
"{'type': 'node', 'id': 4402616676, 'lat': 45.4786555, 'lon': -74.2866552, 'tags': {'addr:city': 'Rigaud', 'addr:housenumber': '531', 'addr:province': 'QC', 'addr:street': 'Chemin J.-René-Gauthier', 'amenity': 'pharmacy', 'brand': 'Proxim', 'brand:wikidata': 'Q3408523', 'dispensing': 'yes', 'drive_through': 'no', 'healthcare': 'pharmacy', 'name': 'Proxim', 'operator': 'Proxim pharmacie affiliée - Francoeur et Gagnon'}}"
"{'type': 'node', 'id': 4441647077, 'lat': 45.5410829, 'lon': -75.2986629, 'tags': {'amenity': 'pharmacy', 'delivery': 'yes', 'healthcare': 'pharmacy', 'name': 'Independent Pharmacy'}}"
"{'type': 'node', 'id': 4453800000, 'lat': 45.6765122, 'lon': -74.4039498, 'tags': {'addr:city': 'Brownsburg-Chatham', 'addr:housenumber': '224', 'addr:street': 'Rue Principale', 'healthcare': 'sample_collection', 'name': 'Géostar'}}"
"{'type': 'node', 'id': 4496903876, 'lat': 45.662187, 'lon': -74.3516909, 'tags': {'amenity': 'clinic', 'healthcare': 'clinic', 'name': ""Centre de santé et de services sociaux d'Argenteuil""}}"
"{'type': 'node', 'id': 4496903877, 'lat': 45.6616145, 'lon': -74.3523369, 'tags': {'amenity': 'clinic', 'healthcare': 'clinic', 'name': 'Clinique Jeunesse'}}"
"{'type': 'node', 'id': 4496910656, 'lat': 45.6560545, 'lon': -74.342431, 'tags': {'amenity': 'pharmacy', 'brand': 'Familiprix', 'brand:wikidata': 'Q3064881', 'brand:wikipedia': 'fr:Familiprix', 'healthcare': 'pharmacy', 'name': 'Familiprix Extra'}}"
"{'type': 'node', 'id': 4496910657, 'lat': 45.6602187, 'lon': -74.3483062, 'tags': {'addr:city': 'Lachute', 'addr:housenumber': '125', 'addr:street': 'Avenue de la Providence', 'amenity': 'dentist', 'healthcare': 'dentist', 'name': 'Centre dentaire Dallaire Delongchamp'}}"
"{'type': 'node', 'id': 4504565879, 'lat': 45.4674341, 'lon': -74.0772624, 'tags': {'amenity': 'pharmacy', 'brand': 'Uniprix', 'brand:wikidata': 'Q683265', 'brand:wikipedia': 'fr:Uniprix (pharmacies)', 'healthcare': 'pharmacy', 'name': 'Uniprix'}}"
"{'type': 'node', 'id': 4530894349, 'lat': 45.5567566, 'lon': -74.887656, 'tags': {'addr:housenumber': '542', 'amenity': 'pharmacy', 'name': 'Pharmacie Alfred', 'opening_hours': 'Mo-We 09:00-17:30; Th,Fr 09:00-18:00; Sa 09:00-16:00', 'operator': 'PharmaChoix'}}"
"{'type': 'node', 'id': 4574020970, 'lat': 45.0888285, 'lon': -74.1735639, 'tags': {'amenity': 'clinic', 'name': 'CLSC Huntingdon'}}"
"{'type': 'node', 'id': 4689140841, 'lat': 45.3003504, 'lon': -74.2990798, 'tags': {'amenity': 'clinic', 'name': 'CLSC Saint-Polycarpe'}}"
"{'type': 'node', 'id': 4872497908, 'lat': 45.6561526, 'lon': -74.3368988, 'tags': {'addr:housenumber': '432', 'addr:postcode': 'J8H 1Y3', 'addr:street': 'Rue Principale', 'amenity': 'pharmacy', 'name': 'PJC Jean Coutu'}}"
"{'type': 'node', 'id': 5046572457, 'lat': 45.2684243, 'lon': -74.138168, 'tags': {'amenity': 'pharmacy', 'healthcare': 'pharmacy', 'name': 'Brunet'}}"
"{'type': 'node', 'id': 5180554117, 'lat': 45.5933244, 'lon': -74.6019752, 'tags': {'addr:city': 'Hawkesbury', 'addr:housenumber': '1560', 'addr:postcode': 'K6A 3S5', 'addr:street': 'Cameron Street', 'amenity': 'pharmacy', 'healthcare': 'pharmacy', 'name': 'Loblaw Pharmacy', 'phone': '+1-613-632-7935'}}"
"{'type': 'node', 'id': 5330085647, 'lat': 45.242633, 'lon': -74.1254394, 'tags': {'addr:city': 'Salaberry-de-Valleyfield', 'addr:housenumber': '408', 'addr:street': 'Rue Jeanne-Mance', 'addr:unit': '900', 'healthcare': 'physiotherapist', 'healthcare:speciality': 'physiotherapy', 'name': 'Action Sport Physio Valleyfield', 'wheelchair': 'yes'}}"
"{'type': 'node', 'id': 5808171243, 'lat': 45.0872498, 'lon': -75.3729674, 'tags': {'addr:housenumber': '12015', 'addr:street': 'Main Street West', 'amenity': 'pharmacy', 'brand': 'Pharmasave', 'brand:wikidata': 'Q17093822', 'brand:wikipedia': 'en:Pharmasave', 'check_date': '2023-10-21', 'healthcare': 'pharmacy', 'name': 'Pharmasave'}}"
"{'type': 'node', 'id': 5808171244, 'lat': 45.0871665, 'lon': -75.3731418, 'tags': {'addr:housenumber': '12015', 'addr:street': 'Main Street West', 'amenity': 'clinic', 'check_date': '2023-10-21', 'healthcare': 'clinic', 'name': 'Medical Clinic'}}"
"{'type': 'node', 'id': 5808944159, 'lat': 45.0931134, 'lon': -75.3539452, 'tags': {'addr:housenumber': '504', 'addr:street': 'Main Street', 'amenity': 'clinic', 'healthcare': 'optometrist', 'name': 'Winchester Optometry'}}"
"{'type': 'node', 'id': 5809570446, 'lat': 45.0921051, 'lon': -75.3533149, 'tags': {'addr:housenumber': '520', 'addr:street': 'St. Lawrence Street', 'amenity': 'clinic', 'healthcare': 'alternative', 'healthcare:speciality': 'chiropractic', 'name': 'St. Lawrence Chiropractic'}}"
"{'type': 'node', 'id': 5809575836, 'lat': 45.0903185, 'lon': -75.3513931, 'tags': {'addr:housenumber': '547', 'addr:street': 'St. Lawrence Street', 'amenity': 'clinic', 'name': 'Seaway Valley CHC'}}"
"{'type': 'node', 'id': 5880266230, 'lat': 45.261041, 'lon': -75.3601787, 'tags': {'addr:housenumber': '1073', 'addr:street': 'Concession Street', 'amenity': 'doctors', 'check_date': '2023-04-24', 'healthcare': 'alternative', 'healthcare:speciality': 'chiropractic', 'name': 'Russell Chiropractic'}}"
"{'type': 'node', 'id': 5880266273, 'lat': 45.2574726, 'lon': -75.3697756, 'tags': {'addr:housenumber': '110', 'addr:street': 'Craig Street', 'amenity': 'clinic', 'healthcare': 'clinic', 'name': 'Russell Medical Centre'}}"
"{'type': 'node', 'id': 5880266274, 'lat': 45.2574594, 'lon': -75.3699017, 'tags': {'addr:housenumber': '110', 'addr:street': 'Craig Street', 'amenity': 'pharmacy', 'brand': 'PharmaChoice', 'brand:wikidata': 'Q7180716', 'brand:wikipedia': 'en:PharmaChoice', 'check_date': '2023-09-28', 'healthcare': 'pharmacy', 'name': 'PharmaChoice'}}"
"{'type': 'node', 'id': 5886191812, 'lat': 45.2689198, 'lon': -75.3111827, 'tags': {'addr:housenumber': '614', 'addr:street': 'Notre Dame Street', 'amenity': 'dentist', 'healthcare': 'dentist', 'name': 'Imagine Orthodontics', 'wheelchair': 'yes'}}"
"{'type': 'node', 'id': 5887974212, 'lat': 45.2688745, 'lon': -75.3035733, 'tags': {'amenity': 'pharmacy', 'brand': ""Remedy'sRx"", 'brand:wikidata': 'Q65553833', 'check_date': '2024-09-08', 'healthcare': 'pharmacy', 'name': ""Remedy'sRx""}}"
"{'type': 'node', 'id': 5888798622, 'lat': 45.2700401, 'lon': -75.2934614, 'tags': {'addr:housenumber': '851', 'addr:street': 'Notre Dame Street', 'amenity': 'doctors', 'healthcare': 'alternative', 'healthcare:speciality': 'chiropractic', 'name': 'Adio Chiropractic', 'opening_hours': 'We,Fr 07:30-12:00; Th 14:00-18:00; Tu 07:30-18:00'}}"
"{'type': 'node', 'id': 5888798646, 'lat': 45.2710726, 'lon': -75.2917045, 'tags': {'amenity': 'clinic', 'healthcare': 'clinic', 'name': 'Embrun Medical Clinic'}}"
"{'type': 'node', 'id': 5888903566, 'lat': 45.2736407, 'lon': -75.2769309, 'tags': {'amenity': 'doctors', 'healthcare': 'midwife', 'name': 'Gentle Beginnings Midwifery'}}"
"{'type': 'node', 'id': 5912904163, 'lat': 44.8490728, 'lon': -75.316452, 'tags': {'addr:city': 'Iroquois', 'addr:housenumber': '41', 'addr:postcode': 'K0E 1K0', 'addr:street': 'Plaza Drive', 'alt_name': 'Gilmer Pharmacy', 'amenity': 'pharmacy', 'brand': 'PharmaChoice', 'brand:wikidata': 'Q7180716', 'brand:wikipedia': 'en:PharmaChoice', 'dispensing': 'yes', 'drive_through': 'no', 'healthcare': 'pharmacy', 'name': 'Gilmer Pharmacy Pharmachoice', 'opening_hours': 'Mo 09:00-17:30; Tu-Th 09:00-18:00; Fr 09:00-20:00; Sa 09:00-17:00'}}"
"{'type': 'node', 'id': 5959563719, 'lat': 45.326234, 'lon': -75.2491111, 'tags': {'amenity': 'clinic', 'name': 'CSC Estrie'}}"
"{'type': 'node', 'id': 5959563722, 'lat': 45.3262434, 'lon': -75.2492841, 'tags': {'amenity': 'pharmacy', 'brand': 'Guardian', 'brand:wikidata': 'Q65553864', 'healthcare': 'pharmacy', 'name': 'Guardian'}}"
"{'type': 'node', 'id': 6061073636, 'lat': 45.5404375, 'lon': -74.9876587, 'tags': {'amenity': 'clinic', 'name': 'Plantagenet Family Health Care Team'}}"
"{'type': 'node', 'id': 6061073637, 'lat': 45.5402948, 'lon': -74.9877137, 'tags': {'amenity': 'pharmacy', 'brand': 'PharmaChoice', 'brand:wikidata': 'Q7180716', 'brand:wikipedia': 'en:PharmaChoice', 'healthcare': 'pharmacy', 'name': 'PharmaChoice', 'name:fr': 'Pharmachoix'}}"
"{'type': 'node', 'id': 6141298791, 'lat': 44.7879955, 'lon': -75.3797648, 'tags': {'amenity': 'pharmacy', 'brand': 'Rexall', 'brand:wikidata': 'Q39045377', 'brand:wikipedia': 'en:Rexall', 'healthcare': 'pharmacy', 'name': 'Rexall'}}"
"{'type': 'node', 'id': 6187145996, 'lat': 45.2163045, 'lon': -75.1509712, 'tags': {'addr:housenumber': '33', 'addr:street': 'Queen Street', 'amenity': 'pharmacy', 'dispensing': 'yes', 'healthcare': 'pharmacy', 'name': 'Medicaid Pharmacy'}}"
"{'type': 'node', 'id': 6404931136, 'lat': 45.2606662, 'lon': -75.3502639, 'tags': {'addr:housenumber': '305', 'addr:street': 'Castor Street', 'amenity': 'dentist', 'check_date': '2023-05-23', 'healthcare': 'dentist', 'name': 'Dr. Lily Nahri', 'wheelchair': 'yes'}}"
"{'type': 'node', 'id': 6405130218, 'lat': 45.2570629, 'lon': -75.3579135, 'tags': {'amenity': 'dentist', 'brand': 'Altima Dental', 'brand:wikidata': 'Q113001373', 'healthcare': 'dentist', 'name': 'Altima Dental'}}"
"{'type': 'node', 'id': 6405169696, 'lat': 45.2694417, 'lon': -75.2935083, 'tags': {'addr:housenumber': '245', 'addr:street': 'Equinox Drive', 'amenity': 'doctors', 'healthcare': 'podiatrist', 'name': 'Foot Care Matters'}}"
"{'type': 'node', 'id': 6405169744, 'lat': 45.268311, 'lon': -75.3082806, 'tags': {'amenity': 'dentist', 'check_date': '2023-12-08', 'healthcare': 'dentist', 'name': 'Dentistry @ Embrun'}}"
"{'type': 'node', 'id': 6417046789, 'lat': 45.0325653, 'lon': -74.7221254, 'tags': {'addr:housenumber': '525', 'addr:street': 'Ninth Street East', 'amenity': 'dentist', 'healthcare': 'dentist', 'name': 'Dr. R. Navaneelan'}}"
"{'type': 'node', 'id': 6418699686, 'lat': 44.8970967, 'lon': -75.1834881, 'tags': {'addr:housenumber': '34', 'addr:street': 'Ottawa Street', 'amenity': 'clinic', 'healthcare': 'clinic', 'name': 'St. Lawrence Medical Clinic'}}"
"{'type': 'node', 'id': 6484639598, 'lat': 45.3098947, 'lon': -74.6354941, 'tags': {'amenity': 'doctors', 'healthcare': 'optometrist', 'name': 'Optometristes'}}"
"{'type': 'node', 'id': 6564661106, 'lat': 45.3142646, 'lon': -75.0882576, 'tags': {'healthcare': 'alternative', 'healthcare:speciality': 'chiropractic', 'name': 'Guy Beauchamp, Chiropractor'}}"
"{'type': 'node', 'id': 6564661177, 'lat': 45.3152483, 'lon': -75.0893272, 'tags': {'amenity': 'doctors', 'healthcare': 'optometrist', 'name': 'Dr. M. Anderson, Optometrist'}}"
"{'type': 'node', 'id': 6564734756, 'lat': 45.3135677, 'lon': -75.087166, 'tags': {'amenity': 'pharmacy', 'brand': 'Pharmasave', 'brand:wikidata': 'Q17093822', 'brand:wikipedia': 'en:Pharmasave', 'healthcare': 'pharmacy', 'name': 'Pharmasave'}}"
"{'type': 'node', 'id': 6564747364, 'lat': 45.3105799, 'lon': -75.0848546, 'tags': {'healthcare': 'physiotherapist', 'name': 'Melaine Lapointe Physiotherapy'}}"
"{'type': 'node', 'id': 6565089698, 'lat': 45.3062638, 'lon': -75.0843121, 'tags': {'amenity': 'dentist', 'healthcare': 'dentist', 'name': 'Dentistrie @ Casselman'}}"
"{'type': 'node', 'id': 6580689188, 'lat': 44.9006819, 'lon': -75.1818567, 'tags': {'healthcare': 'optometrist', 'name': 'Upper Canada Vision'}}"
"{'type': 'node', 'id': 6580689206, 'lat': 44.9013754, 'lon': -75.1810728, 'tags': {'amenity': 'dentist', 'brand': 'Altima Dental', 'brand:wikidata': 'Q113001373', 'healthcare': 'dentist', 'name': 'Altima Dental'}}"
"{'type': 'node', 'id': 6580689209, 'lat': 44.9015568, 'lon': -75.1806269, 'tags': {'amenity': 'pharmacy', 'brand': ""Remedy'sRx"", 'brand:wikidata': 'Q65553833', 'healthcare': 'pharmacy', 'name': ""Remedy'sRx""}}"
"{'type': 'node', 'id': 6597932571, 'lat': 45.5388557, 'lon': -75.3032045, 'tags': {'amenity': 'dentist', 'healthcare': 'dentist', 'name': 'Fournier Denturist Clinic'}}"
"{'type': 'node', 'id': 6597932572, 'lat': 45.5388294, 'lon': -75.30334, 'tags': {'amenity': 'doctors', 'healthcare': 'optometrist', 'name': 'Rockland Family Optometric Centre'}}"
"{'type': 'node', 'id': 6597932573, 'lat': 45.5388858, 'lon': -75.3032742, 'tags': {'addr:housenumber': '2911', 'addr:street': 'Laurier Street', 'amenity': 'dentist', 'healthcare': 'dentist', 'name': 'Dr. Denise Moison and Dr. Eric Lavergne Dentistry'}}"
"{'type': 'node', 'id': 6600216736, 'lat': 45.5445741, 'lon': -75.3013498, 'tags': {'amenity': 'doctors', 'healthcare': 'podiatrist', 'name': 'Burns Ortho Foot Clinic'}}"
"{'type': 'node', 'id': 6600216739, 'lat': 45.5445084, 'lon': -75.3010467, 'tags': {'healthcare': 'laboratory', 'name': 'Dynacare'}}"
"{'type': 'node', 'id': 6600216740, 'lat': 45.5445986, 'lon': -75.3010467, 'tags': {'amenity': 'doctors', 'healthcare': 'doctor', 'name': 'Clarence Rockland X Ray'}}"
"{'type': 'node', 'id': 6600216741, 'lat': 45.5446972, 'lon': -75.3010561, 'tags': {'amenity': 'doctors', 'healthcare': 'doctor', 'name': 'Prescott and Russell Community Mental Health Centre'}}"
"{'type': 'node', 'id': 6600216742, 'lat': 45.5447019, 'lon': -75.3012103, 'tags': {'amenity': 'dentist', 'healthcare': 'dentist', 'name': 'Dr. Eric Pommainville'}}"
"{'type': 'node', 'id': 6600216743, 'lat': 45.5447, 'lon': -75.3013793, 'tags': {'healthcare': 'physiotherapist', 'name': 'Action Plus Physiotherapy'}}"
"{'type': 'node', 'id': 6600232596, 'lat': 45.5401811, 'lon': -75.3056292, 'tags': {'healthcare': 'alternative', 'healthcare:speciality': 'chiropractic', 'name': 'Chiropractic Wellness'}}"
"{'type': 'node', 'id': 6600232639, 'lat': 45.5404948, 'lon': -75.3038643, 'tags': {'healthcare': 'alternative', 'healthcare:speciality': 'chiropractic', 'name': 'Rockland Chiropractic Clinic'}}"
"{'type': 'node', 'id': 6600290340, 'lat': 45.5413834, 'lon': -75.3018406, 'tags': {'amenity': 'doctors', 'healthcare': 'doctor', 'name': 'Skins Derma Care'}}"
"{'type': 'node', 'id': 6600321729, 'lat': 45.545149, 'lon': -75.2957912, 'tags': {'healthcare': 'physiotherapist'}}"
"{'type': 'node', 'id': 6600368480, 'lat': 45.5420625, 'lon': -75.3012519, 'tags': {'amenity': 'dentist', 'healthcare': 'dentist', 'name': 'Dentistry @ Rockland'}}"
"{'type': 'node', 'id': 6600368485, 'lat': 45.5420325, 'lon': -75.3017333, 'tags': {'alt_name': 'Rockland Pharmacy', 'amenity': 'pharmacy', 'brand': 'PharmaChoice', 'brand:wikidata': 'Q7180716', 'brand:wikipedia': 'en:PharmaChoice', 'healthcare': 'pharmacy', 'name': 'PharmaChoice'}}"
"{'type': 'node', 'id': 6600802817, 'lat': 45.5480032, 'lon': -75.2924019, 'tags': {'amenity': 'dentist', 'healthcare': 'dentist', 'name': 'Rockland Dental Hygiene'}}"
"{'type': 'node', 'id': 6678055874, 'lat': 45.0162973, 'lon': -74.7253305, 'tags': {'amenity': 'pharmacy', 'brand': 'Shoppers Drug Mart', 'brand:wikidata': 'Q1820137', 'brand:wikipedia': 'en:Shoppers Drug Mart', 'dispensing': 'yes', 'healthcare': 'pharmacy', 'level': '0', 'name': 'Shoppers Drug Mart', 'website': 'https://www.shoppersdrugmart.ca/en/store-locator/store/605', 'website:en': 'https://www.shoppersdrugmart.ca/en/store-locator/store/605', 'website:fr': 'https://www.shoppersdrugmart.ca/fr/store-locator/store/605'}}"
"{'type': 'node', 'id': 7058905910, 'lat': 45.0272737, 'lon': -74.7048724, 'tags': {'amenity': 'pharmacy', 'brand': 'Shoppers Drug Mart', 'brand:wikidata': 'Q1820137', 'brand:wikipedia': 'en:Shoppers Drug Mart', 'dispensing': 'yes', 'healthcare': 'pharmacy', 'name': 'Shoppers Drug Mart', 'website': 'https://www.shoppersdrugmart.ca/en/store-locator/store/1542', 'website:en': 'https://www.shoppersdrugmart.ca/en/store-locator/store/1542', 'website:fr': 'https://www.shoppersdrugmart.ca/fr/store-locator/store/1542'}}"
"{'type': 'node', 'id': 7058943580, 'lat': 45.0281166, 'lon': -74.7313662, 'tags': {'amenity': 'pharmacy', 'brand': 'Pharmasave', 'brand:wikidata': 'Q17093822', 'brand:wikipedia': 'en:Pharmasave', 'dispensing': 'yes', 'healthcare': 'pharmacy', 'name': 'Pharmasave'}}"
"{'type': 'node', 'id': 7058977952, 'lat': 45.0180804, 'lon': -74.7287975, 'tags': {'amenity': 'pharmacy', 'dispensing': 'yes', 'healthcare': 'pharmacy', 'name': 'Fullerton Drugs'}}"
"{'type': 'node', 'id': 7072570344, 'lat': 45.1016997, 'lon': -75.2292171, 'tags': {'amenity': 'doctors', 'healthcare': 'doctor', 'name': 'Chesterville Medical Clinic'}}"
"{'type': 'node', 'id': 7341658229, 'lat': 45.5075493, 'lon': -75.214603, 'tags': {'addr:city': 'Clarence Creek', 'addr:housenumber': '1922', 'addr:postcode': 'K0A 1N0', 'addr:street': 'Labonte Street', 'alt_name': 'Clarence Creek Pharmacy', 'amenity': 'pharmacy', 'brand': 'I.D.A.', 'brand:wikidata': 'Q65553883', 'healthcare': 'pharmacy', 'name': 'I.D.A.'}}"
"{'type': 'node', 'id': 7341658230, 'lat': 45.5319661, 'lon': -75.3063853, 'tags': {'addr:city': 'Clarence-Rockland', 'addr:country': 'CA', 'addr:housenumber': '3001', 'addr:postcode': 'K4K 0B5', 'addr:state': 'ON', 'addr:street': 'Richelieu Street', 'amenity': 'pharmacy', 'brand': 'Walmart', 'brand:wikidata': 'Q483551', 'brand:wikipedia': 'en:Walmart', 'check_date': '2024-11-13', 'healthcare': 'pharmacy', 'name': 'Walmart Pharmacy', 'phone': '+1 613-446-5730', 'website': 'https://www.walmart.ca/en/stores-near-me/rockland-on-1060', 'website:en': 'https://www.walmart.ca/en/stores-near-me/rockland-on-1060', 'website:fr': 'https://www.walmart.ca/fr/magasins-pres-de-chez-moi/rockland-on-1060'}}"
"{'type': 'node', 'id': 7341699818, 'lat': 45.0250327, 'lon': -74.7315214, 'tags': {'addr:city': 'Cornwall', 'addr:housenumber': '609', 'addr:postcode': 'K6J 3R8', 'addr:street': 'Pitt Street', 'amenity': 'pharmacy', 'healthcare': 'pharmacy', 'name': 'Cornwall Medical Pharmacy'}}"
"{'type': 'node', 'id': 7341699819, 'lat': 45.0023833, 'lon': -74.7416318, 'tags': {'addr:city': 'Summerstown', 'addr:housenumber': '219', 'addr:postcode': 'K6H 0G5', 'addr:street': 'Akwesasne International Road', 'amenity': 'pharmacy', 'healthcare': 'pharmacy', 'name': 'Arrowhead Pharmacy'}}"
"{'type': 'node', 'id': 7341699821, 'lat': 45.017014, 'lon': -74.7312553, 'tags': {'addr:city': 'Cornwall', 'addr:housenumber': '126', 'addr:postcode': 'K6J 1G5', 'addr:street': 'Second Street West', 'amenity': 'pharmacy', 'healthcare': 'pharmacy', 'name': 'Whole Health Pharmacy'}}"
"{'type': 'node', 'id': 7341699822, 'lat': 45.0183905, 'lon': -74.7133239, 'tags': {'addr:city': 'Cornwall', 'addr:housenumber': '173', 'addr:postcode': 'K6H 1B2', 'addr:street': 'Montreal Road', 'amenity': 'pharmacy', 'healthcare': 'pharmacy', 'name': 'Medical Arts Pharmacy'}}"
"{'type': 'node', 'id': 7341699823, 'lat': 45.0160319, 'lon': -74.709876, 'tags': {'addr:city': 'Cornwall', 'addr:housenumber': '703', 'addr:postcode': 'K6H 0E7', 'addr:street': 'Cotton Mill Street', 'amenity': 'pharmacy', 'healthcare': 'pharmacy', 'name': 'Cotton Mill Pharmacy'}}"
"{'type': 'node', 'id': 7341699824, 'lat': 45.0285397, 'lon': -74.7171304, 'tags': {'addr:city': 'Cornwall', 'addr:housenumber': '820', 'addr:postcode': 'K6H 4M4', 'addr:street': 'Mcconnell Avenue', 'amenity': 'pharmacy', 'healthcare': 'pharmacy', 'name': 'Fullerton Drugs'}}"
"{'type': 'node', 'id': 7341699825, 'lat': 45.0324284, 'lon': -74.7241577, 'tags': {'addr:city': 'Cornwall', 'addr:housenumber': '525', 'addr:postcode': 'K6H 0A3', 'addr:street': 'Ninth Street East', 'amenity': 'pharmacy', 'healthcare': 'pharmacy', 'name': 'Freshco Pharmacy'}}"
"{'type': 'node', 'id': 7341745839, 'lat': 45.5192565, 'lon': -74.6513668, 'tags': {'addr:city': 'Vankleek Hill', 'addr:housenumber': '28', 'addr:postcode': 'K0B 1R0', 'addr:street': 'Main Street East', 'alt_name': 'Vankleek Hill Pharmacy', 'amenity': 'pharmacy', 'brand': 'PharmaChoice', 'brand:wikidata': 'Q7180716', 'brand:wikipedia': 'en:PharmaChoice', 'healthcare': 'pharmacy', 'name': 'PharmaChoice'}}"
"{'type': 'node', 'id': 7341745840, 'lat': 45.6097051, 'lon': -74.6090383, 'tags': {'addr:city': 'Hawkesbury', 'addr:housenumber': '214', 'addr:postcode': 'K6A 1A5', 'addr:street': 'Main Street East', 'amenity': 'pharmacy', 'healthcare': 'pharmacy', 'name': 'Lise St-Denis Pharmacy'}}"
"{'type': 'node', 'id': 7341745841, 'lat': 45.5935948, 'lon': -74.6031892, 'tags': {'addr:city': 'Hawkesbury', 'addr:country': 'CA', 'addr:housenumber': '1550', 'addr:postcode': 'K6A 3S5', 'addr:state': 'ON', 'addr:street': 'Cameron Streeet', 'amenity': 'pharmacy', 'brand': 'Walmart', 'brand:wikidata': 'Q483551', 'brand:wikipedia': 'fr:Walmart', 'check_date': '2024-11-13', 'healthcare': 'pharmacy', 'name': 'Walmart Pharmacy', 'phone': '+1 613-632-3455', 'website': 'https://www.walmart.ca/en/stores-near-me/hawkesbury-1159', 'website:en': 'https://www.walmart.ca/en/stores-near-me/hawkesbury-1159', 'website:fr': 'https://www.walmart.ca/fr/magasins-pres-de-chez-moi/hawkesbury-1159'}}"
"{'type': 'node', 'id': 7341745842, 'lat': 45.5987105, 'lon': -74.6087627, 'tags': {'addr:city': 'Hawkesbury', 'addr:housenumber': '1062', 'addr:postcode': 'K6A 3B2', 'addr:street': 'Ghislain Street', 'amenity': 'pharmacy', 'brand': 'Jean Coutu', 'brand:wikidata': 'Q3117457', 'brand:wikipedia': 'fr:Groupe Jean Coutu', 'healthcare': 'pharmacy', 'name': 'Jean Coutu'}}"
"{'type': 'node', 'id': 7341745844, 'lat': 45.3851292, 'lon': -74.9052511, 'tags': {'addr:city': 'Saint Isidore', 'addr:housenumber': '4553', 'addr:postcode': 'K0C 2B0', 'addr:street': 'Ste. Catherine Street', 'alt_name': 'Dispensaire St-Isidore', 'amenity': 'pharmacy', 'brand': 'Pharmasave', 'brand:wikidata': 'Q17093822', 'brand:wikipedia': 'en:Pharmasave', 'healthcare': 'pharmacy', 'name': 'Pharmasave'}}"
"{'type': 'node', 'id': 7341745845, 'lat': 45.1721579, 'lon': -74.9669704, 'tags': {'addr:city': 'Avonmore', 'addr:housenumber': '3287', 'addr:postcode': 'K0C 1C0', 'addr:street': 'Main Street', 'alt_name': 'Avonmore Pharmacy', 'amenity': 'pharmacy', 'brand': ""Remedy'sRx"", 'brand:wikidata': 'Q65553833', 'healthcare': 'pharmacy', 'name': ""Remedy'sRx""}}"
"{'type': 'node', 'id': 7343285067, 'lat': 45.0360826, 'lon': -74.7413946, 'tags': {'addr:city': 'Cornwall', 'addr:housenumber': '1327', 'addr:postcode': 'K6J 3T7', 'addr:street': 'Pitt Street', 'amenity': 'pharmacy', 'healthcare': 'pharmacy', 'name': 'Pitt Street Pharmacy'}}"
"{'type': 'node', 'id': 7343285068, 'lat': 45.0233168, 'lon': -74.7435436, 'tags': {'addr:city': 'Cornwall', 'addr:country': 'CA', 'addr:housenumber': '420', 'addr:postcode': 'K2J 0B3', 'addr:state': 'ON', 'addr:street': 'Ninth Street', 'amenity': 'pharmacy', 'brand': 'Walmart', 'brand:wikidata': 'Q483551', 'brand:wikipedia': 'en:Walmart', 'check_date': '2024-11-12', 'healthcare': 'pharmacy', 'name': 'Walmart Pharmacy', 'opening_hours': 'Mo-Su 07:00-23:00', 'phone': '+1 613-933-8366', 'website': 'https://www.walmart.ca/en/stores-near-me/cornwall-ontario-3020', 'website:en': 'https://www.walmart.ca/en/stores-near-me/cornwall-ontario-3020', 'website:fr': 'https://www.walmart.ca/fr/magasins-pres-de-chez-moi/cornwall-ontario-3020'}}"
"{'type': 'node', 'id': 7343285069, 'lat': 45.0343218, 'lon': -74.7384705, 'tags': {'addr:city': 'Cornwall', 'addr:housenumber': '30', 'addr:postcode': 'K6H 6V9', 'addr:street': '13th Street East', 'amenity': 'pharmacy', 'healthcare': 'pharmacy', 'name': 'Medical Arts Pharmacy'}}"
"{'type': 'node', 'id': 7343285070, 'lat': 45.0306731, 'lon': -74.7344829, 'tags': {'addr:city': 'Cornwall', 'addr:housenumber': '31', 'addr:postcode': 'K6H 6R3', 'addr:street': 'Ninth Street East', 'amenity': 'pharmacy', 'healthcare': 'pharmacy', 'name': 'Drugstore Pharmacy'}}"
"{'type': 'node', 'id': 7473168725, 'lat': 45.4763285, 'lon': -74.3044861, 'tags': {'addr:city': 'Rigaud', 'addr:housenumber': '1', 'addr:province': 'QC', 'addr:street': ""Rue de l'Hôtel-de-Ville"", 'amenity': 'pharmacy', 'brand': 'Jean Coutu', 'brand:wikidata': 'Q3117457', 'brand:wikipedia': 'fr:Groupe Jean Coutu', 'dispensing': 'yes', 'drive_through': 'no', 'healthcare': 'pharmacy', 'name': 'Jean Coutu Santé'}}"
"{'type': 'node', 'id': 7786044168, 'lat': 45.6615035, 'lon': -74.350185, 'tags': {'amenity': 'clinic', 'healthcare': 'clinic'}}"
"{'type': 'node', 'id': 7908491553, 'lat': 45.2527135, 'lon': -74.2268417, 'tags': {'amenity': 'dentist', 'healthcare': 'dentist'}}"
"{'type': 'node', 'id': 7967872610, 'lat': 45.5682176, 'lon': -75.1242999, 'tags': {'amenity': 'pharmacy', 'brand': 'Pharmasave', 'brand:wikidata': 'Q17093822', 'brand:wikipedia': 'en:Pharmasave', 'healthcare': 'pharmacy', 'name': 'Pharmasave'}}"
"{'type': 'node', 'id': 8423554898, 'lat': 45.5936468, 'lon': -74.600242, 'tags': {'addr:city': 'Hawkesbury', 'addr:housenumber': '1400', 'addr:postcode': 'K6A 3T1', 'addr:street': 'Cameron Street', 'amenity': 'dentist', 'building': 'yes', 'healthcare': 'dentist', 'name': 'Centre Dentaire Hawkesbury Dental Centre', 'phone': '+1-613-632-5656', 'website': 'https://www.lesmile.com/'}}"
"{'type': 'node', 'id': 8676807900, 'lat': 45.3998262, 'lon': -74.1366146, 'tags': {'addr:city': 'Saint-Lazare', 'addr:housenumber': '1807', 'addr:postcode': 'J7T 2X9', 'addr:province': 'QC', 'addr:street': 'Chemin Sainte-Angélique', 'amenity': 'dentist', 'email': 'info@symbiosedentaire.com', 'healthcare': 'dentist', 'healthcare:speciality': 'dentist', 'name': 'Symbiose', 'opening_hours': 'Mo 08:00-20:00; Tu 09:00-20:00; We 09:00-17:00; Th 08:00-20:00; Fr 08:00-16:00', 'phone': '+1-450-455-7455', 'website': 'https://symbiosedentaire.com'}}"
"{'type': 'node', 'id': 8679938132, 'lat': 45.3964612, 'lon': -74.0539758, 'tags': {'addr:city': 'Vaudreuil-Dorion', 'addr:housenumber': '3051', 'addr:postcode': 'J7V 0H1', 'addr:province': 'Québec', 'addr:street': 'Boulevard de la Gare', 'amenity': 'pharmacy', 'brand:wikidata': 'Q2926589', 'dispensing': 'yes', 'drive_through': 'no', 'healthcare': 'pharmacy', 'name': 'Brunet plus', 'opening_hours': 'Mo-Fr 08:30-21:00; Sa-Su 09:00-18:00', 'opening_hours:covid19': 'Mo-Fr 09:00-20:00; Sa-Su 09:00-18:00', 'operator': 'Emmanuelle Laflamme', 'phone': '+1-450-424-9229'}}"
"{'type': 'node', 'id': 8680004149, 'lat': 45.3969357, 'lon': -74.05396, 'tags': {'addr:city': 'Vaudreuil-Dorion', 'addr:housenumber': '3061', 'addr:postcode': 'J7V 9R2', 'addr:province': 'Québec', 'addr:street': 'Boulevard de la Gare', 'addr:unit': '108', 'amenity': 'dentist', 'email': 'info.vaudreuil@dentalmontreal.com', 'healthcare': 'dentist', 'name': 'Dental Montréal', 'opening_hours': 'Mo 13:00-19:00; Tu 08:00-17:00; Fr,Sa 09:00-15:00; We,Su off', 'phone': '+1-450-424-1414', 'website': 'https://dentalmontreal.com/'}}"
"{'type': 'node', 'id': 8681391138, 'lat': 45.4417329, 'lon': -74.1063169, 'tags': {'addr:city': 'Hudson', 'addr:housenumber': '73', 'addr:province': 'QC', 'addr:street': 'Rue Bellevue', 'alt_name': 'Dr. Robert Clark', 'amenity': 'dentist', 'healthcare': 'dentist', 'name': 'Dr. Bob Clark'}}"
"{'type': 'node', 'id': 8718307337, 'lat': 45.3998977, 'lon': -74.1345496, 'tags': {'addr:city': 'Saint-Lazare', 'addr:housenumber': '1763', 'addr:postcode': 'J7T 2X7', 'addr:province': 'QC', 'addr:street': 'Chemin Sainte-Angélique', 'addr:unit': '200', 'amenity': 'dentist', 'email': 'info@angeliquedentaire.ca', 'healthcare': 'dentist', 'healthcare:speciality': 'dentist', 'name': 'Angélique Dentaire', 'name:fr': 'Angélique Dentaire', 'opening_hours': 'Mo 08:30-19:00; Tu-We 08:30-17:00; Th 08:30-19:00; Fr 09:00-16:00', 'phone': '+1-450-455-7924', 'website': 'https://angeliquedentaire.ca/'}}"
"{'type': 'node', 'id': 8718307339, 'lat': 45.4007572, 'lon': -74.1364291, 'tags': {'addr:city': 'Saint-Lazare', 'addr:housenumber': '1811', 'addr:postcode': 'J7T 2X9', 'addr:province': 'QC', 'addr:street': 'Chemin Sainte-Angélique', 'amenity': 'clinic', 'healthcare': 'clinic', 'name': 'Clinique Médicentre', 'opening_hours:signed': 'no', 'wheelchair': 'yes'}}"
"{'type': 'node', 'id': 8718307340, 'lat': 45.4007772, 'lon': -74.1364589, 'tags': {'addr:city': 'Saint-Lazare', 'addr:housenumber': '1811', 'addr:postcode': 'J7T 2X9', 'addr:province': 'QC', 'addr:street': 'Chemin Sainte-Angélique', 'addr:unit': 'E', 'email': 'info@physioergopro.com', 'fax': '+1-450-218-2216', 'healthcare': 'physiotherapist', 'healthcare:speciality': 'physiotherapy;massage_therapy;acupuncture', 'name': 'Physio-Ergo Pro Santé', 'opening_hours': 'Mo,We 08:30-20:00; Tu,Th-Fr 08:30-16:30', 'phone': '+1-450-218-2214', 'website': 'http://www.physioergopro.com/'}}"
"{'type': 'node', 'id': 8719086231, 'lat': 45.4003814, 'lon': -74.1417145, 'tags': {'addr:city': 'Saint-Lazare', 'addr:housenumber': '1963', 'addr:postcode': 'J7T 2Y4', 'addr:province': 'QC', 'addr:street': 'Chemin Sainte-Angélique', 'addr:unit': '111', 'email': 'mariemichellerousseau@gmail.com', 'fax': '+1-450-319-6023', 'healthcare': 'physiotherapist', 'healthcare:speciality': 'physiotherapy', 'name': 'Physiothérapie Saint-Lazare', 'opening_hours': 'Mo 08:00-19:00; Tu 08:00-18:00; We 08:00-19:00; Th 08:00-18:00; Fr 08:00-16:00', 'phone': '+1-450-319-6022', 'website': 'https://www.physiotherapiesaintlazare.com/'}}"
"{'type': 'node', 'id': 8719086238, 'lat': 45.3986324, 'lon': -74.1263649, 'tags': {'addr:city': 'Saint-Lazare', 'addr:housenumber': '1537', 'addr:postcode': 'J7T 1Y6', 'addr:province': 'QC', 'addr:street': 'Chemin Sainte-Angélique', 'email': 'info@chirostlazare.com', 'healthcare': 'alternative', 'healthcare:speciality': 'chiropractic', 'name': 'Centre Chiropratique St-Lazare', 'opening_hours': 'Mo 16:30-19:30; Tu 07:45-11:00,15:00-18:30; We 16:00-19:00; Th 07:45-11:00,15:00-18:30', 'operator': 'Dr Eric S. Butz, chiropraticien', 'phone': '+1-514-594-0208', 'website': 'https://www.chirostlazare.com/'}}"
"{'type': 'node', 'id': 8719086239, 'lat': 45.4002729, 'lon': -74.1433517, 'tags': {'addr:city': 'Saint-Lazare', 'addr:housenumber': '2010', 'addr:postcode': 'J7T 2Y7', 'addr:province': 'QC', 'addr:street': 'Chemin Sainte-Angélique', 'email': 'info@drlepagechiropraticien.com', 'healthcare': 'alternative', 'healthcare:speciality': 'chiropractic', 'name': 'Centre chiropratique Dr Lepage Chiropraticien', 'phone': '+1-450-455-9822', 'website': 'https://drlepagechiropraticien.com/'}}"
"{'type': 'node', 'id': 8870725375, 'lat': 45.5606039, 'lon': -74.3345729, 'tags': {'amenity': 'pharmacy', 'brand': 'Proxim', 'brand:wikidata': 'Q3408523', 'dispensing': 'yes', 'healthcare': 'pharmacy', 'name': 'Proxim'}}"
"{'type': 'node', 'id': 8983886835, 'lat': 45.39414, 'lon': -74.0539617, 'tags': {'addr:city': 'Vaudreuil-Dorion', 'addr:housenumber': '3031', 'addr:province': 'QC', 'addr:street': 'Boulevard de la Gare', 'amenity': 'clinic', 'government': 'healthcare', 'healthcare': 'clinic', 'healthcare:speciality': 'general', 'name': 'CISSS Montérégie-Ouest'}}"
"{'type': 'node', 'id': 8983886885, 'lat': 45.3941239, 'lon': -74.0539639, 'tags': {'addr:city': 'Vaudreuil-Dorion', 'addr:housenumber': '3031', 'addr:province': 'QC', 'addr:street': 'Boulevard de la Gare', 'addr:unit': '102', 'healthcare': 'audiologist', 'name': 'Clinique auditive Laniel'}}"
"{'type': 'node', 'id': 8983938978, 'lat': 45.3901439, 'lon': -74.0540152, 'tags': {'addr:city': 'Vaudreuil-Dorion', 'addr:housenumber': '2905', 'addr:province': 'Québec', 'addr:street': 'Boulevard de la Gare', 'amenity': 'pharmacy', 'brand': 'Familiprix', 'brand:wikidata': 'Q3064881', 'brand:wikipedia': 'fr:Familiprix', 'healthcare': 'pharmacy', 'name': 'Familiprix'}}"
"{'type': 'node', 'id': 8983944207, 'lat': 45.3911799, 'lon': -74.0545171, 'tags': {'addr:city': 'Vaudreuil-Dorion', 'addr:housenumber': '2921', 'addr:province': 'QC', 'addr:street': 'Boulevard de la Gare', 'healthcare': 'physiotherapist', 'healthcare:speciality': 'massage_therapy;osteopathy;physiotherapy;acupuncture;occupational', 'name': 'PhysioExtra'}}"
"{'type': 'node', 'id': 8984022627, 'lat': 45.3956935, 'lon': -74.0577065, 'tags': {'addr:city': 'Vaudreuil-Dorion', 'addr:country': 'CA', 'addr:housenumber': '3050', 'addr:postcode': 'J7V 0H1', 'addr:province': 'Québec', 'addr:state': 'QC', 'addr:street': 'Boulevard de la Gare', 'amenity': 'pharmacy', 'brand': 'Walmart', 'brand:wikidata': 'Q483551', 'brand:wikipedia': 'fr:Walmart', 'check_date': '2024-11-13', 'dispensing': 'yes', 'healthcare': 'pharmacy', 'name': 'Accès Pharma', 'phone': '+1 450-510-3314', 'website': 'https://www.walmart.ca/en/stores-near-me/vaudreuil-qc-1057', 'website:en': 'https://www.walmart.ca/en/stores-near-me/vaudreuil-qc-1057', 'website:fr': 'https://www.walmart.ca/fr/magasins-pres-de-chez-moi/vaudreuil-qc-1057'}}"
"{'type': 'node', 'id': 8984022681, 'lat': 45.3958313, 'lon': -74.054854, 'tags': {'amenity': 'dentist', 'healthcare': 'dentist', 'healthcare:speciality': 'orthodontics'}}"
"{'type': 'node', 'id': 9015414735, 'lat': 45.3120987, 'lon': -74.0607634, 'tags': {'addr:city': 'Les Cèdres', 'addr:housenumber': '208', 'addr:postcode': 'J7T 1J3', 'addr:province': 'QC', 'addr:street': 'Chemin Saint-Féréol', 'amenity': 'dentist', 'email': 'centredentairedc@videotron.ca', 'healthcare': 'dentist', 'name': 'Centre dentaire des Cèdres', 'opening_hours': 'Mo-Tu 09:00-17:00; We 09:00-20:00; Th 10:00-20:00; Fr 09:00-15:30', 'phone': '+1-450-200-4200', 'website': 'https://www.CentreDentaireDesCedres.com'}}"
"{'type': 'node', 'id': 9015441552, 'lat': 45.3122498, 'lon': -74.0608603, 'tags': {'addr:city': 'Les Cèdres', 'addr:housenumber': '210', 'addr:postcode': 'J7T 1J3', 'addr:province': 'QC', 'addr:street': 'Chemin Saint-Féréol', 'amenity': 'pharmacy', 'brand': 'Proxim', 'brand:wikidata': 'Q3408523', 'brand:wikipedia': 'en:Proxim', 'drive_through': 'no', 'fax': '+1-450-452-0465', 'healthcare': 'pharmacy', 'name': 'Proxim', 'opening_hours': 'Mo-Fr 09:00-19:00; Sa,Su 09:00-17:00', 'owner': 'Karine Valiquette', 'phone': '+1-450-452-1114', 'website': 'https://www.groupeproxim.ca/fr/quebec/les-cedres/karine-valiquette-7016302'}}"
"{'type': 'node', 'id': 9072207274, 'lat': 45.5994317, 'lon': -75.2442152, 'tags': {'addr:city': 'Thurso', 'addr:housenumber': '156', 'addr:street': 'Rue Galipeau', 'amenity': 'pharmacy', 'brand': 'Uniprix', 'brand:wikidata': 'Q683265', 'brand:wikipedia': 'fr:Uniprix (pharmacies)', 'dispensing': 'yes', 'healthcare': 'pharmacy', 'name': 'Uniprix'}}"
"{'type': 'node', 'id': 9073228049, 'lat': 45.5968136, 'lon': -75.244782, 'tags': {'amenity': 'dentist', 'healthcare': 'dentist', 'name': 'Clinique Dentaire Bibeau'}}"
"{'type': 'node', 'id': 9077015952, 'lat': 45.3982605, 'lon': -74.1283722, 'tags': {'addr:city': 'Saint-Lazare', 'addr:housenumber': '1576', 'addr:province': 'QC', 'addr:street': 'Chemin Sainte-Angélique', 'addr:unit': 'B', 'amenity': 'dentist', 'healthcare': 'dentist', 'name': 'Centre dentaire Saint-Lazare - Dr. Roseline Tétreault'}}"
"{'type': 'node', 'id': 9081950190, 'lat': 45.3996485, 'lon': -74.1352545, 'tags': {'addr:city': 'Saint-Lazare', 'addr:housenumber': '1710', 'addr:postcode': 'J7T 2X7', 'addr:province': 'Québec', 'addr:street': 'Chemin Sainte-Angélique', 'addr:unit': '3', 'drive_through': 'no', 'email': 'cliniquemedicalestlazare@gmail.com', 'fax': '+1-450-424-6183', 'healthcare': 'clinic', 'name': 'Clinique Médicale Saint-Lazare', 'operator': 'Dr Patrice Lepage', 'phone': '+1 450-424-9557', 'website': 'https://www.cliniquemedicalestlazare.com'}}"
"{'type': 'node', 'id': 9187423369, 'lat': 45.6092222, 'lon': -74.6115669, 'tags': {'addr:city': 'Hawkesbury', 'addr:housenumber': '80', 'addr:postcode': 'K6A 1A1', 'addr:province': 'Ontario', 'addr:street': 'Main Street East', 'amenity': 'pharmacy', 'brand': 'Jean Coutu', 'brand:wikidata': 'Q3117457', 'brand:wikipedia': 'fr:Groupe Jean Coutu', 'healthcare': 'pharmacy', 'name': 'Jean Coutu', 'phone': '+1-613-632-2743', 'website': 'https://www.jeancoutu.com/'}}"
"{'type': 'node', 'id': 9390966939, 'lat': 45.4590639, 'lon': -74.1417774, 'tags': {'addr:city': 'Hudson', 'addr:housenumber': '472', 'addr:province': 'QC', 'addr:street': 'Rue Main', 'addr:unit': 'G', 'healthcare': 'physiotherapist', 'name': 'Clinique Physiom'}}"
"{'type': 'node', 'id': 9390966945, 'lat': 45.459057, 'lon': -74.1417161, 'tags': {'addr:city': 'Hudson', 'addr:housenumber': '472', 'addr:province': 'QC', 'addr:street': 'Rue Main', 'addr:unit': 'I', 'amenity': 'dentist', 'healthcare': 'dentist', 'name': 'Dr. D. Littner - Litner Baker Associates'}}"
"{'type': 'node', 'id': 9394636799, 'lat': 45.4237347, 'lon': -74.1259376, 'tags': {'addr:city': 'Vaudreuil-Dorion', 'addr:housenumber': '1615', 'addr:province': 'QC', 'addr:street': 'Chemin Daoust', 'addr:unit': '130', 'healthcare': 'physiotherapist', 'name': 'Altius Physio'}}"
"{'type': 'node', 'id': 9395131212, 'lat': 45.4791937, 'lon': -74.2949107, 'tags': {'addr:city': 'Rigaud', 'addr:housenumber': '102', 'addr:province': 'QC', 'addr:street': 'Rue Saint-Jean-Baptiste Est', 'amenity': 'dentist', 'healthcare': 'dentist', 'name': 'Centre dentaire Rigaud'}}"
"{'type': 'node', 'id': 9395340689, 'lat': 45.4587032, 'lon': -74.1412398, 'tags': {'addr:city': 'Hudson', 'addr:housenumber': '465', 'addr:province': 'QC', 'addr:street': 'Rue Main', 'addr:unit': '200', 'healthcare': 'audiologist', 'name': 'Groupe Forget'}}"
"{'type': 'node', 'id': 9395340690, 'lat': 45.4586673, 'lon': -74.1412755, 'tags': {'addr:city': 'Hudson', 'addr:housenumber': '465', 'addr:province': 'QC', 'addr:street': 'Rue Main', 'addr:unit': '201', 'healthcare': 'laboratory', 'name': 'Biron Express'}}"
"{'type': 'node', 'id': 9395340691, 'lat': 45.458694, 'lon': -74.1412505, 'tags': {'addr:city': 'Hudson', 'addr:housenumber': '465', 'addr:province': 'QC', 'addr:street': 'Rue Main', 'addr:unit': '203', 'healthcare': 'physiotherapist', 'name': 'Physiothérapie Hudson'}}"
"{'type': 'node', 'id': 9395520036, 'lat': 45.4590515, 'lon': -74.1432955, 'tags': {'addr:city': 'Hudson', 'addr:housenumber': '487', 'addr:province': 'QC', 'addr:street': 'Rue Main', 'healthcare': 'alternative', 'healthcare:speciality': 'chiropractic', 'name': 'Centre Chiropratique Hudson'}}"
"{'type': 'node', 'id': 9426381063, 'lat': 45.4787415, 'lon': -74.2866677, 'tags': {'addr:city': 'Rigaud', 'addr:housenumber': '533', 'addr:province': 'QC', 'addr:street': 'Chemin J.-René-Gauthier', 'amenity': 'dentist', 'healthcare': 'dentist', 'healthcare:speciality': 'denturist', 'name': 'Valérie Villeneuve Denturologiste'}}"
"{'type': 'node', 'id': 9516639696, 'lat': 44.9306234, 'lon': -74.8919234, 'tags': {'amenity': 'pharmacy', 'brand': 'Rite Aid', 'brand:wikidata': 'Q3433273', 'dispensing': 'yes', 'healthcare': 'pharmacy', 'name': 'Rite Aid'}}"
"{'type': 'node', 'id': 9908572451, 'lat': 45.2574317, 'lon': -74.2147898, 'tags': {'amenity': 'pharmacy', 'brand': 'Jean Coutu', 'brand:wikidata': 'Q3117457', 'healthcare': 'pharmacy', 'name': 'Jean Coutu'}}"
"{'type': 'node', 'id': 10005029486, 'lat': 45.6102357, 'lon': -74.6171287, 'tags': {'addr:city': 'Hawkesbury', 'addr:housenumber': '225', 'addr:postcode': 'K6A 3R7', 'addr:province': 'Ontario', 'addr:street': 'Main Street West', 'amenity': 'dentist', 'healthcare': 'dentist', 'name': 'Clinique Dentaire Bédard & Villeneuve', 'phone': '+1 6136324566', 'website': 'https://dentistesbedardvilleneuve.com'}}"
"{'type': 'node', 'id': 11036374060, 'lat': 45.6095814, 'lon': -74.6157534, 'tags': {'addr:city': 'Hawkesbury', 'addr:housenumber': '130', 'addr:postcode': 'K6A 2H2', 'addr:province': 'Ontario', 'addr:street': 'Main Street West', 'healthcare': 'alternative', 'healthcare:speciality': 'chiropractic', 'name': 'St-Jean Denis Clinique Chiropratique Hawkesbury', 'opening_hours': 'Mo-Tu 07:45-21:00, Th 07:45-20:00, Fr 07:45-16:00', 'phone': '+1(613) 632-0953'}}"
"{'type': 'node', 'id': 11172289004, 'lat': 45.5978694, 'lon': -74.6115051, 'tags': {'addr:city': 'Hawkesbury', 'addr:housenumber': '400', 'addr:postcode': 'K6A2Y3', 'addr:province': 'Ontario', 'addr:street': 'Spence Ave', 'amenity': 'pharmacy', 'brand': 'Pharmaprix', 'brand:wikidata': 'Q1820137', 'healthcare': 'pharmacy', 'name': 'Pharmaprix'}}"
"{'type': 'node', 'id': 11215953550, 'lat': 45.5731398, 'lon': -74.094429, 'tags': {'amenity': 'pharmacy', 'brand': 'Familiprix', 'brand:wikidata': 'Q3064881', 'healthcare': 'pharmacy', 'name': 'Familiprix'}}"
"{'type': 'node', 'id': 11216040035, 'lat': 45.6569688, 'lon': -74.3334448, 'tags': {'amenity': 'pharmacy', 'brand': 'Brunet', 'brand:wikidata': 'Q2926589', 'healthcare': 'pharmacy', 'name': 'Brunet'}}"
"{'type': 'node', 'id': 11963437240, 'lat': 44.6744806, 'lon': -74.973554, 'tags': {'addr:city': 'Potsdam', 'addr:housenumber': '49', 'addr:postcode': '13676', 'addr:state': 'NY', 'addr:street': 'Lawrence Avenue', 'amenity': 'clinic', 'branch': 'Potsdam', 'brand': 'St. Lawrence Health Urgent Care', 'healthcare': 'clinic', 'healthcare:speciality': 'urgent', 'name': 'St. Lawrence Health Urgent Care', 'operator': 'St. Lawrence Health System', 'operator:type': 'private_non_profit', 'operator:wikidata': 'Q107313439', 'phone': '+1 315-261-5525', 'website': 'https://www.stlawrencehealthsystem.org/locations/helen-snell-cheel/urgent-care'}}"
