OSM_Data
"{'type': 'node', 'id': 4587372789, 'lat': -2.4924946, 'lon': -44.2154806, 'tags': {'addr:street': 'Avenida Mar e Sol', 'amenity': 'pharmacy', 'name': 'Farmácia e Laboratório Sol Nascente', 'name:pt': 'Farmácia e Laboratório Sol Nascente', 'opening_hours': 'Mo-Fr 08:00-18:00; Sa 08:00-12:00', 'operator': 'José Geraldo Silva', 'phone': '+55 98 3233-5706', 'website': 'https://www.laboratoriosolnascente.com.br/'}}"
"{'type': 'node', 'id': 5164110811, 'lat': -2.4980384, 'lon': -44.2881349, 'tags': {'amenity': 'pharmacy', 'brand': 'Extrafarma', 'brand:wikidata': 'Q20055480', 'healthcare': 'pharmacy', 'name': 'Extrafarma'}}"
"{'type': 'node', 'id': 5175279265, 'lat': -2.499668, 'lon': -44.3074613, 'tags': {'amenity': 'pharmacy', 'healthcare': 'pharmacy'}}"
"{'type': 'node', 'id': 5443789014, 'lat': -2.4076211, 'lon': -44.4162668, 'tags': {'amenity': 'pharmacy', 'healthcare': 'pharmacy'}}"
"{'type': 'node', 'id': 5536978602, 'lat': -2.4920504, 'lon': -44.3046927, 'tags': {'amenity': 'pharmacy', 'dispensing': 'yes', 'healthcare': 'pharmacy'}}"
"{'type': 'node', 'id': 5592740962, 'lat': -2.4988174, 'lon': -44.2881656, 'tags': {'amenity': 'pharmacy', 'dispensing': 'yes', 'healthcare': 'pharmacy', 'name': 'Extrafarma'}}"
"{'type': 'node', 'id': 5592740965, 'lat': -2.5010053, 'lon': -44.2862522, 'tags': {'amenity': 'pharmacy', 'dispensing': 'yes', 'healthcare': 'pharmacy', 'name': 'Extrafarma'}}"
"{'type': 'node', 'id': 6173156185, 'lat': -1.8259272, 'lon': -44.8667167, 'tags': {'amenity': 'hospital', 'name': 'Santa Casa Misericórdia de Cururupu'}}"
"{'type': 'node', 'id': 7233973724, 'lat': -2.4055574, 'lon': -44.4151067, 'tags': {'amenity': 'pharmacy', 'healthcare': 'pharmacy', 'name': 'Drogaria Alcântara'}}"
"{'type': 'node', 'id': 8272734532, 'lat': -2.5025842, 'lon': -44.2401552, 'tags': {'healthcare': 'laboratory', 'name': 'Laboratório InLab'}}"
"{'type': 'node', 'id': 8761730388, 'lat': -2.5014387, 'lon': -44.2875157, 'tags': {'addr:city': 'São Luís', 'addr:housenumber': '400', 'addr:postcode': '65065720', 'addr:street': 'Avenida Coronel Colares Moreira', 'addr:suburb': 'Jardim Renascença', 'amenity': 'dentist', 'contact:instagram': 'https://www.instagram.com/smartodontoslz', 'email': 'atendimento@smartodontoslz.com.br', 'healthcare': 'dentist', 'healthcare:speciality': 'dentist;dental_oral_maxillo_facial_surgery;dentistry;dental;denturist;paediatric_dentistry;implantology', 'name': 'Smart Odonto Tropical Shopping', 'opening_hours': 'Mo-Sa 09:00-21:00', 'operator': 'Smart Odonto', 'phone': '+55 98 983412444', 'website': 'https://www.smartodontoslz.com.br', 'wheelchair': 'limited'}}"
"{'type': 'node', 'id': 9548706995, 'lat': -2.4039866, 'lon': -44.4148421, 'tags': {'addr:city': 'Alcântara', 'addr:postcode': '65250-000', 'addr:street': 'Rua Doutor Silva Maia', 'addr:suburb': 'Caravelas', 'amenity': 'clinic', 'healthcare': 'clinic', 'name': 'Uindade Básica de Saúde Caravelas', 'operator': 'Prefeitura de Alcântara', 'operator:type': 'public'}}"
"{'type': 'node', 'id': 10865780009, 'lat': -2.4928892, 'lon': -44.2859793, 'tags': {'addr:city': 'São Luís', 'addr:housenumber': '14', 'addr:postcode': '65071380', 'addr:street': 'Avenida dos Holandeses', 'addr:suburb': 'Calhau', 'amenity': 'doctors', 'healthcare': 'doctor', 'healthcare:speciality': 'psychiatry', 'name': 'Consultório de Psiquiatria Caio Neuenschwander'}}"
"{'type': 'node', 'id': 11476830785, 'lat': -2.4680696, 'lon': -44.1958538, 'tags': {'amenity': 'clinic', 'healthcare': 'clinic', 'name': 'Clínica Bela Vista'}}"
"{'type': 'node', 'id': 12288230748, 'lat': -2.4517865, 'lon': -44.7861445, 'tags': {'amenity': 'pharmacy', 'healthcare': 'pharmacy'}}"
"{'type': 'node', 'id': 12288230750, 'lat': -2.4510979, 'lon': -44.785893, 'tags': {'amenity': 'pharmacy', 'healthcare': 'pharmacy'}}"
"{'type': 'node', 'id': 12288230751, 'lat': -2.4509908, 'lon': -44.7860421, 'tags': {'amenity': 'pharmacy', 'healthcare': 'pharmacy'}}"
