OSM_Data
"{'type': 'node', 'id': 2569745788, 'lat': -30.2418114, 'lon': -57.5834674, 'tags': {'amenity': 'clinic', 'fixme': 'revisar', 'healthcare': 'clinic'}}"
"{'type': 'node', 'id': 2569745789, 'lat': -30.2462093, 'lon': -57.5816415, 'tags': {'amenity': 'clinic', 'fixme': 'revisar', 'healthcare': 'clinic', 'name': 'Centro Médico'}}"
"{'type': 'node', 'id': 2569745790, 'lat': -30.2556012, 'lon': -57.5900208, 'tags': {'amenity': 'clinic', 'name': 'Centro Médico'}}"
"{'type': 'node', 'id': 2569745791, 'lat': -30.2579316, 'lon': -57.5953994, 'tags': {'amenity': 'hospital', 'fixme': 'revisar', 'name': 'Centro Médico'}}"
"{'type': 'node', 'id': 2569745792, 'lat': -30.2587783, 'lon': -57.5974168, 'tags': {'amenity': 'hospital', 'fixme': 'revisar', 'name': 'Centro Médico'}}"
"{'type': 'node', 'id': 2569745793, 'lat': -30.2628103, 'lon': -57.606097, 'tags': {'amenity': 'clinic', 'fixme': 'revisar', 'name': 'Centro Médico'}}"
"{'type': 'node', 'id': 2569745794, 'lat': -30.4284384, 'lon': -57.4402684, 'tags': {'amenity': 'clinic', 'check_date': '2024-09-19', 'healthcare': 'clinic'}}"
"{'type': 'node', 'id': 2569912797, 'lat': -30.3889589, 'lon': -57.6145677, 'tags': {'amenity': 'clinic', 'fixme': 'revisar', 'name': 'Atención Médica en Cainsa'}}"
"{'type': 'node', 'id': 2569912798, 'lat': -30.372778, 'lon': -57.6652926, 'tags': {'amenity': 'clinic', 'fixme': 'revisar', 'name': 'Atención Médica en Mones Quintela'}}"
"{'type': 'node', 'id': 2569912799, 'lat': -30.3750135, 'lon': -57.6642349, 'tags': {'amenity': 'clinic', 'fixme': 'revisar', 'name': 'Atención Médica en Mones Quintela'}}"
"{'type': 'node', 'id': 2983201795, 'lat': -30.2531389, 'lon': -57.6240057, 'tags': {'amenity': 'hospital', 'healthcare': 'hospital'}}"
"{'type': 'node', 'id': 3226297273, 'lat': -30.3397821, 'lon': -58.3117906, 'tags': {'amenity': 'hospital', 'healthcare': 'hospital', 'name': 'Hospital San Vicente', 'wikidata': 'Q94691249'}}"
"{'type': 'node', 'id': 4108426866, 'lat': -29.790289, 'lon': -58.0632009, 'tags': {'addr:city': 'Curuzú Cuatiá', 'addr:full': 'Berón de Astrada y Comandante Andresito', 'addr:housenumber': '1350', 'addr:postcode': '3460', 'addr:street': 'Berón de Astrada', 'amenity': 'hospital', 'healthcare': 'hospital', 'name': 'Hospital Civil Dr. Fernando Irastorza', 'phone': '(03774) 422811', 'wheelchair': 'yes'}}"
"{'type': 'node', 'id': 4143388389, 'lat': -29.7908081, 'lon': -58.0509421, 'tags': {'addr:city': 'Curuzú Cuatiá', 'addr:housenumber': '528', 'addr:postcode': '3460', 'addr:street': 'Berón de Astrada', 'amenity': 'pharmacy', 'healthcare': 'pharmacy', 'name': 'Berón de Astrada', 'phone': '03774-424180'}}"
"{'type': 'node', 'id': 4143706755, 'lat': -29.7905888, 'lon': -58.0551624, 'tags': {'addr:housenumber': '802', 'addr:postcode': '3460', 'addr:street': 'Berón de Astrada', 'amenity': 'pharmacy', 'healthcare': 'pharmacy', 'name': 'Ordenavia', 'phone': '3774422227'}}"
"{'type': 'node', 'id': 4143707091, 'lat': -29.7904561, 'lon': -58.0549478, 'tags': {'amenity': 'pharmacy', 'healthcare': 'pharmacy', 'name': 'Argentina'}}"
"{'type': 'node', 'id': 4143710070, 'lat': -29.790377, 'lon': -58.0566403, 'tags': {'amenity': 'pharmacy', 'healthcare': 'pharmacy', 'name': 'Farmacia Farmalap'}}"
"{'type': 'node', 'id': 4144320203, 'lat': -29.7903532, 'lon': -58.0571284, 'tags': {'amenity': 'pharmacy', 'healthcare': 'pharmacy', 'name': 'Farmacia Far Mar'}}"
"{'type': 'node', 'id': 4144338407, 'lat': -29.790106, 'lon': -58.061585, 'tags': {'addr:city': 'Curuzú Cuatiá', 'addr:housenumber': '1230', 'addr:postcode': '3460', 'addr:street': 'Berón de Astrada', 'amenity': 'pharmacy', 'healthcare': 'pharmacy', 'name': 'Farmacia Pasteur', 'phone': '+54 3774 42-2156'}}"
"{'type': 'node', 'id': 4144474489, 'lat': -29.7888321, 'lon': -58.0487443, 'tags': {'addr:city': 'Curuzú Cuatiá', 'addr:housenumber': '859', 'addr:postcode': '3460', 'addr:street': 'Juan Pujol', 'amenity': 'hospital', 'emergency': 'yes', 'healthcare': 'hospital', 'name': 'Emergencias Médicas EMECUR', 'phone': '+54 3774 424224'}}"
"{'type': 'node', 'id': 4157319510, 'lat': -29.7889095, 'lon': -58.0724443, 'tags': {'addr:city': 'Curuzú Cuatiá', 'addr:housenumber': '1849', 'addr:postcode': '3460', 'addr:street': 'Avenida República Oriental del Uruguay', 'amenity': 'hospital', 'healthcare': 'hospital', 'name': 'Hospital Militar Curuzú Cuatiá', 'phone': '54 3774 42 2307', 'wikidata': 'Q94605012'}}"
"{'type': 'node', 'id': 4213136395, 'lat': -29.775504, 'lon': -58.0736478, 'tags': {'amenity': 'pharmacy', 'healthcare': 'pharmacy', 'name': 'Morandini Max'}}"
"{'type': 'node', 'id': 4809819733, 'lat': -29.7896882, 'lon': -58.0563817, 'tags': {'addr:city': 'Curuzú Cuatiá', 'addr:housenumber': '765', 'addr:postcode': '3460', 'addr:street': 'Juan de Vera', 'amenity': 'clinic', 'emergency': 'yes', 'healthcare': 'clinic', 'name': 'Sanatorio Curuzú Cuatiá', 'phone': '03774-422437', 'wikidata': 'Q94605099'}}"
"{'type': 'node', 'id': 4809822820, 'lat': -29.7892507, 'lon': -58.0579293, 'tags': {'addr:city': 'Curuzú Cuatiá', 'addr:housenumber': '799', 'addr:postcode': '3460', 'addr:street': 'Pueyrredón', 'amenity': 'pharmacy', 'healthcare': 'pharmacy', 'name': 'Farmacia Roberi', 'phone': '03774423079'}}"
"{'type': 'node', 'id': 4809838164, 'lat': -29.7934829, 'lon': -58.0509418, 'tags': {'addr:city': 'Curuzú Cuatiá', 'addr:housenumber': '522', 'addr:postcode': '3460', 'addr:street': 'Francisco Podestá', 'amenity': 'clinic', 'email': 'sanroque@curuzu.netv;contador@sanatoriosanroque.com', 'healthcare': 'clinic', 'name': 'Sanatorio San Roque', 'phone': '+54 3774 423610;+54 3774 422518', 'website': 'https://sanatoriosanroque.com/web/'}}"
"{'type': 'node', 'id': 4809858146, 'lat': -29.7931795, 'lon': -58.0569316, 'tags': {'addr:city': 'Curuzú Cuatiá', 'addr:housenumber': '909', 'addr:postcode': '3460', 'addr:street': 'Francisco Podestá', 'amenity': 'pharmacy', 'healthcare': 'pharmacy', 'name': 'Farmacia Farmalap1', 'phone': '3774-424202'}}"
"{'type': 'node', 'id': 4809863599, 'lat': -29.783834, 'lon': -58.0767015, 'tags': {'addr:city': 'Curuzú Cuatiá', 'addr:housenumber': '2370', 'addr:postcode': '3460', 'addr:street': 'Isabel la Católica', 'amenity': 'pharmacy', 'healthcare': 'pharmacy', 'name': 'Farmacia Morandini', 'phone': '03774-422835'}}"
"{'type': 'node', 'id': 4879047492, 'lat': -30.4180121, 'lon': -57.8569495, 'tags': {'addr:city': 'Juan Pujol', 'amenity': 'hospital', 'healthcare': 'hospital'}}"
"{'type': 'node', 'id': 5141544247, 'lat': -30.3445189, 'lon': -58.3035287, 'tags': {'amenity': 'pharmacy', 'healthcare': 'pharmacy'}}"
"{'type': 'node', 'id': 5141544248, 'lat': -30.3393083, 'lon': -58.3087778, 'tags': {'amenity': 'pharmacy', 'healthcare': 'pharmacy'}}"
"{'type': 'node', 'id': 5491120022, 'lat': -29.1836129, 'lon': -58.0779641, 'tags': {'addr:city': 'Mercedes', 'addr:housenumber': '619', 'addr:postcode': '3470', 'addr:street': 'Pedro Ferré', 'amenity': 'doctors', 'healthcare': 'doctor'}}"
"{'type': 'node', 'id': 5491231822, 'lat': -29.1832364, 'lon': -58.0791537, 'tags': {'amenity': 'clinic', 'healthcare': 'clinic'}}"
"{'type': 'node', 'id': 5491232621, 'lat': -29.1832565, 'lon': -58.0790702, 'tags': {'addr:street': 'Alvear', 'amenity': 'clinic', 'healthcare': 'clinic', 'name': 'Sanatorio Mercedes', 'name:en': 'Hospital Sanatorio Mercedes'}}"
"{'type': 'node', 'id': 5491232721, 'lat': -29.1846753, 'lon': -58.070141, 'tags': {'amenity': 'doctors', 'healthcare': 'doctor'}}"
"{'type': 'node', 'id': 5491232921, 'lat': -29.1843083, 'lon': -58.0789201, 'tags': {'addr:city': 'Mercedes', 'addr:housenumber': '1155', 'addr:postcode': '3470', 'addr:street': 'Juan Pujol', 'amenity': 'doctors', 'healthcare': 'doctor'}}"
"{'type': 'node', 'id': 5491251022, 'lat': -29.1834943, 'lon': -58.0706774, 'tags': {'addr:housenumber': '561', 'addr:postcode': '3470', 'addr:street': 'España', 'amenity': 'doctors', 'healthcare': 'doctor', 'name': '561'}}"
"{'type': 'node', 'id': 5491256821, 'lat': -29.1836811, 'lon': -58.0740558, 'tags': {'addr:city': 'Mercedes', 'addr:housenumber': '582', 'addr:postcode': '3470', 'addr:street': 'Sarmiento', 'amenity': 'doctors', 'healthcare': 'doctor', 'name': '582'}}"
"{'type': 'node', 'id': 7402704717, 'lat': -29.1822571, 'lon': -58.0765116, 'tags': {'addr:city': 'Mercedes', 'addr:housenumber': '1010', 'addr:postcode': '3470', 'addr:street': 'España', 'amenity': 'pharmacy', 'dispensing': 'yes', 'healthcare': 'pharmacy', 'name': 'San Cristobal', 'network': 'FARMAR', 'phone': '+54 3794 788495'}}"
"{'type': 'node', 'id': 7402704720, 'lat': -29.1837807, 'lon': -58.0745887, 'tags': {'addr:city': 'Mercedes', 'addr:housenumber': '846', 'addr:postcode': '3470', 'addr:street': 'Avenida San Martín', 'amenity': 'pharmacy', 'contact:facebook': 'https://www.facebook.com/farmaciakairuz/', 'dispensing': 'yes', 'healthcare': 'pharmacy', 'name': 'Kairuz', 'phone': '+54 3773 420208'}}"
"{'type': 'node', 'id': 7413244154, 'lat': -29.186605, 'lon': -58.0799565, 'tags': {'addr:city': 'Mercedes', 'addr:full': 'Fray Luis Beltrán Y Alvear', 'addr:postcode': '3470', 'addr:street': 'Fray Luis Beltrán', 'amenity': 'doctors', 'description': 'Con atención médica diaria y con especialidades y/o otras profesiones', 'healthcare': 'doctor', 'name': 'Policonsultorio Y Laboratorio Doctora Lecuna'}}"
"{'type': 'node', 'id': 7413251622, 'lat': -29.1837053, 'lon': -58.0762517, 'tags': {'addr:city': 'Mercedes', 'addr:housenumber': '971', 'addr:postcode': '3470', 'addr:street': 'Avenida San Martín', 'amenity': 'doctors', 'description': 'Categoría de tipología: Con atención médica general por lo menos 3 días de la semana', 'healthcare': 'doctor', 'name': 'Policonsultorio Dra. Zaracho Maria Ines', 'ref': 'ESSIDT'}}"
"{'type': 'node', 'id': 7997186058, 'lat': -29.8167181, 'lon': -57.4267974, 'tags': {'addr:city': 'Bonpland', 'addr:full': 'Independencia S/n Entre Belgrano Y San Martin', 'addr:postcode': '3234', 'addr:street': 'Independencia', 'amenity': 'doctors', 'description': 'Categoría de tipología: Sin atención médica en forma periódica (menor a 3 veces por semana)', 'healthcare': 'doctor', 'name': 'Centro De Salud Aristobulo Mongelo', 'ref:sisa_codigo': '50181192139204', 'ref:sisa_tipologia': 'ESSIDT'}}"
"{'type': 'node', 'id': 9531166718, 'lat': -29.1892949, 'lon': -58.0787381, 'tags': {'addr:city': 'Mercedes', 'addr:housenumber': '1050', 'addr:postcode': '3470', 'addr:street': 'Doctor Juan R. Lacour', 'amenity': 'hospital', 'description': 'Tipología: ESCIG Categoría de tipología: Bajo riesgo con internación simple,\u2063', 'healthcare': 'hospital', 'name': 'Hospital Las Mecedes', 'phone': '+54 3773 420031'}}"
"{'type': 'node', 'id': 10108692573, 'lat': -29.7974107, 'lon': -58.0473927, 'tags': {'addr:city': 'Curuzú Cuatiá', 'addr:postcode': '3460', 'addr:street': 'Sarratea', 'healthcare': 'centre', 'name': 'C.A.P.S. Dr. Otto García'}}"
"{'type': 'node', 'id': 10108692574, 'lat': -29.7924761, 'lon': -58.0391959, 'tags': {'addr:city': 'Curuzú Cuatiá', 'addr:postcode': '3460', 'addr:street': 'El Maestro', 'healthcare': 'centre', 'name': 'C.A.P.S. Dr. Pedro Obregon'}}"
"{'type': 'node', 'id': 10108692575, 'lat': -29.7885431, 'lon': -58.0443826, 'tags': {'addr:city': 'Curuzú Cuatiá', 'addr:postcode': '3460', 'addr:street': 'Fernando Irastorza', 'healthcare': 'centre', 'name': 'C.A.P.S. Dr. Carlos Rodríguez'}}"
"{'type': 'node', 'id': 10108692576, 'lat': -29.7840503, 'lon': -58.0608643, 'tags': {'addr:city': 'Curuzú Cuatiá', 'addr:postcode': '3460', 'addr:street': 'Sarmiento', 'healthcare': 'centre', 'name': 'C.A.P.S. Juana Garín de Benta'}}"
"{'type': 'node', 'id': 10108692577, 'lat': -29.7795698, 'lon': -58.0659501, 'tags': {'addr:city': 'Curuzú Cuatiá', 'addr:postcode': '3460', 'addr:street': 'Matheu', 'healthcare': 'centre', 'name': 'C.A.P.S. Dr. Roberto Martínez Grossi'}}"
"{'type': 'node', 'id': 10108715220, 'lat': -29.7829918, 'lon': -58.0750352, 'tags': {'addr:city': 'Curuzú Cuatiá', 'addr:postcode': '3460', 'addr:street': 'Puerto Argentino', 'healthcare': 'centre', 'name': 'C.A.P.S. San Ramón'}}"
"{'type': 'node', 'id': 10108715221, 'lat': -29.7773015, 'lon': -58.0757891, 'tags': {'addr:city': 'Curuzú Cuatiá', 'addr:postcode': '3460', 'addr:street': 'Río Corrientes', 'healthcare': 'centre', 'name': 'C.A.P.S. Dr. Arturo Oñativia'}}"
"{'type': 'node', 'id': 10108727032, 'lat': -29.7930752, 'lon': -58.0663851, 'tags': {'addr:city': 'Curuzú Cuatiá', 'addr:postcode': '3460', 'addr:street': 'Mariscal Estigarribia', 'healthcare': 'centre', 'name': 'C.A.P.S. Hermana Teresita'}}"
"{'type': 'node', 'id': 10108727033, 'lat': -29.7944349, 'lon': -58.0821099, 'tags': {'addr:city': 'Curuzú Cuatiá', 'addr:postcode': '3460', 'addr:street': 'Intendente Juan Pedro Sorribes', 'healthcare': 'centre', 'name': 'C.A.P.S. Juan Pedro Sorribes'}}"
"{'type': 'node', 'id': 10108763386, 'lat': -29.7910048, 'lon': -58.0637874, 'tags': {'addr:city': 'Curuzú Cuatiá', 'addr:postcode': '3460', 'addr:street': 'Gendarmería Nacional', 'healthcare': 'centre', 'name': 'Centro Oncológico Anna Rocca de Bonatti'}}"
"{'type': 'node', 'id': 10575586493, 'lat': -30.4298744, 'lon': -57.4349836, 'tags': {'amenity': 'pharmacy', 'healthcare': 'pharmacy', 'name': 'Farmacia Plaza', 'opening_hours': 'Mo-Sa 08:00-12:00, Mo-Fr 15:00-20:00'}}"
"{'type': 'node', 'id': 10575592756, 'lat': -30.4303267, 'lon': -57.4345578, 'tags': {'amenity': 'clinic', 'healthcare': 'clinic', 'name': 'GREMEDA', 'opening_hours': 'Mo-Fr 08:00-20:00'}}"
