OSM_Data
"{'type': 'node', 'id': 1778435770, 'lat': 6.1850226, 'lon': 1.1990297, 'tags': {'amenity': 'doctors', 'healthcare': 'doctor', 'name': 'Cabinet Médical ""Le Sauveur"" - Docteur BOKO E. Norbert', 'opening_hours': 'Mo-Fr 16:00-19:00'}}"
"{'type': 'node', 'id': 1879805351, 'lat': 6.1755861, 'lon': 1.1809121, 'tags': {'amenity': 'pharmacy', 'dispensing': 'no', 'name': 'Pharmacie Bethel'}}"
"{'type': 'node', 'id': 2336544601, 'lat': 6.169885, 'lon': 1.3453851, 'tags': {'amenity': 'pharmacy', 'healthcare': 'pharmacy', 'name': 'Pharmacie Avépozo'}}"
"{'type': 'node', 'id': 2348404114, 'lat': 6.4024688, 'lon': 2.3393859, 'tags': {'amenity': 'pharmacy', 'dispensing': 'no', 'name': 'Pharmacie Le Jourdain'}}"
"{'type': 'node', 'id': 2361977349, 'lat': 6.1805575, 'lon': 1.1952619, 'tags': {'amenity': 'pharmacy', 'dispensing': 'no', 'health': 'medicine', 'healthcare': 'pharmacy', 'name': 'Pharmacie de Djidjolé'}}"
"{'type': 'node', 'id': 2361977373, 'lat': 6.1825406, 'lon': 1.1999865, 'tags': {'amenity': 'pharmacy', 'dispensing': 'no', 'healthcare': 'pharmacy', 'name': 'Pharmacie Mathilda', 'opening_hours': '24/7', 'phone': '+228222511584'}}"
"{'type': 'node', 'id': 2394741538, 'lat': 6.3584067, 'lon': 2.4315012, 'tags': {'amenity': 'pharmacy', 'name': 'Pharmacie Jonquet'}}"
"{'type': 'node', 'id': 2402002282, 'lat': 6.1800903, 'lon': 1.1958294, 'tags': {'amenity': 'doctors', 'health': 'clinic', 'healthcare': 'doctor', 'name': 'Le Sauveur', 'note': 'Dr Tademana Dimiline', 'phone': '+228222519120', 'source': 'Bing;survey'}}"
"{'type': 'node', 'id': 2435398462, 'lat': 6.2239604, 'lon': 1.2101698, 'tags': {'amenity': 'hospital', 'name': ""Centre Médico-Social d'Agoè-Nyivé"", 'source': 'bing; survey'}}"
"{'type': 'node', 'id': 2435398465, 'lat': 6.2256655, 'lon': 1.2108244, 'tags': {'addr:city': 'Agouenyive', 'amenity': 'pharmacy', 'dispensing': 'yes', 'healthcare': 'pharmacy', 'name': 'Pharmacie Agoè-Nyivé', 'opening_hours': 'Mo-Fr 08:00-20:00; Sa 08:00-12:00', 'source': 'bing;survey'}}"
"{'type': 'node', 'id': 2454830083, 'lat': 6.2277965, 'lon': 1.5963187, 'tags': {'amenity': 'clinic', 'healthcare': 'clinic', 'name': 'centre medico sosial Lanmessin'}}"
"{'type': 'node', 'id': 2454830092, 'lat': 6.2285154, 'lon': 1.5991677, 'tags': {'amenity': 'clinic', 'name': 'Centre Médico-Social Lanmessin'}}"
"{'type': 'node', 'id': 2481870007, 'lat': 6.3781996, 'lon': 2.3902366, 'tags': {'amenity': 'pharmacy', 'name': 'Pharmacie Marché Vedoko'}}"
"{'type': 'node', 'id': 2499528284, 'lat': 6.3787742, 'lon': 2.3909428, 'tags': {'amenity': 'clinic', 'name': 'Clinique Cega', 'source': 'GPS;survey'}}"
"{'type': 'node', 'id': 2499580592, 'lat': 6.4054126, 'lon': 2.341918, 'tags': {'amenity': 'pharmacy', 'dispensing': 'Pharmacie carrefour IITA', 'name': 'Pharmacie Togoudo', 'phone': '+229 21352162', 'source': 'GPS;survey'}}"
"{'type': 'node', 'id': 2514667734, 'lat': 6.2358935, 'lon': 1.1940329, 'tags': {'amenity': 'pharmacy', 'name': 'Pharmacie Emmaus', 'source': 'Bing;Survey'}}"
"{'type': 'node', 'id': 2559806823, 'lat': 6.1922583, 'lon': 1.1910253, 'tags': {'amenity': 'pharmacy', 'dispensing': 'no', 'name': 'Pharmacie de la Nation', 'phone': '+22822259965', 'source': 'survey'}}"
"{'type': 'node', 'id': 2559924556, 'lat': 6.1966467, 'lon': 1.1867889, 'tags': {'amenity': 'pharmacy', 'dispensing': 'no', 'name': 'Pharmacie Solidarité'}}"
"{'type': 'node', 'id': 2594150726, 'lat': 6.1370596, 'lon': 1.2490261, 'tags': {'amenity': 'pharmacy', 'healthcare': 'pharmacy', 'name': 'pharmacie le Château', 'source': 'Bing;Survey'}}"
"{'type': 'node', 'id': 2594206413, 'lat': 6.1333763, 'lon': 1.2464503, 'tags': {'amenity': 'pharmacy', 'healthcare': 'pharmacy', 'name': 'Pharmacie Océane'}}"
"{'type': 'node', 'id': 2594287658, 'lat': 6.1326844, 'lon': 1.2424811, 'tags': {'amenity': 'clinic', 'healthcare': 'clinic', 'name': 'Secours Médicaux Jehovah Rapha'}}"
"{'type': 'node', 'id': 2594350813, 'lat': 6.1300843, 'lon': 1.2394172, 'tags': {'amenity': 'pharmacy', 'dispensing': 'no', 'healthcare': 'pharmacy', 'name': ""Pharmacie de l'OCAM""}}"
"{'type': 'node', 'id': 2594841900, 'lat': 6.130345, 'lon': 1.2401711, 'tags': {'amenity': 'pharmacy', 'dispensing': 'yes', 'healthcare': 'pharmacy', 'name': 'Pharmacie Vétérinaire Bon Berger', 'source': 'bing;survey'}}"
"{'type': 'node', 'id': 2603626243, 'lat': 6.219508, 'lon': 1.2091379, 'tags': {'amenity': 'pharmacy', 'name': 'La Grace'}}"
"{'type': 'node', 'id': 2603657484, 'lat': 6.2176737, 'lon': 1.203511, 'tags': {'amenity': 'pharmacy', 'name': 'Pharmacie Shalom', 'source': 'Bing;Survey'}}"
"{'type': 'node', 'id': 2605942908, 'lat': 6.3851686, 'lon': 2.3838435, 'tags': {'amenity': 'clinic', 'name': 'Clinique St Vincent de Paul', 'operator:type': 'private', 'source': 'GPS;survey'}}"
"{'type': 'node', 'id': 2605982145, 'lat': 6.3825642, 'lon': 2.381949, 'tags': {'amenity': 'clinic', 'name': 'Clinique Fandinan', 'operator:type': 'private', 'source': 'GPS'}}"
"{'type': 'node', 'id': 2608180191, 'lat': 6.1836659, 'lon': 1.1979357, 'tags': {'addr:housenumber': '626', 'amenity': 'clinic', 'healthcare': 'clinic', 'name': ""Clinique d'Amédégnato""}}"
"{'type': 'node', 'id': 2616937305, 'lat': 6.1797097, 'lon': 1.2387931, 'tags': {'amenity': 'pharmacy', 'dispensing': 'yes', 'name': 'PAHARMACIE HEDRANAWOE', 'phone': '+22822264961', 'source': 'bing;survey'}}"
"{'type': 'node', 'id': 2619670522, 'lat': 6.181645, 'lon': 1.2349348, 'tags': {'amenity': 'pharmacy', 'dispensing': 'no', 'name': 'Pharmacie Chinoise', 'source': 'Bing and survey', 'type': 'Chinoise'}}"
"{'type': 'node', 'id': 2619686560, 'lat': 6.1830548, 'lon': 1.2354178, 'tags': {'amenity': 'pharmacy', 'dispensing': 'no', 'name': 'Pharmacie des Lilas', 'source': 'survey'}}"
"{'type': 'node', 'id': 2619760944, 'lat': 6.1865447, 'lon': 1.2411546, 'tags': {'amenity': 'clinic', 'name': 'Clinique Espérance', 'operator:type': 'private', 'source': 'Bing and survey'}}"
"{'type': 'node', 'id': 2663777467, 'lat': 6.1812949, 'lon': 1.1905973, 'tags': {'addr:city': 'Lomé', 'amenity': 'pharmacy', 'name': 'Pharmacie Du Point E', 'source': 'survey'}}"
"{'type': 'node', 'id': 2700620321, 'lat': 6.241401, 'lon': 1.2012058, 'tags': {'amenity': 'pharmacy', 'dispensing': 'no', 'name': 'Pharmacie Excellence', 'source': 'survey;bing'}}"
"{'type': 'node', 'id': 2707777978, 'lat': 6.2395574, 'lon': 1.1946542, 'tags': {'amenity': 'clinic', 'name': 'Clinique Ophtalmologique SOURCE DE VUE', 'source': 'Survey;Bing'}}"
"{'type': 'node', 'id': 2711055478, 'lat': 6.9420519, 'lon': 1.6952664, 'tags': {'amenity': 'hospital', 'health_facility:type': 'hospital', 'name': 'Hôpital de zone de Aplahoué', 'operator:type': 'public', 'source': 'Bing'}}"
"{'type': 'node', 'id': 2782366114, 'lat': 6.3569121, 'lon': 2.4008066, 'tags': {'amenity': 'pharmacy', 'healthcare': 'pharmacy', 'name': 'Pharmacie'}}"
"{'type': 'node', 'id': 2975752949, 'lat': 6.6067339, 'lon': 1.3961438, 'tags': {'amenity': 'pharmacy', 'dispensing': 'no', 'source': 'Bing'}}"
"{'type': 'node', 'id': 2999565756, 'lat': 6.2404981, 'lon': 1.6235337, 'tags': {'amenity': 'pharmacy', 'dispensing': 'yes', 'name': 'Pharmacie AZON-CONDJI', 'source': 'bing; survey', 'source:date': '2014/08/05'}}"
"{'type': 'node', 'id': 2999707682, 'lat': 6.2373889, 'lon': 1.6125532, 'tags': {'amenity': 'pharmacy', 'dispensing': 'yes', 'name': ""Pharmacie d'Aného Woezon"", 'source': 'bing;survey 2014', 'source:date': '2014/08/06'}}"
"{'type': 'node', 'id': 2999860534, 'lat': 6.2368165, 'lon': 1.6089395, 'tags': {'amenity': 'hospital', 'name': ""Centre Hospitalier d'Aneho Adjido"", 'short_name': 'CHA', 'source': 'bing;survey 2014', 'source:date': '2014/08/06'}}"
"{'type': 'node', 'id': 2999860544, 'lat': 6.2383358, 'lon': 1.6111053, 'tags': {'amenity': 'pharmacy', 'dispensing': 'yes', 'name': 'TOGOPHARMA', 'source': 'bing,survey', 'source:date': '2014/08/06'}}"
"{'type': 'node', 'id': 2999913763, 'lat': 6.2358875, 'lon': 1.6074398, 'tags': {'amenity': 'pharmacy', 'dispensing': 'yes', 'name': 'Pharmacie Amessiame', 'source': 'biing;survey'}}"
"{'type': 'node', 'id': 3003189592, 'lat': 6.2394862, 'lon': 1.611116, 'tags': {'amenity': 'pharmacy', 'dispensing': 'yes', 'name': 'PHARMACOPE', 'source': 'Bing;survey', 'source:date': '2014/08/07'}}"
"{'type': 'node', 'id': 3018655774, 'lat': 6.3922788, 'lon': 2.3496909, 'tags': {'amenity': 'pharmacy', 'dispensing': 'yes', 'name': 'Pharmacie Ste Adèle', 'source': 'GPS;survey'}}"
"{'type': 'node', 'id': 3022413769, 'lat': 6.1364687, 'lon': 1.2564935, 'tags': {'amenity': 'pharmacy', 'dispensing': 'yes', 'name': 'Pharmacie DEO GRATIAS', 'source': 'bing;survey'}}"
"{'type': 'node', 'id': 3022974970, 'lat': 6.1399624, 'lon': 1.2465171, 'tags': {'addr:street': 'Avenue Augustino De Souza', 'amenity': 'pharmacy', 'dispensing': 'no', 'name': 'Pharmacie Lebon Samaritain', 'source': 'survey'}}"
"{'type': 'node', 'id': 3032595370, 'lat': 6.3962015, 'lon': 2.3475255, 'tags': {'amenity': 'clinic', 'name': ""Clinique d'accouchement Dofon""}}"
"{'type': 'node', 'id': 3032612607, 'lat': 6.393835, 'lon': 2.342825, 'tags': {'amenity': 'pharmacy', 'dispensing': 'yes', 'name': 'Pharmacie Godomey centre'}}"
"{'type': 'node', 'id': 3101663010, 'lat': 6.1360843, 'lon': 1.2125214, 'tags': {'addr:housenumber': '1040', 'addr:street': 'Rue AKATI Tokoin Cébevito', 'amenity': 'clinic', 'name': 'Polyclinique Melia', 'phone': '+22822218205', 'source': 'survey'}}"
"{'type': 'node', 'id': 3101668850, 'lat': 6.1325182, 'lon': 1.2235165, 'tags': {'amenity': 'pharmacy', 'dispensing': 'yes', 'name': 'Pharmacie Saint Antoine', 'source': 'bing,survey'}}"
"{'type': 'node', 'id': 3101668851, 'lat': 6.1321132, 'lon': 1.2204839, 'tags': {'amenity': 'pharmacy', 'dispensing': 'yes', 'name': 'Pharmacie des Etoies', 'source': 'bing,survey'}}"
"{'type': 'node', 'id': 3101668888, 'lat': 6.1355957, 'lon': 1.213159, 'tags': {'amenity': 'pharmacy', 'dispensing': 'yes', 'name': 'Pharmacie pour tous', 'source': 'survey'}}"
"{'type': 'node', 'id': 3101709857, 'lat': 6.1464736, 'lon': 1.2064164, 'tags': {'amenity': 'pharmacy', 'dispensing': 'yes', 'name': 'Cameg-Togo-vente des médicaments Genériques'}}"
"{'type': 'node', 'id': 3101709860, 'lat': 6.1471346, 'lon': 1.2069724, 'tags': {'addr:housenumber': '291', 'amenity': 'pharmacy', 'dispensing': 'no', 'name': 'Pharmacie Justin', 'phone': '+22822210001', 'project:mappingforniger': 'yes'}}"
"{'type': 'node', 'id': 3130230944, 'lat': 6.1576137, 'lon': 1.2560149, 'tags': {'amenity': 'pharmacy', 'dispensing': 'no', 'name': 'K BINET pharmacie Chinoise', 'note': 'massage,réeducation,acupuncture', 'source': 'survey 2014'}}"
"{'type': 'node', 'id': 3188339527, 'lat': 6.1568116, 'lon': 1.2526204, 'tags': {'amenity': 'pharmacy', 'dispensing': 'yes', 'name': 'La Misericorde', 'source': 'Bing,survey'}}"
"{'type': 'node', 'id': 3252664061, 'lat': 6.3561527, 'lon': 2.418456, 'tags': {'amenity': 'pharmacy', 'dispensing': 'no', 'healthcare': 'pharmacy', 'name': 'Pharmacie Camp Guezo', 'opening_hours': '24/7'}}"
"{'type': 'node', 'id': 3252689674, 'lat': 6.3817438, 'lon': 2.3795598, 'tags': {'addr:housenumber': '3652', 'amenity': 'pharmacy', 'dispensing': 'no', 'name': 'Pharmacie de l’amitie', 'opening_hours': '24/7'}}"
"{'type': 'node', 'id': 3259917661, 'lat': 6.3589863, 'lon': 2.4363023, 'tags': {'amenity': 'pharmacy', 'dispensing': 'no', 'name': 'pharmacie Vogue'}}"
"{'type': 'node', 'id': 3260370223, 'lat': 6.366164, 'lon': 2.4206788, 'tags': {'amenity': 'pharmacy', 'dispensing': 'no', 'healthcare': 'pharmacy', 'name': 'Pharmacie Adéchina', 'source:name': 'survey'}}"
"{'type': 'node', 'id': 3260370355, 'lat': 6.3617048, 'lon': 2.4344736, 'tags': {'amenity': 'pharmacy', 'dispensing': 'no', 'name': 'pharmacie atinkanmey', 'source:dispensing': 'survey'}}"
"{'type': 'node', 'id': 3260372490, 'lat': 6.3664602, 'lon': 2.42935, 'tags': {'amenity': 'pharmacy', 'dispensing': 'no', 'name': 'pharmacie saint michel'}}"
"{'type': 'node', 'id': 3260372492, 'lat': 6.3674063, 'lon': 2.4241742, 'tags': {'amenity': 'pharmacy', 'dispensing': 'no', 'healthcare': 'pharmacy', 'name': 'pharmacie forum santé', 'source:name': 'survey'}}"
"{'type': 'node', 'id': 3260372682, 'lat': 6.368684, 'lon': 2.4288576, 'tags': {'amenity': 'pharmacy', 'dispensing': 'no', 'name': 'Pharmacie Sainte Cecile'}}"
"{'type': 'node', 'id': 3260385361, 'lat': 6.3618307, 'lon': 2.4347023, 'tags': {'addr:housenumber': '424', 'amenity': 'clinic', 'name': 'Polyclinique Atinkanmey', 'source:name': 'survey'}}"
"{'type': 'node', 'id': 3260385561, 'lat': 6.359654, 'lon': 2.4258528, 'tags': {'amenity': 'pharmacy', 'dispensing': 'no', 'healthcare': 'pharmacy', 'name': 'Zongo'}}"
"{'type': 'node', 'id': 3260385661, 'lat': 6.364501, 'lon': 2.420449, 'tags': {'amenity': 'clinic', 'healthcare': 'clinic', 'name': 'Clinique les Graces'}}"
"{'type': 'node', 'id': 3260703523, 'lat': 6.3860489, 'lon': 2.3744395, 'tags': {'amenity': 'clinic', 'healthcare:speciality': 'neurologie', 'name': 'clinique Mermah', 'operator:type': 'private', 'source:name': 'survey'}}"
"{'type': 'node', 'id': 3260703524, 'lat': 6.3875949, 'lon': 2.3687693, 'tags': {'amenity': 'pharmacy', 'dispensing': 'no', 'name': 'Nouvelle Pharmacie Mènontin', 'source:name': 'survey'}}"
"{'type': 'node', 'id': 3260703526, 'lat': 6.3884101, 'lon': 2.3740903, 'tags': {'amenity': 'clinic', 'healthcare:speciality': 'neurologie', 'name': 'Clinique Branda', 'operator:type': 'private', 'source:name': 'survey'}}"
"{'type': 'node', 'id': 3260703527, 'lat': 6.386889, 'lon': 2.3846739, 'tags': {'amenity': 'pharmacy', 'dispensing': 'no', 'name': 'pharmacie renouveau', 'source:name': 'survey'}}"
"{'type': 'node', 'id': 3260703530, 'lat': 6.3921655, 'lon': 2.3828379, 'tags': {'amenity': 'pharmacy', 'dispensing': 'no', 'name': 'pharmacie Zogbohoue'}}"
"{'type': 'node', 'id': 3260745363, 'lat': 6.3920263, 'lon': 2.3648379, 'tags': {'addr:city': 'Cotonou', 'amenity': 'pharmacy', 'dispensing': 'no', 'name': 'Pharmacie Kindonou'}}"
"{'type': 'node', 'id': 3260745461, 'lat': 6.3883621, 'lon': 2.3746531, 'tags': {'amenity': 'pharmacy', 'dispensing': 'no', 'healthcare': 'pharmacy', 'name': 'Pharmacie Sainte Famile'}}"
"{'type': 'node', 'id': 3260745561, 'lat': 6.3900911, 'lon': 2.3879721, 'tags': {'amenity': 'pharmacy', 'dispensing': 'no', 'healthcare': 'pharmacy', 'name': 'pharmacie Zogbo'}}"
"{'type': 'node', 'id': 3260745562, 'lat': 6.3908238, 'lon': 2.3934549, 'tags': {'amenity': 'pharmacy', 'dispensing': 'no', 'name': 'pharmacie le tamaya', 'source:name': 'survey'}}"
"{'type': 'node', 'id': 3260745563, 'lat': 6.3908344, 'lon': 2.3977869, 'tags': {'amenity': 'pharmacy', 'dispensing': 'no', 'name': 'Pharmacie Palace Plus'}}"
"{'type': 'node', 'id': 3263349461, 'lat': 6.3705625, 'lon': 2.4166009, 'tags': {'amenity': 'pharmacy', 'dispensing': 'no', 'healthcare': 'pharmacy', 'name': 'Pharmacie Marina'}}"
"{'type': 'node', 'id': 3292288008, 'lat': 6.2113261, 'lon': 1.1771699, 'tags': {'amenity': 'pharmacy', 'dispensing': 'yes', 'name': 'Pharmacie des Orchidées'}}"
"{'type': 'node', 'id': 3376796632, 'lat': 6.1766727, 'lon': 1.2028639, 'tags': {'amenity': 'doctors', 'healthcare': 'doctor', 'name': 'cabinet medical Dr.k.A.KUEZEAWU'}}"
"{'type': 'node', 'id': 3400512498, 'lat': 6.179403, 'lon': 1.1824348, 'tags': {'addr:city': 'Lomé', 'amenity': 'clinic', 'name': 'Clinique KEKELI', 'opening_hours': '24/7'}}"
"{'type': 'node', 'id': 3477341780, 'lat': 6.1850322, 'lon': 1.166273, 'tags': {'amenity': 'pharmacy', 'dispensing': 'yes', 'name': 'Pharmacie Adidogomé', 'source': 'Bing; Survey'}}"
"{'type': 'node', 'id': 3477726755, 'lat': 6.2004215, 'lon': 1.1488228, 'tags': {'amenity': 'pharmacy', 'name': 'Pharmacie La Référence'}}"
"{'type': 'node', 'id': 3486882570, 'lat': 6.1649537, 'lon': 1.2212963, 'tags': {'amenity': 'clinic', 'healthcare': 'clinic', 'name': 'Clinique Le Printemps'}}"
"{'type': 'node', 'id': 3574876893, 'lat': 6.4231951, 'lon': 2.3186322, 'tags': {'amenity': 'clinic', 'name': 'Clinique Mahungon de Tankpè', 'operator:type': 'private', 'source': 'gps,survey'}}"
"{'type': 'node', 'id': 3575063193, 'lat': 6.2158499, 'lon': 1.1723495, 'tags': {'amenity': 'pharmacy', 'dispensing': 'yes', 'name': 'Pharmacie Dieudonné', 'source': 'bing;survey'}}"
"{'type': 'node', 'id': 3575063194, 'lat': 6.2070435, 'lon': 1.1831321, 'tags': {'amenity': 'pharmacy', 'dispensing': 'yes', 'name': 'Pharmacie Laus Deo', 'source': 'bing;survey'}}"
"{'type': 'node', 'id': 3575063195, 'lat': 6.2013791, 'lon': 1.1882347, 'tags': {'amenity': 'pharmacy', 'dispensing': 'yes', 'name': 'Pharmacie Le Galien', 'source': 'bing;survey'}}"
"{'type': 'node', 'id': 3575063196, 'lat': 6.2068745, 'lon': 1.1896092, 'tags': {'amenity': 'pharmacy', 'dispensing': 'yes', 'name': 'Pharmacie Le Millenaire', 'source': 'bing;survey'}}"
"{'type': 'node', 'id': 3575063197, 'lat': 6.2167697, 'lon': 1.1887731, 'tags': {'amenity': 'pharmacy', 'dispensing': 'yes', 'name': 'Notre Dame de LOURDES', 'source': 'bing;survey'}}"
"{'type': 'node', 'id': 3575063198, 'lat': 6.2205598, 'lon': 1.1698952, 'tags': {'amenity': 'pharmacy', 'dispensing': 'yes', 'name': 'Pharmacie des Roses', 'source': 'bing;survey'}}"
"{'type': 'node', 'id': 3575094634, 'lat': 6.1755097, 'lon': 1.1979032, 'tags': {'amenity': 'pharmacy', 'healthcare': 'pharmacy', 'name': 'Pharmacie Jahnap'}}"
"{'type': 'node', 'id': 3575199600, 'lat': 6.1925569, 'lon': 1.1440521, 'tags': {'amenity': 'pharmacy', 'dispensing': 'yes', 'name': 'Pharmacie ACTUELLE', 'source': 'bing, survey'}}"
"{'type': 'node', 'id': 3575199602, 'lat': 6.2026328, 'lon': 1.1669399, 'tags': {'amenity': 'pharmacy', 'dispensing': 'yes', 'name': 'Pharmacie APOLLON', 'source': 'bing, survey'}}"
"{'type': 'node', 'id': 3575199603, 'lat': 6.1956179, 'lon': 1.1541753, 'tags': {'amenity': 'pharmacy', 'dispensing': 'yes', 'name': 'Pharmacie BESDA', 'source': 'bing, survey'}}"
"{'type': 'node', 'id': 3575199604, 'lat': 6.1711741, 'lon': 1.1900577, 'tags': {'amenity': 'pharmacy', 'dispensing': 'yes', 'name': 'Pharmacie DE LA CITE', 'phone': '+22822250125', 'source': 'bing, survey'}}"
"{'type': 'node', 'id': 3575199605, 'lat': 6.1920133, 'lon': 1.1583729, 'tags': {'amenity': 'pharmacy', 'dispensing': 'yes', 'name': 'Pharmacie DES ECOLES', 'source': 'bing, survey'}}"
"{'type': 'node', 'id': 3575199606, 'lat': 6.1805044, 'lon': 1.1634997, 'tags': {'amenity': 'pharmacy', 'dispensing': 'yes', 'name': 'Pharmacie EPIPHANIA', 'source': 'bing, survey'}}"
"{'type': 'node', 'id': 3575199607, 'lat': 6.1808077, 'lon': 1.171924, 'tags': {'amenity': 'pharmacy', 'description': 'Rez de chaussé', 'dispensing': 'yes', 'name': 'Pharmacie Eli-Beraca', 'source': 'bing, survey'}}"
"{'type': 'node', 'id': 3575199609, 'lat': 6.2068325, 'lon': 1.1408981, 'tags': {'amenity': 'pharmacy', 'dispensing': 'yes', 'name': 'Pharmacie SILOE', 'source': 'bing, survey'}}"
"{'type': 'node', 'id': 3575199610, 'lat': 6.1925919, 'lon': 1.1716493, 'tags': {'amenity': 'pharmacy', 'dispensing': 'yes', 'name': 'Pharmacie VICTOIRE', 'source': 'bing, survey'}}"
"{'type': 'node', 'id': 3578049594, 'lat': 6.3904737, 'lon': 2.37263, 'tags': {'amenity': 'clinic', 'healthcare:speciality': 'neurologie', 'name': 'Centre Médico-Social Mahugnon de Menontin', 'opening_hours': 'Mo-Su 08:00-08:00', 'operator': 'ONG MES', 'operator:type': 'private', 'source': 'GPS;survey'}}"
"{'type': 'node', 'id': 3592579093, 'lat': 6.3933187, 'lon': 2.298567, 'tags': {'amenity': 'clinic', 'name': 'AVE MARIA DE COCOTOMEY', 'phone': '95 21 65 86 / 62 16 47 17', 'source': 'gps;survey'}}"
"{'type': 'node', 'id': 3592579095, 'lat': 6.3886483, 'lon': 2.3007177, 'tags': {'amenity': 'pharmacy', 'dispensing': 'yes', 'name': 'La Concorde', 'opening_hours': '24/7', 'payment:cash': 'yes', 'payment:mastercard': 'yes', 'payment:visa': 'yes', 'source': 'Gps;survey'}}"
"{'type': 'node', 'id': 3611667027, 'lat': 6.3720794, 'lon': 2.442654, 'tags': {'amenity': 'pharmacy', 'dispensing': 'yes', 'name': 'Pharmacie Saint Raphaël', 'source': 'gps;survey'}}"
"{'type': 'node', 'id': 3611732876, 'lat': 6.3753267, 'lon': 2.3285038, 'tags': {'amenity': 'clinic', 'name': 'Ong Orphes', 'operator': 'ONG ORPHES', 'operator:type': 'ngo', 'source': 'gps;survey'}}"
"{'type': 'node', 'id': 3696899105, 'lat': 6.1290342, 'lon': 1.224335, 'tags': {'amenity': 'pharmacy', 'dispensing': 'yes', 'name': 'Pharmacie Bon Pasteur', 'note': 'Centre ville non loin du Séminaire et de la régie des Eaux', 'source': 'Bing;Survey'}}"
"{'type': 'node', 'id': 3696899106, 'lat': 6.1283697, 'lon': 1.2297759, 'tags': {'amenity': 'pharmacy', 'dispensing': 'yes', 'name': 'Pharmacie ST Raphaël', 'note': 'Quartier du marché', 'source': 'Bing;Survey'}}"
"{'type': 'node', 'id': 3696899107, 'lat': 6.1262755, 'lon': 1.201075, 'tags': {'amenity': 'pharmacy', 'dispensing': 'yes', 'name': ""Pharmacie d'ADJOLOLO"", 'note': 'Quartier Kodjoviakopé', 'source': 'Bing;Survey'}}"
"{'type': 'node', 'id': 3697085154, 'lat': 6.140502, 'lon': 1.2407825, 'tags': {'amenity': 'pharmacy', 'dispensing': 'yes', 'name': 'Pharmacie Tulipe', 'note': 'Quartier Bè', 'source': 'Bing;Survey'}}"
"{'type': 'node', 'id': 3697120587, 'lat': 6.1385238, 'lon': 1.2369409, 'tags': {'amenity': 'pharmacy', 'dispensing': 'yes', 'name': 'Pharmacie Kpehenou', 'note': 'Quartier Bè', 'source': 'Bing;Survey'}}"
"{'type': 'node', 'id': 3697120588, 'lat': 6.1361355, 'lon': 1.2280208, 'tags': {'amenity': 'pharmacy', 'dispensing': 'yes', 'name': 'Pharmacie du Boulevard', 'source': 'Bing;Survey'}}"
"{'type': 'node', 'id': 3697138209, 'lat': 6.1275889, 'lon': 1.2355771, 'tags': {'amenity': 'pharmacy', 'dispensing': 'yes', 'name': ""Pharmacie Jeanne d'Arc"", 'source': 'Bing;Survey'}}"
"{'type': 'node', 'id': 3726502302, 'lat': 6.3568253, 'lon': 2.3902506, 'tags': {'addr:housenumber': '968', 'addr:street': '12.170', 'amenity': 'clinic', 'healthcare': 'clinic', 'name': 'Sêzo'}}"
"{'type': 'node', 'id': 3733654340, 'lat': 6.2319049, 'lon': 1.2104777, 'tags': {'amenity': 'pharmacy', 'dispensing': 'yes', 'name': 'Pharmacie ADONAI', 'source': 'Bing;Survey', 'wheelchair': 'yes'}}"
"{'type': 'node', 'id': 3733654341, 'lat': 6.2240432, 'lon': 1.1927747, 'tags': {'amenity': 'pharmacy', 'dispensing': 'yes', 'name': 'Pharmacie APOU ANTOINE', 'wheelchair': 'yes'}}"
"{'type': 'node', 'id': 3733654342, 'lat': 6.2078133, 'lon': 1.1952131, 'tags': {'amenity': 'pharmacy', 'dispensing': 'yes', 'name': 'Pharmacie DELALI', 'wheelchair': 'no'}}"
"{'type': 'node', 'id': 3733654343, 'lat': 6.2138768, 'lon': 1.2083415, 'tags': {'amenity': 'pharmacy', 'dispensing': 'yes', 'name': 'Pharmacie St Michel', 'wheelchair': 'yes'}}"
"{'type': 'node', 'id': 3733654344, 'lat': 6.2254357, 'lon': 1.2048486, 'tags': {'amenity': 'pharmacy', 'dispensing': 'yes', 'name': 'Pharmacie la CHARITE', 'wheelchair': 'yes'}}"
"{'type': 'node', 'id': 3801121430, 'lat': 6.7918939, 'lon': 2.272704, 'tags': {'amenity': 'pharmacy'}}"
"{'type': 'node', 'id': 3807059805, 'lat': 6.1535266, 'lon': 1.2171496, 'tags': {'amenity': 'pharmacy', 'name': 'Pharmacie de la Libération'}}"
"{'type': 'node', 'id': 3807062436, 'lat': 6.148443, 'lon': 1.2188809, 'tags': {'amenity': 'pharmacy', 'healthcare': 'pharmacy', 'name': 'Pharmacie Sainte Marie'}}"
"{'type': 'node', 'id': 3811342292, 'lat': 6.2010778, 'lon': 1.1807802, 'tags': {'amenity': 'pharmacy', 'name': 'Pharmacie Ossan'}}"
"{'type': 'node', 'id': 3822301435, 'lat': 6.1571711, 'lon': 1.2020895, 'tags': {'amenity': 'pharmacy', 'healthcare': 'pharmacy', 'name': 'Pharmacie Lumen'}}"
"{'type': 'node', 'id': 3822302627, 'lat': 6.1289734, 'lon': 1.2106287, 'tags': {'amenity': 'pharmacy', 'name': 'Pharmacie Horizon'}}"
"{'type': 'node', 'id': 3823454790, 'lat': 6.1594338, 'lon': 1.2056622, 'tags': {'amenity': 'pharmacy', 'healthcare': 'pharmacy', 'name': 'Pharmacie de Gbossime'}}"
"{'type': 'node', 'id': 3823476869, 'lat': 6.1663184, 'lon': 1.231806, 'tags': {'amenity': 'clinic', 'name': 'Clinique des Mères', 'source': 'notes'}}"
"{'type': 'node', 'id': 3830066435, 'lat': 6.1371049, 'lon': 1.2487931, 'tags': {'amenity': 'pharmacy', 'healthcare': 'pharmacy', 'name': 'Pharmacie', 'source': 'survey'}}"
"{'type': 'node', 'id': 3830071822, 'lat': 6.1528815, 'lon': 1.2295043, 'tags': {'amenity': 'pharmacy', 'name': 'La Prospérité'}}"
"{'type': 'node', 'id': 3830876769, 'lat': 6.1615282, 'lon': 1.2148685, 'tags': {'amenity': 'doctors', 'healthcare': 'doctor', 'name': 'Assistance medicale cel: 91691135'}}"
"{'type': 'node', 'id': 3832447404, 'lat': 6.1616571, 'lon': 1.209917, 'tags': {'amenity': 'pharmacy', 'dispensing': 'yes', 'healthcare': 'pharmacy', 'name': 'Pharmacopé Zewuze', 'operator': 'Medecine traditionnelle', 'wheelchair': 'yes'}}"
"{'type': 'node', 'id': 3832449699, 'lat': 6.1598683, 'lon': 1.2146313, 'tags': {'amenity': 'pharmacy'}}"
"{'type': 'node', 'id': 3832455410, 'lat': 6.160078, 'lon': 1.217358, 'tags': {'amenity': 'doctors', 'healthcare': 'doctor', 'name': 'cms doumassesse'}}"
"{'type': 'node', 'id': 3838330325, 'lat': 6.1439701, 'lon': 1.2061066, 'tags': {'amenity': 'pharmacy', 'healthcare': 'pharmacy', 'name': 'Avé Maria'}}"
"{'type': 'node', 'id': 3838330326, 'lat': 6.1629227, 'lon': 1.2133371, 'tags': {'amenity': 'pharmacy', 'healthcare': 'pharmacy', 'name': 'Pharmacie du Campus'}}"
"{'type': 'node', 'id': 3842353544, 'lat': 6.1351465, 'lon': 1.2319409, 'tags': {'amenity': 'pharmacy', 'healthcare': 'pharmacy', 'name': 'Pharmacie du Troisième Arrondissement'}}"
"{'type': 'node', 'id': 3859947896, 'lat': 6.1570725, 'lon': 1.218404, 'tags': {'amenity': 'hospital', 'healthcare': 'hospital', 'name': 'cabinet médical st Kisito'}}"
"{'type': 'node', 'id': 3872880785, 'lat': 6.3611624, 'lon': 2.3976738, 'tags': {'amenity': 'pharmacy', 'healthcare': 'pharmacy', 'name': 'Pharmacie Cadjehoun'}}"
"{'type': 'node', 'id': 3872881834, 'lat': 6.3851999, 'lon': 2.3740547, 'tags': {'amenity': 'pharmacy', 'name': 'Pharmacie Oladjouan'}}"
"{'type': 'node', 'id': 3872881835, 'lat': 6.3772366, 'lon': 2.3828492, 'tags': {'amenity': 'clinic', 'name': 'Centre de Santé de Houenoussou'}}"
"{'type': 'node', 'id': 3872882794, 'lat': 6.3923014, 'lon': 2.3496205, 'tags': {'amenity': 'pharmacy', 'name': 'Pharmacie Sainte Adèle'}}"
"{'type': 'node', 'id': 3874525204, 'lat': 6.3774115, 'lon': 2.4417953, 'tags': {'amenity': 'pharmacy', 'name': 'Pharmacie Midombo'}}"
"{'type': 'node', 'id': 3874525408, 'lat': 6.3776271, 'lon': 2.4113361, 'tags': {'amenity': 'pharmacy', 'name': ""Pharmacie L'Éternité""}}"
"{'type': 'node', 'id': 3874525417, 'lat': 6.3770007, 'lon': 2.4487, 'tags': {'amenity': 'pharmacy', 'name': 'Pharmacie Adetona'}}"
"{'type': 'node', 'id': 3876476655, 'lat': 6.3574935, 'lon': 2.4258699, 'tags': {'amenity': 'pharmacy', 'healthcare': 'pharmacy', 'name': 'Pharmacie de la Mosquée Centrale'}}"
"{'type': 'node', 'id': 3876477421, 'lat': 6.3757063, 'lon': 2.4051944, 'tags': {'amenity': 'pharmacy', 'name': 'Pharmacie Agontinkon'}}"
"{'type': 'node', 'id': 3876749113, 'lat': 6.3889561, 'lon': 2.3573526, 'tags': {'amenity': 'pharmacy', 'name': 'Medipharm', 'warehouse': 'yes'}}"
"{'type': 'node', 'id': 3876749116, 'lat': 6.3864192, 'lon': 2.3260043, 'tags': {'addr:city': 'Abomey calavi', 'amenity': 'pharmacy', 'name': 'Pharmacie Godomey PK14'}}"
"{'type': 'node', 'id': 3878027509, 'lat': 6.3833491, 'lon': 2.3351096, 'tags': {'amenity': 'pharmacy', 'name': 'Pharmacie Espace Santé'}}"
"{'type': 'node', 'id': 3878027521, 'lat': 6.3895424, 'lon': 2.3728347, 'tags': {'amenity': 'clinic', 'healthcare:speciality': 'neurologie', 'name': 'Clinique Sainte Marie', 'operator:type': 'private'}}"
"{'type': 'node', 'id': 3878035833, 'lat': 6.3808052, 'lon': 2.3797211, 'tags': {'amenity': 'clinic', 'healthcare': 'clinic', 'name': ""Polyclinique de L'amitié - Le Bon Samaritain""}}"
"{'type': 'node', 'id': 3879101289, 'lat': 6.3748887, 'lon': 2.0878105, 'tags': {'amenity': 'pharmacy', 'name': 'Pharmacie La Providence'}}"
"{'type': 'node', 'id': 3879101315, 'lat': 6.1668171, 'lon': 1.3345793, 'tags': {'amenity': 'pharmacy', 'healthcare': 'pharmacy', 'name': 'Pharmacie Verseau'}}"
"{'type': 'node', 'id': 3879101531, 'lat': 6.1612431, 'lon': 1.3157197, 'tags': {'amenity': 'pharmacy', 'healthcare': 'pharmacy', 'name': ""Pharmacie de l'Eden""}}"
"{'type': 'node', 'id': 3892459498, 'lat': 6.3809501, 'lon': 2.3726607, 'tags': {'addr:housenumber': '511', 'addr:street': 'Rue 13.289', 'amenity': 'pharmacy', 'healthcare': 'pharmacy', 'name': 'Les Pylônes'}}"
"{'type': 'node', 'id': 3896289008, 'lat': 6.3667895, 'lon': 2.3909944, 'tags': {'amenity': 'clinic', 'name': 'Clinique Houeyiho'}}"
"{'type': 'node', 'id': 3896289011, 'lat': 6.3909657, 'lon': 2.3423576, 'tags': {'amenity': 'clinic', 'name': 'Polyclinique Biosso'}}"
"{'type': 'node', 'id': 3900428343, 'lat': 6.389341, 'lon': 2.3106638, 'tags': {'amenity': 'pharmacy', 'dispensing': 'yes', 'name': 'Pharmacie Deo-Gratias', 'opening_hours': '24/7', 'operator': 'Privé', 'phone': '0022921047693', 'wheelchair': 'yes'}}"
"{'type': 'node', 'id': 3904759320, 'lat': 6.3565709, 'lon': 2.4286656, 'tags': {'addr:housenumber': '1084', 'addr:street': 'rue des Cheminots', 'amenity': 'pharmacy', 'name': 'Les Cheminots', 'phone': '315173'}}"
"{'type': 'node', 'id': 3926199150, 'lat': 6.3605025, 'lon': 2.0818842, 'tags': {'amenity': 'pharmacy', 'name': 'Pharmacie Mitonwe'}}"
"{'type': 'node', 'id': 3926200609, 'lat': 6.365805, 'lon': 2.0789317, 'tags': {'amenity': 'pharmacy', 'name': 'Pharmacie Gbèna'}}"
"{'type': 'node', 'id': 3926200700, 'lat': 6.3632371, 'lon': 2.0806051, 'tags': {'amenity': 'clinic', 'name': 'Action Solidarite Service Ouidah'}}"
"{'type': 'node', 'id': 3927614977, 'lat': 6.3676537, 'lon': 2.4548273, 'tags': {'amenity': 'pharmacy', 'name': 'Pharmacie Le remède Sodjeatime'}}"
"{'type': 'node', 'id': 3934003903, 'lat': 6.3690873, 'lon': 2.4153944, 'tags': {'addr:housenumber': '1102', 'amenity': 'pharmacy', 'healthcare': 'pharmacy', 'name': 'Pharmacie Alafia', 'phone': '21323442'}}"
"{'type': 'node', 'id': 3935743490, 'lat': 6.1496858, 'lon': 1.2532824, 'tags': {'amenity': 'clinic', 'name': 'Clinique Barruet'}}"
"{'type': 'node', 'id': 3935743492, 'lat': 6.1520013, 'lon': 1.2621376, 'tags': {'amenity': 'pharmacy', 'name': 'Pharmacie des Oliviers', 'phone': '+22822270434'}}"
"{'type': 'node', 'id': 3935749341, 'lat': 6.1498316, 'lon': 1.2712644, 'tags': {'healthcare': 'laboratory', 'man_made': 'works', 'name': 'SPRUKFIELD Laboratoire'}}"
"{'type': 'node', 'id': 3936144947, 'lat': 6.1519841, 'lon': 1.2621452, 'tags': {'amenity': 'pharmacy', 'dispensing': 'yes', 'name': 'Pharmacie des Oliviers', 'opening_hours': '08:30-12:30,15:30-20:00', 'phone': '+228 2270434'}}"
"{'type': 'node', 'id': 3950476354, 'lat': 6.3625655, 'lon': 2.4136825, 'tags': {'addr:housenumber': '146', 'amenity': 'pharmacy', 'healthcare': 'pharmacy', 'name': 'Pharmacie du Rond-Point', 'phone': '21302709-94012403'}}"
"{'type': 'node', 'id': 3954697789, 'lat': 6.164582, 'lon': 1.2266114, 'tags': {'addr:city': 'Lomé', 'addr:housenumber': 'Villa 511 angle Akoloegbé/Deliazepe', 'address': 'Villa 511, angle Akoloégbe/Deliazepe', 'amenity': 'clinic', 'name': 'Cabinet Médical Forever', 'phone': '+228 90 83 32 11'}}"
"{'type': 'node', 'id': 3955170265, 'lat': 6.3883472, 'lon': 2.3178703, 'tags': {'amenity': 'pharmacy', 'name': 'Le Président'}}"
"{'type': 'node', 'id': 3976417069, 'lat': 6.4343656, 'lon': 2.3443859, 'tags': {'amenity': 'clinic', 'name': 'Clinique pédiatrique d’Abomey-Calavi', 'opening_hours': '24/7', 'phone': '(+229)95372161/95863945'}}"
"{'type': 'node', 'id': 3989795588, 'lat': 6.4251864, 'lon': 2.3484847, 'tags': {'addr:city': 'A', 'amenity': 'pharmacy', 'dispensing': 'yes', 'healthcare': 'pharmacy', 'name': 'Pharmacie du campus U.A.C', 'phone': '(+229)97804380'}}"
"{'type': 'node', 'id': 3989796509, 'lat': 6.4467135, 'lon': 2.3547304, 'tags': {'amenity': 'pharmacy', 'name': 'Pharmacie du Lac', 'opening_hours': '24/7', 'phone': '(+229)21360145'}}"
"{'type': 'node', 'id': 3989796510, 'lat': 6.4404159, 'lon': 2.3487362, 'tags': {'amenity': 'pharmacy', 'name': 'Pharmacie SOS Santé', 'opening_hours': 'Mo-Su 07:00-23:00'}}"
"{'type': 'node', 'id': 3989796511, 'lat': 6.4652134, 'lon': 2.33848, 'tags': {'amenity': 'pharmacy', 'name': 'Pharmacie Zoca'}}"
"{'type': 'node', 'id': 3989796513, 'lat': 6.4277418, 'lon': 2.3018412, 'tags': {'amenity': 'doctors', 'healthcare': 'yes', 'name': 'Centre de santé public de Maria Gleta', 'source': 'Pleiade_2016'}}"
"{'type': 'node', 'id': 3989799358, 'lat': 6.4326386, 'lon': 2.3497055, 'tags': {'amenity': 'clinic', 'name': 'Clinique centrale de Calavi', 'phone': '(+229)66789301/95068743/99476827'}}"
"{'type': 'node', 'id': 3992128835, 'lat': 6.6684647, 'lon': 2.173519, 'tags': {'amenity': 'hospital', 'healthcare': 'yes', 'name': 'Centre de santé de Togoudo'}}"
"{'type': 'node', 'id': 3992156010, 'lat': 6.6634812, 'lon': 2.1494527, 'tags': {'amenity': 'pharmacy', 'name': 'PHARMACIE ADANHOUNSA', 'opening_hours': '24/7'}}"
"{'type': 'node', 'id': 4021076194, 'lat': 6.4446293, 'lon': 2.3154801, 'tags': {'healthcare': 'yes', 'name': 'Cente médico-social et humanitaire de la bergerie de Dieu'}}"
"{'type': 'node', 'id': 4023588931, 'lat': 6.379825, 'lon': 2.3635849, 'tags': {'amenity': 'clinic', 'name': 'Polyclinique Saint Pierre'}}"
"{'type': 'node', 'id': 4029928429, 'lat': 6.4134881, 'lon': 2.3325376, 'tags': {'amenity': 'pharmacy', 'name': 'Pharmacie IITA'}}"
"{'type': 'node', 'id': 4029928432, 'lat': 6.4733712, 'lon': 2.355267, 'tags': {'amenity': 'pharmacy', 'name': 'Pharmacie Cité Arconville', 'phone': '(+229)94781846/21033109'}}"
"{'type': 'node', 'id': 4029928435, 'lat': 6.4577846, 'lon': 2.3561644, 'tags': {'amenity': 'pharmacy', 'name': 'Pharmacie Château d’eau'}}"
"{'type': 'node', 'id': 4032781231, 'lat': 6.2016804, 'lon': 1.181196, 'tags': {'amenity': 'pharmacy', 'description': 'Pharmacie chinoise'}}"
"{'type': 'node', 'id': 4035893557, 'lat': 6.2051863, 'lon': 1.1892645, 'tags': {'amenity': 'clinic', 'description': 'Gynécologie\nÉchographie\nAccouchement\nLaboratoire\nMédecine générale', 'name': 'La Providence'}}"
"{'type': 'node', 'id': 4059800630, 'lat': 6.1435652, 'lon': 1.2442562, 'tags': {'amenity': 'pharmacy', 'name': 'Amessiamé'}}"
"{'type': 'node', 'id': 4059871246, 'lat': 6.1473654, 'lon': 1.2489847, 'tags': {'amenity': 'pharmacy', 'name': 'CRYSTAL'}}"
"{'type': 'node', 'id': 4059891024, 'lat': 6.1529221, 'lon': 1.2450423, 'tags': {'amenity': 'pharmacy', 'name': 'PHARMACIE MAWULE'}}"
"{'type': 'node', 'id': 4061676922, 'lat': 6.1468792, 'lon': 1.2439071, 'tags': {'amenity': 'pharmacy', 'description': 'Médécine chinoise', 'name': 'Pharmacie chinoise'}}"
"{'type': 'node', 'id': 4061776724, 'lat': 6.1501967, 'lon': 1.2544647, 'tags': {'amenity': 'pharmacy', 'name': 'Pharmacie Biova'}}"
"{'type': 'node', 'id': 4081276987, 'lat': 6.1706136, 'lon': 1.1979477, 'tags': {'amenity': 'clinic', 'healthcare': 'clinic', 'name': 'Clinique internationale Dr Kodom'}}"
"{'type': 'node', 'id': 4088793238, 'lat': 6.3337413, 'lon': 1.5286228, 'tags': {'amenity': 'pharmacy', 'name': 'Dépot Pharmaceutique OCAM Vogan'}}"
"{'type': 'node', 'id': 4088793265, 'lat': 6.3335931, 'lon': 1.530817, 'tags': {'amenity': 'clinic', 'name': 'Polyniclinique'}}"
"{'type': 'node', 'id': 4088806705, 'lat': 6.332525, 'lon': 1.5265736, 'tags': {'amenity': 'pharmacy', 'name': 'Pharmacie Arevis', 'phone': '+22891079097'}}"
"{'type': 'node', 'id': 4088806781, 'lat': 6.337569, 'lon': 1.5258972, 'tags': {'amenity': 'pharmacy', 'contact:phone': '+22891816764', 'phone': '+22898717112'}}"
"{'type': 'node', 'id': 4089666447, 'lat': 6.3370291, 'lon': 1.5261408, 'tags': {'amenity': 'pharmacy'}}"
"{'type': 'node', 'id': 4089666466, 'lat': 6.3413492, 'lon': 1.5246969, 'tags': {'amenity': 'pharmacy'}}"
"{'type': 'node', 'id': 4089672469, 'lat': 6.3396218, 'lon': 1.5320761, 'tags': {'amenity': 'pharmacy', 'name': 'Pharmacopé SHANGAI'}}"
"{'type': 'node', 'id': 4089712913, 'lat': 6.3419979, 'lon': 1.5288685, 'tags': {'amenity': 'pharmacy', 'name': 'Dépot de pharmacie Dieu est capable'}}"
"{'type': 'node', 'id': 4142951529, 'lat': 6.1429994, 'lon': 1.2538153, 'tags': {'amenity': 'clinic', 'name': 'Source et Vie'}}"
"{'type': 'node', 'id': 4149984944, 'lat': 6.3880357, 'lon': 2.2669511, 'tags': {'amenity': 'pharmacy', 'name': 'Pharmacie Le Sycomore'}}"
"{'type': 'node', 'id': 4157613951, 'lat': 6.3550509, 'lon': 2.4367268, 'tags': {'amenity': 'pharmacy', 'name': 'Pharmacie Ganhi'}}"
"{'type': 'node', 'id': 4160289950, 'lat': 6.1964859, 'lon': 1.2011811, 'tags': {'amenity': 'clinic', 'name': 'ONG Camer Togo Al - nour'}}"
"{'type': 'node', 'id': 4160292221, 'lat': 6.1976863, 'lon': 1.2006862, 'tags': {'amenity': 'clinic', 'name': 'Cabinet Naturotherapeutique chinois Santé - Vitalité', 'phone': '+22822560902'}}"
"{'type': 'node', 'id': 4161715092, 'lat': 6.4148248, 'lon': 2.3442712, 'tags': {'amenity': 'hospital', 'name': 'CNHU'}}"
"{'type': 'node', 'id': 4167241859, 'lat': 6.5223593, 'lon': 1.9671589, 'tags': {'amenity': 'pharmacy', 'dispensing': 'yes', 'name': 'Dépot Pharmacie'}}"
"{'type': 'node', 'id': 4167241861, 'lat': 6.5224466, 'lon': 1.968609, 'tags': {'amenity': 'hospital', 'name': 'Hôpital'}}"
"{'type': 'node', 'id': 4169354674, 'lat': 6.2742692, 'lon': 1.8007634, 'tags': {'amenity': 'pharmacy', 'name': 'Dépôt Pharmacie'}}"
"{'type': 'node', 'id': 4169518744, 'lat': 6.386948, 'lon': 2.419828, 'tags': {'addr:city': 'Cotonou', 'addr:country': 'BJ', 'addr:place': 'Gbèdjromédé', 'addr:postcode': '03BP3985 Cotonou', 'amenity': 'clinic', 'name': 'Clinique Point E', 'phone': '+22921326843'}}"
"{'type': 'node', 'id': 4170523800, 'lat': 6.3695053, 'lon': 2.4303446, 'tags': {'addr:housenumber': '259', 'addr:street': 'Avenue de la paix', 'amenity': 'pharmacy', 'name': 'Pharmacie des 4 therapies', 'phone': '+22921323330'}}"
"{'type': 'node', 'id': 4176026466, 'lat': 6.3704035, 'lon': 2.4209817, 'tags': {'amenity': 'pharmacy', 'healthcare': 'pharmacy', 'name': 'Le Conseil'}}"
"{'type': 'node', 'id': 4177324802, 'lat': 6.5121659, 'lon': 2.3581079, 'tags': {'amenity': 'clinic', 'name': 'Clinique la grace de Dieu'}}"
"{'type': 'node', 'id': 4187858341, 'lat': 6.4024688, 'lon': 2.3274833, 'tags': {'amenity': 'clinic', 'name': 'Clinique St. Benjamin'}}"
"{'type': 'node', 'id': 4189568327, 'lat': 6.3847806, 'lon': 2.4254208, 'tags': {'addr:housenumber': '138', 'amenity': 'clinic', 'name': 'Clinique La Grâce de Dieu'}}"
"{'type': 'node', 'id': 4208098205, 'lat': 6.3722857, 'lon': 2.4525945, 'tags': {'amenity': 'pharmacy', 'dispensing': 'yes', 'name': 'Pharmacie Ciné Concorde', 'opening_hours': '24/7', 'wheelchair': 'yes'}}"
"{'type': 'node', 'id': 4210159843, 'lat': 6.3667018, 'lon': 2.4552305, 'tags': {'amenity': 'pharmacy', 'dispensing': 'yes', 'name': 'Pharmacie la Béninoise', 'opening_hours': '24/7', 'wheelchair': 'yes'}}"
"{'type': 'node', 'id': 4211076251, 'lat': 6.4286104, 'lon': 1.2129391, 'tags': {'amenity': 'pharmacy', 'name': 'Pharmacie du Zio'}}"
"{'type': 'node', 'id': 4211076270, 'lat': 6.9506738, 'lon': 1.1726825, 'tags': {'amenity': 'pharmacy', 'name': 'Pharmacie la Vie'}}"
"{'type': 'node', 'id': 4228568612, 'lat': 6.374271, 'lon': 2.4466923, 'tags': {'amenity': 'pharmacy', 'dispensing': 'yes', 'name': 'Pharmacie Sacré Coeur'}}"
"{'type': 'node', 'id': 4228568613, 'lat': 6.3812302, 'lon': 2.4467801, 'tags': {'amenity': 'pharmacy', 'dispensing': 'yes', 'name': 'Pharmacie Segbeya'}}"
"{'type': 'node', 'id': 4249997051, 'lat': 6.3606694, 'lon': 2.4258161, 'tags': {'addr:housenumber': '1278', 'amenity': 'clinic', 'description': 'chirurgie générale et spécialités, imagerie et analyses biomédicales', 'email': 'sainteanned.afrique@gmail.com', 'name': ""Centre médico-social Sainte Anne d'Afrique"", 'phone': '21315850'}}"
"{'type': 'node', 'id': 4250001175, 'lat': 6.3854587, 'lon': 2.215836, 'tags': {'amenity': 'pharmacy', 'name': 'Pharmacie de Pahou'}}"
"{'type': 'node', 'id': 4250001826, 'lat': 6.3918879, 'lon': 2.3703293, 'tags': {'amenity': 'clinic', 'healthcare:speciality': 'neurologie', 'name': 'Clinique saint Augustin', 'operator:type': 'private'}}"
"{'type': 'node', 'id': 4250061033, 'lat': 6.3603897, 'lon': 2.4218641, 'tags': {'amenity': 'pharmacy', 'healthcare': 'pharmacy', 'name': 'Pharmacie Saint-Jean'}}"
"{'type': 'node', 'id': 4251207881, 'lat': 6.3653988, 'lon': 2.4341699, 'tags': {'addr:housename': '909', 'amenity': 'pharmacy', 'name': 'Pharmacie Saint-Joseph'}}"
"{'type': 'node', 'id': 4278222975, 'lat': 6.1405769, 'lon': 1.2285885, 'tags': {'amenity': 'dentist', 'healthcare': 'dentist', 'name': 'Labo de prothèse dentaire'}}"
"{'type': 'node', 'id': 4278222976, 'lat': 6.1397897, 'lon': 1.2284304, 'tags': {'amenity': 'pharmacy', 'healthcare': 'pharmacy', 'name': 'Pharmacie Sainte Rita'}}"
"{'type': 'node', 'id': 4278275885, 'lat': 6.1379976, 'lon': 1.2294827, 'tags': {'amenity': 'clinic', 'healthcare': 'clinic', 'name': 'Saint Augustin', 'phone': '+22822217413', 'postal_code': '13395'}}"
"{'type': 'node', 'id': 4309638151, 'lat': 6.407175, 'lon': 2.2659583, 'tags': {'amenity': 'pharmacy', 'name': 'Pharmacie Hêvié'}}"
"{'type': 'node', 'id': 4309638913, 'lat': 6.3819942, 'lon': 2.3313464, 'tags': {'amenity': 'pharmacy', 'name': 'Pharmacie Dekoungbe'}}"
"{'type': 'node', 'id': 4309639544, 'lat': 6.455982, 'lon': 2.2763793, 'tags': {'amenity': 'pharmacy', 'name': 'Pharmacie Les Graces Divines de Ouedo'}}"
"{'type': 'node', 'id': 4309639546, 'lat': 6.4180273, 'lon': 2.3117919, 'tags': {'amenity': 'pharmacy', 'healthcare': 'pharmacy', 'name': 'Pharmacie Maria Gléta'}}"
"{'type': 'node', 'id': 4310949932, 'lat': 6.5988068, 'lon': 2.3638228, 'tags': {'amenity': 'hospital', 'name': 'Hopital La Croix de Zinvié'}}"
"{'type': 'node', 'id': 4313209398, 'lat': 6.4809755, 'lon': 2.4171273, 'tags': {'addr:hamlet': 'Vekky', 'healthcare': 'yes', 'name': 'Centre de santé de Vekky'}}"
"{'type': 'node', 'id': 4328284004, 'lat': 6.1408452, 'lon': 1.2441679, 'tags': {'amenity': 'hospital', 'description': '+22892507822 | +22893764670', 'name': ""Autel D'elie"", 'phone': '+22822226313'}}"
"{'type': 'node', 'id': 4332726836, 'lat': 6.2329466, 'lon': 1.1889724, 'tags': {'amenity': 'pharmacy', 'name': 'Pharmacie Divina Gracia'}}"
"{'type': 'node', 'id': 4351625078, 'lat': 6.1701542, 'lon': 1.3258488, 'tags': {'amenity': 'pharmacy', 'healthcare': 'pharmacy', 'name': 'Pharmacie Baguida'}}"
"{'type': 'node', 'id': 4351625229, 'lat': 6.1335117, 'lon': 1.2140953, 'tags': {'amenity': 'hospital', 'name': 'Clinique des Cocotiers'}}"
"{'type': 'node', 'id': 4351625280, 'lat': 6.3785779, 'lon': 2.4205092, 'tags': {'amenity': 'pharmacy', 'name': 'Pharmacie Nouvelle'}}"
"{'type': 'node', 'id': 4358192501, 'lat': 6.3927064, 'lon': 2.3607444, 'tags': {'amenity': 'pharmacy', 'name': ""Sainteté à l'Éternel"", 'name:fr': ""Sainteté à l'Éternel""}}"
"{'type': 'node', 'id': 4378473403, 'lat': 6.1793429, 'lon': 1.1508203, 'tags': {'amenity': 'pharmacy', 'name': 'PHARMACIE MAGNIFICAT'}}"
"{'type': 'node', 'id': 4401545631, 'lat': 6.3557606, 'lon': 2.4022347, 'tags': {'addr:housenumber': '573', 'addr:street': 'RUE 12.080', 'amenity': 'clinic', 'healthcare': 'clinic', 'name': 'Clinique polyvalente Mahouna'}}"
"{'type': 'node', 'id': 4402794893, 'lat': 6.3739488, 'lon': 2.424243, 'tags': {'amenity': 'pharmacy', 'healthcare': 'pharmacy', 'name': 'Espace beauté'}}"
"{'type': 'node', 'id': 4403019781, 'lat': 6.362256, 'lon': 2.4370297, 'tags': {'addr:housenumber': '426', 'amenity': 'pharmacy', 'brand': 'Pharmacie Principale', 'brand:wikidata': 'Q1547749', 'brand:wikipedia': 'fr:Groupe PP Holding', 'healthcare': 'pharmacy', 'name': 'Pharmacie Principale'}}"
"{'type': 'node', 'id': 4403026193, 'lat': 6.3739044, 'lon': 2.4248098, 'tags': {'addr:housenumber': '480', 'addr:street': 'Rue 6.042', 'amenity': 'pharmacy', 'healthcare': 'pharmacy', 'name': 'Le Nokoué'}}"
"{'type': 'node', 'id': 4403223586, 'lat': 6.4728574, 'lon': 2.3436257, 'tags': {'healthcare': 'rehabilitation', 'name': 'Kinesitherapie'}}"
"{'type': 'node', 'id': 4403224360, 'lat': 6.4735856, 'lon': 2.3417599, 'tags': {'healthcare': 'alternative', 'name': 'Morgue'}}"
"{'type': 'node', 'id': 4403224367, 'lat': 6.4730504, 'lon': 2.3425908, 'tags': {'healthcare': 'centre', 'name': 'Laboratoire'}}"
"{'type': 'node', 'id': 4403224368, 'lat': 6.4733367, 'lon': 2.3429, 'tags': {'healthcare': 'centre', 'name': 'Pédiatrie'}}"
"{'type': 'node', 'id': 4403224494, 'lat': 6.4735041, 'lon': 2.3430593, 'tags': {'healthcare': 'centre', 'name': 'Néonatalogie'}}"
"{'type': 'node', 'id': 4403224495, 'lat': 6.4736033, 'lon': 2.3423917, 'tags': {'healthcare': 'alternative', 'name': 'Buanderie'}}"
"{'type': 'node', 'id': 4403224501, 'lat': 6.4727852, 'lon': 2.342722, 'tags': {'amenity': 'pharmacy', 'name': 'Pharmacie', 'opening_hours': '24/7'}}"
"{'type': 'node', 'id': 4403224504, 'lat': 6.4727946, 'lon': 2.3425088, 'tags': {'healthcare': 'centre', 'name': 'Stomatologie'}}"
"{'type': 'node', 'id': 4403224633, 'lat': 6.4725971, 'lon': 2.3434683, 'tags': {'healthcare': 'centre', 'name': 'Ophtamologie'}}"
"{'type': 'node', 'id': 4403224647, 'lat': 6.47387, 'lon': 2.3427033, 'tags': {'healthcare': 'centre', 'name': 'Vaccination'}}"
"{'type': 'node', 'id': 4403224671, 'lat': 6.4728317, 'lon': 2.3425567, 'tags': {'description': ""Service d'oto-rhino-laryngologie pour soigner les affections des oreilles du nez et de la gorge"", 'healthcare': 'centre', 'name': 'Service ORL'}}"
"{'type': 'node', 'id': 4403225139, 'lat': 6.4733193, 'lon': 2.3426195, 'tags': {'healthcare': 'centre', 'name': 'Maternité', 'opening_hours': '24/7'}}"
"{'type': 'node', 'id': 4403225140, 'lat': 6.4730967, 'lon': 2.3427767, 'tags': {'healthcare': 'centre', 'name': 'Chirurgie'}}"
"{'type': 'node', 'id': 4403225141, 'lat': 6.4729369, 'lon': 2.3434851, 'tags': {'healthcare': 'alternative', 'name': 'Magasin'}}"
"{'type': 'node', 'id': 4403228094, 'lat': 6.4729292, 'lon': 2.3425709, 'tags': {'healthcare': 'centre', 'name': 'Radiographie (Imagerie)'}}"
"{'type': 'node', 'id': 4403228627, 'lat': 6.4562769, 'lon': 2.3279273, 'tags': {'amenity': 'pharmacy', 'name': 'Pharmacie Saint Pio'}}"
"{'type': 'node', 'id': 4407717684, 'lat': 6.2405546, 'lon': 1.6321013, 'tags': {'amenity': 'hospital', 'name': ""Poste d'inspection phytosanitaire""}}"
"{'type': 'node', 'id': 4409670760, 'lat': 6.4730297, 'lon': 2.3424478, 'tags': {'healthcare': 'centre', 'name': 'Bloc Opératoire'}}"
"{'type': 'node', 'id': 4411494146, 'lat': 6.1822895, 'lon': 1.1856271, 'tags': {'amenity': 'pharmacy', 'name': 'Pharmacopée Mawuenyegan'}}"
"{'type': 'node', 'id': 4426129447, 'lat': 6.3833097, 'lon': 2.4251266, 'tags': {'amenity': 'pharmacy', 'name': 'Pharmacie Aïdjèdo'}}"
"{'type': 'node', 'id': 4431340039, 'lat': 6.369767, 'lon': 2.4121136, 'tags': {'amenity': 'pharmacy', 'healthcare': 'pharmacy', 'name': 'Pharmacie de l’étoille'}}"
"{'type': 'node', 'id': 4443968692, 'lat': 6.3569827, 'lon': 2.365107, 'tags': {'amenity': 'pharmacy', 'name': 'Pharmacie Oceane'}}"
"{'type': 'node', 'id': 4480080372, 'lat': 6.3546942, 'lon': 2.4102529, 'tags': {'amenity': 'clinic', 'healthcare': 'clinic', 'name': 'Clinique Universitaire de Chirurgie Pédiatrique', 'source': 'survey;GPS;Pleiades 2016'}}"
"{'type': 'node', 'id': 4480080373, 'lat': 6.3551016, 'lon': 2.4100572, 'tags': {'amenity': 'clinic', 'healthcare': 'clinic', 'name': 'Clinique Universitaire de Chirurgie Viscérale A&B', 'source': 'survey;GPS;Pleiades 2016'}}"
"{'type': 'node', 'id': 4487532889, 'lat': 6.3546083, 'lon': 2.4094934, 'tags': {'amenity': 'clinic', 'healthcare': 'clinic', 'name': ""Clinique Universitaire d'Accueil des Urgences""}}"
"{'type': 'node', 'id': 4487532890, 'lat': 6.3547876, 'lon': 2.4115474, 'tags': {'amenity': 'clinic', 'healthcare': 'clinic', 'name': 'Clinique de Pédiatrie et Génétique Médicale'}}"
"{'type': 'node', 'id': 4487685253, 'lat': 6.3542069, 'lon': 2.4108966, 'tags': {'amenity': 'clinic', 'healthcare': 'clinic', 'name': 'Service des grands brûlés', 'source': 'survey;GPS'}}"
"{'type': 'node', 'id': 4488813051, 'lat': 6.3596282, 'lon': 2.4373477, 'tags': {'amenity': 'clinic', 'name': 'FHEVIE'}}"
"{'type': 'node', 'id': 4489074817, 'lat': 6.358593, 'lon': 2.4364315, 'tags': {'amenity': 'pharmacy', 'name': 'Pharmacie Vogue'}}"
"{'type': 'node', 'id': 4508195767, 'lat': 6.628201, 'lon': 1.710937, 'tags': {'amenity': 'pharmacy', 'building': 'yes', 'name': 'Pharmacie Zogbédji'}}"
"{'type': 'node', 'id': 4519141244, 'lat': 6.1913266, 'lon': 1.2083016, 'tags': {'amenity': 'pharmacy', 'name': 'La Confiance'}}"
"{'type': 'node', 'id': 4521115196, 'lat': 6.205489, 'lon': 1.2537564, 'tags': {'amenity': 'pharmacy', 'healthcare': 'pharmacy', 'name': 'Pharmacie CITRUS', 'name:fr': 'Pharmacie CITRUS'}}"
"{'type': 'node', 'id': 4529171388, 'lat': 6.1844144, 'lon': 1.1986179, 'tags': {'amenity': 'clinic', 'healthcare': 'clinic', 'name': 'Clinique Mère et Enfant ""L\'ETOILE""', 'phone': '+22822378282'}}"
"{'type': 'node', 'id': 4555392682, 'lat': 6.4827641, 'lon': 2.3593709, 'tags': {'amenity': 'clinic', 'name': ""Clinique Médico social Coeur d'afrique""}}"
"{'type': 'node', 'id': 4555392683, 'lat': 6.4858569, 'lon': 2.3595966, 'tags': {'amenity': 'clinic', 'name': 'Clinique Médico-Churigique YEDE'}}"
"{'type': 'node', 'id': 4555392684, 'lat': 6.5084852, 'lon': 2.3633469, 'tags': {'amenity': 'clinic', 'name': 'Clinique Sacre coeur de Jésus et coeur immaculée de Marie'}}"
"{'type': 'node', 'id': 4555392789, 'lat': 6.5200452, 'lon': 2.3591569, 'tags': {'amenity': 'pharmacy', 'name': 'Pharmacie de Missésinto'}}"
"{'type': 'node', 'id': 4555393211, 'lat': 6.4819841, 'lon': 2.3430573, 'tags': {'amenity': 'clinic', 'name': 'ONG Planing Familil'}}"
"{'type': 'node', 'id': 4555393213, 'lat': 6.4776753, 'lon': 2.3422667, 'tags': {'amenity': 'clinic', 'name': 'Sindo ONG'}}"
"{'type': 'node', 'id': 4555410868, 'lat': 6.4827461, 'lon': 2.359312, 'tags': {'amenity': 'clinic', 'name': ""Medico-social coeur d'accueil""}}"
"{'type': 'node', 'id': 4565728189, 'lat': 6.2392382, 'lon': 1.2201025, 'tags': {'amenity': 'clinic', 'name': 'ONG ACT-AFRIQUE', 'name:fr': 'ONG ACT-AFRIQUE'}}"
"{'type': 'node', 'id': 4582705390, 'lat': 6.1438775, 'lon': 1.2122823, 'tags': {'amenity': 'pharmacy', 'healthcare': 'pharmacy', 'name': 'Amo', 'name:fr': 'Amo'}}"
"{'type': 'node', 'id': 4582705789, 'lat': 6.1741816, 'lon': 1.2409883, 'tags': {'amenity': 'hospital', 'name': 'Polyclinique Saint Joseph', 'name:fr': 'Polyclinique Saint Joseph'}}"
"{'type': 'node', 'id': 4586561724, 'lat': 6.3582426, 'lon': 2.4273604, 'tags': {'amenity': 'clinic', 'healthcare': 'clinic'}}"
"{'type': 'node', 'id': 4586654371, 'lat': 6.3591985, 'lon': 2.4286638, 'tags': {'amenity': 'pharmacy', 'name': 'Mahuena'}}"
"{'type': 'node', 'id': 4596334607, 'lat': 6.4397542, 'lon': 2.322218, 'tags': {'amenity': 'pharmacy', 'healthcare': 'pharmacy', 'name': ""Pharmacie de l'Immaculée Conception"", 'opening_hours': '24/7', 'phone': '+22962180202'}}"
"{'type': 'node', 'id': 4621005201, 'lat': 6.1791785, 'lon': 1.2127032, 'tags': {'amenity': 'pharmacy', 'healthcare': 'pharmacy', 'name': 'Pharmacie Du CHU Campus', 'source': 'Bing;Survey'}}"
"{'type': 'node', 'id': 4686550668, 'lat': 6.2535502, 'lon': 1.173347, 'tags': {'addr:city': 'Lomé', 'addr:housenumber': '70423464', 'addr:street': 'Voix Express de la CEDEAO', 'amenity': 'pharmacy', 'dispensing': 'yes', 'name': 'Pharmacie Mawunyo', 'source': 'survey', 'source:date': '2017'}}"
"{'type': 'node', 'id': 4711849512, 'lat': 6.3640207, 'lon': 2.4147748, 'tags': {'amenity': 'doctors', 'healthcare': 'hospital', 'name': 'Centre Médical Saint Jean', 'source': 'gps,survey'}}"
"{'type': 'node', 'id': 4714953091, 'lat': 6.1804657, 'lon': 1.1968186, 'tags': {'amenity': 'clinic', 'healthcare': 'clinic', 'name': 'Clinique des spécialistes Fafa'}}"
"{'type': 'node', 'id': 4725626107, 'lat': 6.176763, 'lon': 1.2051059, 'tags': {'amenity': 'pharmacy', 'healthcare': 'pharmacy', 'name': 'Centre de santé commentaire de Be klikame'}}"
"{'type': 'node', 'id': 4725739073, 'lat': 6.1838921, 'lon': 1.204651, 'tags': {'amenity': 'doctors', 'healthcare': 'doctor', 'name': 'Soins Médicaux paix et joie'}}"
"{'type': 'node', 'id': 4729696337, 'lat': 7.2771105, 'lon': 1.6271605, 'tags': {'healthcare': 'yes', 'name': 'CMS de Kativou'}}"
"{'type': 'node', 'id': 4740602032, 'lat': 6.4213608, 'lon': 1.2039912, 'tags': {'addr:city': 'Boloumondji', 'amenity': 'pharmacy', 'name': 'Centre Médico-Social Sainte-Elizabeth de Hongrie', 'operator': 'Archidiocèse de Lome'}}"
"{'type': 'node', 'id': 4784163121, 'lat': 6.1945897, 'lon': 1.2539059, 'tags': {'addr:street': 'Boulevard du Sio', 'amenity': 'pharmacy', 'healthcare': 'pharmacy', 'name': 'Raoudha', 'name:en': 'Raoudha', 'name:fr': 'Raoudha'}}"
"{'type': 'node', 'id': 4885883340, 'lat': 7.026389, 'lon': 2.436111, 'tags': {'amenity': 'hospital', 'name': 'Centre de santé de Tohoues Dokodji'}}"
"{'type': 'node', 'id': 4889255459, 'lat': 6.4306437, 'lon': 2.3302711, 'tags': {'amenity': 'clinic', 'name': 'Clinique les etoiles'}}"
"{'type': 'node', 'id': 4897755221, 'lat': 7.2196695, 'lon': 2.3567971, 'tags': {'addr:postcode': '229', 'addr:street': 'covè', 'amenity': 'pharmacy', 'email': 'expedit1@gmail.com', 'name': 'Pharmacie Layo', 'name:fr': 'Pharmacie Layo', 'opening_hours': '24/7', 'phone': '94014253'}}"
"{'type': 'node', 'id': 4943831289, 'lat': 6.9029423, 'lon': 1.7163532, 'tags': {'amenity': 'pharmacy', 'name': 'Pharmacie Ste Véronique'}}"
"{'type': 'node', 'id': 4946130825, 'lat': 6.1319761, 'lon': 1.225514, 'tags': {'amenity': 'clinic', 'name': 'Dr. B. K. KOFFIGUE'}}"
"{'type': 'node', 'id': 4946556111, 'lat': 6.3645771, 'lon': 2.4023234, 'tags': {'addr:housenumber': '912', 'addr:street': 'rue avlékété(12.117)', 'amenity': 'pharmacy', 'healthcare': 'pharmacy', 'name': 'Ste Philomène'}}"
"{'type': 'node', 'id': 4954756378, 'lat': 6.3562416, 'lon': 2.3907754, 'tags': {'amenity': 'clinic', 'name': 'Clinique Santé Sud'}}"
"{'type': 'node', 'id': 4987818230, 'lat': 6.4337639, 'lon': 2.3432542, 'tags': {'amenity': 'clinic', 'name': 'Clinique Lenaec'}}"
"{'type': 'node', 'id': 4987840757, 'lat': 6.4334174, 'lon': 2.3419587, 'tags': {'amenity': 'clinic', 'name': 'Clinique Bidossessi'}}"
"{'type': 'node', 'id': 4992303021, 'lat': 6.8094189, 'lon': 2.1740767, 'tags': {'amenity': 'hospital', 'name': 'Centre de santé de Houegbo', 'name:fr': 'Centre de santé de Houegbo'}}"
"{'type': 'node', 'id': 4998325543, 'lat': 6.3881041, 'lon': 2.2749221, 'tags': {'amenity': 'clinic', 'name': 'Clinique st Camille', 'name:fr': 'Clinique st Camille'}}"
"{'type': 'node', 'id': 5001288853, 'lat': 7.1736536, 'lon': 2.0428861, 'tags': {'amenity': 'clinic', 'name': 'Mahounon', 'operator': 'ONG'}}"
"{'type': 'node', 'id': 5001310397, 'lat': 6.4367116, 'lon': 2.3359567, 'tags': {'amenity': 'clinic', 'name': 'Centre humanitaire Saint Fabien', 'operator': 'ONG-LGC'}}"
"{'type': 'node', 'id': 5001337720, 'lat': 6.4343667, 'lon': 2.3442783, 'tags': {'amenity': 'clinic', 'name': 'Clinique pédiatrique d’Abomey-Calavi'}}"
"{'type': 'node', 'id': 5001501330, 'lat': 6.3672938, 'lon': 2.3456744, 'tags': {'amenity': 'clinic', 'name': 'ONG Mon destin'}}"
"{'type': 'node', 'id': 5002153122, 'lat': 6.4524784, 'lon': 2.3398634, 'tags': {'amenity': 'pharmacy', 'name': ""Pharmacie L'angélus"", 'name:fr': ""Pharmacie L'angélus""}}"
"{'type': 'node', 'id': 5007917386, 'lat': 6.144339, 'lon': 1.2091479, 'tags': {'amenity': 'pharmacy', 'dispensing': 'yes', 'healthcare': 'pharmacy', 'name': 'Pharmacie Hôpital', 'operator': 'private', 'wheelchair': 'limited'}}"
"{'type': 'node', 'id': 5012731722, 'lat': 6.3716728, 'lon': 2.4338282, 'tags': {'amenity': 'pharmacy', 'name': 'Nouvelle pharmacie Dantokpa', 'name:fr': 'Nouvelle pharmacie Dantokpa'}}"
"{'type': 'node', 'id': 5016176323, 'lat': 6.4327014, 'lon': 2.3298854, 'tags': {'amenity': 'clinic', 'name': 'Clinique Notre Dame des victoires', 'name:fr': 'Clinique Notre Dame des victoires'}}"
"{'type': 'node', 'id': 5018536923, 'lat': 6.2090184, 'lon': 1.1598501, 'tags': {'amenity': 'pharmacy', 'name': 'PHARMACIE EL SHAMMAH', 'name:fr': 'PHARMACIE EL SHAMMAH'}}"
"{'type': 'node', 'id': 5024975621, 'lat': 6.3560192, 'lon': 2.416929, 'tags': {'amenity': 'clinic', 'healthcare': 'clinic', 'name': 'Dr Apithi', 'operator': 'Dr Apithi'}}"
"{'type': 'node', 'id': 5024975623, 'lat': 6.3559656, 'lon': 2.4182328, 'tags': {'amenity': 'dentist', 'healthcare': 'dentist', 'name': 'Dr Richardier', 'name:fr': 'Dr Richardier'}}"
"{'type': 'node', 'id': 5026196122, 'lat': 6.2113151, 'lon': 1.2339797, 'tags': {'amenity': 'clinic', 'name': 'CENTRE MÉDICO SOCIAL LA GLOIRE', 'name:fr': 'CENTRE MÉDICO SOCIAL LA GLOIRE'}}"
"{'type': 'node', 'id': 5029151623, 'lat': 6.3741733, 'lon': 2.3407759, 'tags': {'amenity': 'pharmacy', 'name': 'Pharmacie Godomey-Fignonhou', 'phone': '21141595'}}"
"{'type': 'node', 'id': 5031908106, 'lat': 6.3801798, 'lon': 2.3639219, 'tags': {'amenity': 'pharmacy', 'name': ""Pharmacie St Étienne d'Agla""}}"
"{'type': 'node', 'id': 5044638921, 'lat': 6.2150075, 'lon': 1.1445206, 'tags': {'amenity': 'clinic', 'name': 'Centre Médico-social ""La Vie""', 'name:fr': 'Centre Médico-social ""La Vie""'}}"
"{'type': 'node', 'id': 5107370814, 'lat': 6.4489935, 'lon': 2.3496893, 'tags': {'amenity': 'clinic', 'name': 'Clinique Saint Étienne'}}"
"{'type': 'node', 'id': 5110917111, 'lat': 6.1763142, 'lon': 1.1687519, 'tags': {'healthcare': 'yes'}}"
"{'type': 'node', 'id': 5119316421, 'lat': 6.3551732, 'lon': 2.433853, 'tags': {'amenity': 'clinic', 'name': 'Clinique La Lumière (chirurgie des yeux)'}}"
"{'type': 'node', 'id': 5155857139, 'lat': 6.4391634, 'lon': 2.3085669, 'tags': {'amenity': 'pharmacy', 'healthcare': 'pharmacy', 'name': 'Pharmacie principale de Houeto'}}"
"{'type': 'node', 'id': 5155859436, 'lat': 6.4256315, 'lon': 2.3185873, 'tags': {'amenity': 'pharmacy', 'name': 'Pharmacie Saint Abel', 'phone': '+22921047135'}}"
"{'type': 'node', 'id': 5172737826, 'lat': 6.2220049, 'lon': 1.1653079, 'tags': {'amenity': 'pharmacy', 'name': 'Pharmacie Vita-Flore'}}"
"{'type': 'node', 'id': 5185751149, 'lat': 6.134089, 'lon': 1.2113563, 'tags': {'amenity': 'clinic', 'description': ""laboratoire d'analyse médical"", 'name': 'Laboratoire LOCOH-DONOU', 'operator': 'private', 'source': 'Survey'}}"
"{'type': 'node', 'id': 5186081298, 'lat': 6.1813716, 'lon': 1.1907229, 'tags': {'amenity': 'pharmacy', 'name': 'Pharmacie du point E'}}"
"{'type': 'node', 'id': 5186528900, 'lat': 6.1940704, 'lon': 1.1379555, 'tags': {'amenity': 'pharmacy', 'name': 'Pharmacie Hosanna', 'phone': '+22822515040'}}"
"{'type': 'node', 'id': 5186983583, 'lat': 6.1896245, 'lon': 1.1537508, 'tags': {'amenity': 'pharmacy', 'name': 'Pharmacie Bonté'}}"
"{'type': 'node', 'id': 5196042330, 'lat': 6.2346078, 'lon': 1.1753172, 'tags': {'amenity': 'pharmacy', 'name': 'Pharmacie Abraham'}}"
"{'type': 'node', 'id': 5198000481, 'lat': 6.1846287, 'lon': 1.2471451, 'tags': {'amenity': 'pharmacy', 'name': 'Pharmacie Notre-Dame', 'opening_hours': 'Mo-Fr 07:30-20:00; Sa 07:30-13:00', 'phone': '+22822427404'}}"
"{'type': 'node', 'id': 5198070975, 'lat': 6.1689721, 'lon': 1.245859, 'tags': {'amenity': 'pharmacy', 'name': ""Pharmacie de l'aéroport""}}"
"{'type': 'node', 'id': 5198088758, 'lat': 6.2354871, 'lon': 1.1740012, 'tags': {'amenity': 'hospital', 'name': 'CMS le rocher'}}"
"{'type': 'node', 'id': 5209048075, 'lat': 6.3852566, 'lon': 2.3475915, 'tags': {'amenity': 'pharmacy', 'name': 'Pharmacie Ayessi'}}"
"{'type': 'node', 'id': 5215878922, 'lat': 6.4306222, 'lon': 2.3345636, 'tags': {'amenity': 'clinic', 'name': 'Clinique les Etoiles'}}"
"{'type': 'node', 'id': 5215952003, 'lat': 6.3560335, 'lon': 2.41454, 'tags': {'amenity': 'pharmacy', 'healthcare': 'pharmacy', 'name': 'Pediatrie HIA'}}"
"{'type': 'node', 'id': 5215952010, 'lat': 6.3553386, 'lon': 2.4142837, 'tags': {'amenity': 'clinic', 'healthcare': 'clinic', 'name': 'Pediatrie'}}"
"{'type': 'node', 'id': 5215952015, 'lat': 6.3553811, 'lon': 2.4146914, 'tags': {'amenity': 'pharmacy', 'healthcare': 'pharmacy', 'name': 'Pharmacie'}}"
"{'type': 'node', 'id': 5218199295, 'lat': 6.3667725, 'lon': 2.4027329, 'tags': {'addr:city': 'Cotonou', 'addr:country': 'BJ', 'addr:housenumber': '155', 'addr:place': 'Vodjè-Kpota', 'addr:street': '12.130', 'amenity': 'clinic', 'healthcare': 'clinic', 'name': 'Centre International de Psychiatries Intégrées du Bénin'}}"
"{'type': 'node', 'id': 5218316629, 'lat': 6.1957847, 'lon': 1.1613016, 'tags': {'amenity': 'clinic', 'description': ""médecin générale,médecine interne, kinésithérapie, échographie,radiologie,réanimation,soins intensifs, laboratoire d'analyses ; Assurance : INAM et autres."", 'name': 'Clinique El-Elyon', 'phone': '+22252087'}}"
"{'type': 'node', 'id': 5222052123, 'lat': 6.4124765, 'lon': 2.3452475, 'tags': {'amenity': 'clinic', 'name': 'Polyclinique Lab du Campus'}}"
"{'type': 'node', 'id': 5244447222, 'lat': 6.1538483, 'lon': 1.2228235, 'tags': {'amenity': 'pharmacy', 'name': ""Pharmacie de l'amitié"", 'name:fr': ""Pharmacie de l'amitié""}}"
"{'type': 'node', 'id': 5282110054, 'lat': 6.1461027, 'lon': 1.2663128, 'tags': {'amenity': 'pharmacy', 'healthcare': 'pharmacy', 'name': 'Pharmacie des Apotres'}}"
"{'type': 'node', 'id': 5304505435, 'lat': 6.3627373, 'lon': 2.4214123, 'tags': {'addr:housenumber': '1013', 'amenity': 'clinic', 'healthcare': 'clinic', 'name': 'Clinique Centrale', 'phone': '+22921321997'}}"
"{'type': 'node', 'id': 5305020557, 'lat': 6.1531167, 'lon': 1.2674237, 'tags': {'amenity': 'pharmacy', 'name': 'Pharmacie Akodessewa'}}"
"{'type': 'node', 'id': 5305021821, 'lat': 6.1531223, 'lon': 1.2673825, 'tags': {'amenity': 'pharmacy', 'name': 'Pharmacie Akodessewa'}}"
"{'type': 'node', 'id': 5308424522, 'lat': 6.1490148, 'lon': 1.2123416, 'tags': {'amenity': 'clinic', 'name': 'RAPILABO'}}"
"{'type': 'node', 'id': 5315000556, 'lat': 6.1748253, 'lon': 1.1722822, 'tags': {'amenity': 'hospital', 'name': 'Infirmerie'}}"
"{'type': 'node', 'id': 5334026194, 'lat': 6.1639565, 'lon': 1.2684523, 'tags': {'amenity': 'pharmacy', 'healthcare': 'pharmacy', 'name': 'Pharmacie 2000'}}"
"{'type': 'node', 'id': 5343281121, 'lat': 6.2012618, 'lon': 1.1951491, 'tags': {'amenity': 'pharmacy', 'name': 'Lumière'}}"
"{'type': 'node', 'id': 5346849092, 'lat': 6.1694828, 'lon': 1.2031998, 'tags': {'amenity': 'pharmacy', 'healthcare': 'pharmacy', 'name': 'Pharmacie El-Shadai'}}"
"{'type': 'node', 'id': 5349077559, 'lat': 6.151525, 'lon': 1.2388725, 'tags': {'amenity': 'pharmacy', 'name': 'Pharmacie N.d Trinité'}}"
"{'type': 'node', 'id': 5383036014, 'lat': 6.191227, 'lon': 1.260828, 'tags': {'amenity': 'pharmacy', 'healthcare': 'pharmacy', 'name': 'Pharmacie Klokpe'}}"
"{'type': 'node', 'id': 5387183121, 'lat': 6.3811166, 'lon': 2.3411901, 'tags': {'amenity': 'pharmacy', 'name': 'Saint Paul'}}"
"{'type': 'node', 'id': 5393827921, 'lat': 7.3462593, 'lon': 1.9338435, 'tags': {'amenity': 'pharmacy', 'name': 'Pharmacie Peniel'}}"
"{'type': 'node', 'id': 5403455764, 'lat': 6.4078844, 'lon': 2.331763, 'tags': {'amenity': 'clinic', 'name': ""Adeson's clinique"", 'operator': 'Privée'}}"
"{'type': 'node', 'id': 5403459458, 'lat': 6.4130877, 'lon': 2.3333569, 'tags': {'amenity': 'clinic', 'name': 'Clinique Verdie', 'operator': 'Privée'}}"
"{'type': 'node', 'id': 5426220230, 'lat': 6.1892986, 'lon': 1.2652116, 'tags': {'amenity': 'clinic', 'medical_system': 'chinese', 'name': 'Ning Hong', 'phone': '+22890892584'}}"
"{'type': 'node', 'id': 5466032634, 'lat': 6.3670428, 'lon': 2.420072, 'tags': {'amenity': 'pharmacy', 'healthcare': 'pharmacy', 'name': 'Para Pharmacie Adechina'}}"
"{'type': 'node', 'id': 5485000662, 'lat': 6.1284905, 'lon': 1.2218713, 'tags': {'amenity': 'pharmacy', 'name': 'Pharmacie du Centre'}}"
"{'type': 'node', 'id': 5488998753, 'lat': 6.1936831, 'lon': 1.1304653, 'tags': {'amenity': 'pharmacy', 'name': 'Pharmacie Conseil'}}"
"{'type': 'node', 'id': 5493250342, 'lat': 6.3926255, 'lon': 2.4275753, 'tags': {'amenity': 'clinic', 'name': 'ONC Arms Benin'}}"
"{'type': 'node', 'id': 5509045375, 'lat': 6.1588757, 'lon': 1.2382663, 'tags': {'amenity': 'pharmacy', 'name': 'Pharmacie du peuple'}}"
"{'type': 'node', 'id': 5521324727, 'lat': 6.3906967, 'lon': 2.4342012, 'tags': {'description': 'traditionnel thérapeutique', 'healthcare': 'yes', 'name': 'Hadjagoun Denenyinche assokle', 'phone': '97036709'}}"
"{'type': 'node', 'id': 5543273624, 'lat': 6.444667, 'lon': 2.343857, 'tags': {'amenity': 'pharmacy', 'name': 'Pharmacie Emmanuel'}}"
"{'type': 'node', 'id': 5553522808, 'lat': 6.3821471, 'lon': 2.3782679, 'tags': {'addr:city': 'Cotonou', 'addr:street': 'Boulevard de l’Europe', 'amenity': 'clinic', 'healthcare:speciality': 'neurologie;gynaecology;paediatrics;cardiology;biology;radiology', 'name': 'Clinique Val de Grâce de Cotonou', 'opening_hours': '24/7', 'operator': 'Docteur', 'operator:type': 'private'}}"
"{'type': 'node', 'id': 5555854122, 'lat': 6.4566941, 'lon': 2.3562525, 'tags': {'amenity': 'clinic', 'name': 'La Polyclinique Coopérative'}}"
"{'type': 'node', 'id': 5557391404, 'lat': 6.3775071, 'lon': 2.4417845, 'tags': {'amenity': 'clinic', 'name': 'Clinique Sainte Emma'}}"
"{'type': 'node', 'id': 5557518225, 'lat': 6.3829063, 'lon': 2.4172274, 'tags': {'amenity': 'pharmacy'}}"
"{'type': 'node', 'id': 5584106055, 'lat': 6.4290415, 'lon': 2.3404737, 'tags': {'healthcare': 'yes', 'name': 'St Ignace de Paix', 'phone': '97875845'}}"
"{'type': 'node', 'id': 5584115267, 'lat': 6.4303069, 'lon': 2.3301586, 'tags': {'amenity': 'pharmacy', 'name': 'Pharmacie Le Schilo'}}"
"{'type': 'node', 'id': 5592356110, 'lat': 6.4271433, 'lon': 2.3250217, 'tags': {'healthcare': 'centre', 'name': 'Centre médical bonne santé'}}"
"{'type': 'node', 'id': 5611676435, 'lat': 6.1770069, 'lon': 1.1686299, 'tags': {'amenity': 'clinic', 'name': 'Clinique Sainte Cécile', 'phone': '+22891875165'}}"
"{'type': 'node', 'id': 5615940216, 'lat': 6.1679518, 'lon': 1.2754774, 'tags': {'amenity': 'pharmacy', 'name': 'Pharmacie Maëlys', 'phone': '+22823388075'}}"
"{'type': 'node', 'id': 5618515507, 'lat': 6.1693196, 'lon': 1.2259701, 'tags': {'amenity': 'pharmacy', 'name': 'Pharmacie de la Paix'}}"
"{'type': 'node', 'id': 5641758221, 'lat': 6.3643278, 'lon': 2.4217404, 'tags': {'amenity': 'doctors', 'healthcare': 'doctor', 'name': 'Toxi Labo'}}"
"{'type': 'node', 'id': 5641758321, 'lat': 6.3638991, 'lon': 2.4216658, 'tags': {'amenity': 'clinic', 'healthcare': 'clinic', 'name': 'Clinique Saint Clément'}}"
"{'type': 'node', 'id': 5649940422, 'lat': 6.1253793, 'lon': 1.2283295, 'tags': {'amenity': 'pharmacy', 'name': 'Populaire'}}"
"{'type': 'node', 'id': 5652564774, 'lat': 6.3906633, 'lon': 2.3937383, 'tags': {'addr:housenumber': '3037', 'addr:street': '94639561', 'amenity': 'clinic', 'name': 'St Antoine de Padoue'}}"
"{'type': 'node', 'id': 5677844651, 'lat': 6.17841, 'lon': 1.329995, 'tags': {'amenity': 'pharmacy', 'healthcare': 'pharmacy', 'name': 'Pharmacie Hygea'}}"
"{'type': 'node', 'id': 5688355136, 'lat': 6.3912116, 'lon': 2.3798139, 'tags': {'amenity': 'clinic', 'healthcare:speciality': 'neurologie', 'name': 'Centre médical saint Thibaut', 'operator:type': 'private'}}"
"{'type': 'node', 'id': 5756107536, 'lat': 6.3879967, 'lon': 2.3759101, 'tags': {'amenity': 'pharmacy', 'name': 'Pharmacopée chinoise'}}"
"{'type': 'node', 'id': 5756107548, 'lat': 6.3879864, 'lon': 2.3761445, 'tags': {'amenity': 'clinic', 'name': 'Anap DBF', 'shop': 'optician'}}"
"{'type': 'node', 'id': 5775782196, 'lat': 6.22373, 'lon': 1.1808283, 'tags': {'amenity': 'hospital', 'description': 'spécialiste des maladies du coeur, des artères et des veines hypertension artérielle', 'name': 'Professeur Agree DAMOROU'}}"
"{'type': 'node', 'id': 5816195669, 'lat': 6.6314493, 'lon': 2.2284395, 'tags': {'amenity': 'pharmacy'}}"
"{'type': 'node', 'id': 5817748844, 'lat': 6.4322507, 'lon': 1.2120263, 'tags': {'amenity': 'pharmacy', 'dispensing': 'yes', 'healthcare': 'pharmacy', 'name': 'Faya Médecine'}}"
"{'type': 'node', 'id': 5834851637, 'lat': 6.1703705, 'lon': 1.2055473, 'tags': {'addr:street': '35 Rue , Bé Klikame', 'amenity': 'hospital', 'healthcare': 'hospital', 'name': 'CMS Ste Marie Madeleine', 'phone': '+22822331259'}}"
"{'type': 'node', 'id': 5836999269, 'lat': 6.4173323, 'lon': 1.2110811, 'tags': {'amenity': 'pharmacy', 'name': 'Pharmacie Believe'}}"
"{'type': 'node', 'id': 5837058827, 'lat': 6.4205352, 'lon': 1.2118962, 'tags': {'amenity': 'hospital', 'name': 'polyclinique de tsevie'}}"
"{'type': 'node', 'id': 5837196373, 'lat': 6.4406553, 'lon': 1.2073842, 'tags': {'amenity': 'pharmacy'}}"
"{'type': 'node', 'id': 5837196380, 'lat': 6.4405033, 'lon': 1.2051353, 'tags': {'amenity': 'clinic', 'name': 'CMS marian jonker'}}"
"{'type': 'node', 'id': 5837258446, 'lat': 6.4324223, 'lon': 1.2240905, 'tags': {'amenity': 'pharmacy', 'name': 'CAMEG Togo'}}"
"{'type': 'node', 'id': 5837266148, 'lat': 6.4326568, 'lon': 1.2017627, 'tags': {'amenity': 'clinic', 'name': 'FL - JASON'}}"
"{'type': 'node', 'id': 5838274739, 'lat': 6.4025838, 'lon': 1.207673, 'tags': {'amenity': 'clinic', 'name': 'Centre Medico-social ""Saint Antoine de Padoue"" de Tsevie'}}"
"{'type': 'node', 'id': 5864442788, 'lat': 6.3659368, 'lon': 2.4166272, 'tags': {'amenity': 'pharmacy', 'healthcare': 'pharmacy', 'name': 'Pharmacie Amen'}}"
"{'type': 'node', 'id': 5871234665, 'lat': 6.4351999, 'lon': 1.2056469, 'tags': {'amenity': 'hospital', 'name': 'Centre Médico-social TSO NAKLE'}}"
"{'type': 'node', 'id': 5871910931, 'lat': 6.3861653, 'lon': 2.4045443, 'tags': {'amenity': 'pharmacy', 'name': 'Pharmacie Fifadji'}}"
"{'type': 'node', 'id': 5898767139, 'lat': 6.8586284, 'lon': 2.234962, 'tags': {'amenity': 'hospital', 'name': ""Centre de sante d'agon""}}"
"{'type': 'node', 'id': 5908481377, 'lat': 7.1715077, 'lon': 2.090008, 'tags': {'amenity': 'pharmacy', 'name': 'Pharmacie Houeffa Sodohome'}}"
"{'type': 'node', 'id': 5908482262, 'lat': 6.6814433, 'lon': 2.1482572, 'tags': {'amenity': 'pharmacy', 'healthcare': 'pharmacy', 'name': 'Pharmacie Toussaint Louverture'}}"
"{'type': 'node', 'id': 5908482264, 'lat': 7.1732012, 'lon': 2.0790631, 'tags': {'healthcare': 'psychotherapist', 'name': 'Centre psychiatrique'}}"
"{'type': 'node', 'id': 5908498686, 'lat': 6.4998249, 'lon': 2.3549422, 'tags': {'amenity': 'pharmacy', 'name': 'Pharmacie Gninin carrefour', 'phone': '0022960559192'}}"
"{'type': 'node', 'id': 6042618131, 'lat': 6.3589277, 'lon': 2.0870676, 'tags': {'amenity': 'pharmacy', 'name': 'Pharmacie la Grâce'}}"
"{'type': 'node', 'id': 6109324664, 'lat': 6.3608786, 'lon': 2.3792548, 'tags': {'amenity': 'pharmacy', 'name': 'Don de Dieu', 'operator': 'Privé'}}"
"{'type': 'node', 'id': 6142814461, 'lat': 6.1827795, 'lon': 1.2144492, 'tags': {'amenity': 'pharmacy', 'dispensing': 'yes', 'healthcare': 'pharmacy'}}"
"{'type': 'node', 'id': 6152351786, 'lat': 6.1894379, 'lon': 1.1931818, 'tags': {'amenity': 'hospital', 'healthcare': 'clinic', 'name': 'Clinique Chirurgicale de Lomé'}}"
"{'type': 'node', 'id': 6293224397, 'lat': 6.2059751, 'lon': 1.1846315, 'tags': {'amenity': 'clinic', 'name': 'Siège Aime-Afrique TOGO', 'office': 'ONG', 'opening_hours': '24/7', 'operator': 'Aime Afrique', 'source': 'survey'}}"
"{'type': 'node', 'id': 6297719094, 'lat': 6.3607742, 'lon': 2.444667, 'tags': {'amenity': 'pharmacy', 'dispensing': 'yes', 'healthcare': 'pharmacy'}}"
"{'type': 'node', 'id': 6316550286, 'lat': 6.2123771, 'lon': 1.1542307, 'tags': {'amenity': 'clinic', 'name': 'Centre de la Medecine Naturo-Phyto-Thérapie (Mouhamed)'}}"
"{'type': 'node', 'id': 6332097828, 'lat': 6.3020007, 'lon': 1.4305723, 'tags': {'amenity': 'hospital', 'description': 'USP Type 1 (Classification centre de santé au Togo)', 'healthcare': 'nurse', 'name': 'Dispensaire de Sévagan', 'source': 'bing;survey'}}"
"{'type': 'node', 'id': 6360686996, 'lat': 6.2255409, 'lon': 1.1900251, 'tags': {'amenity': 'clinic'}}"
"{'type': 'node', 'id': 6475127587, 'lat': 6.3808987, 'lon': 2.4315898, 'tags': {'amenity': 'clinic', 'name': 'La confiance'}}"
"{'type': 'node', 'id': 6475127588, 'lat': 6.3806769, 'lon': 2.4313288, 'tags': {'amenity': 'pharmacy', 'name': 'Pharmacie Femi'}}"
"{'type': 'node', 'id': 6480934885, 'lat': 6.4676517, 'lon': 2.397055, 'tags': {'amenity': 'clinic', 'name': 'Clinique'}}"
"{'type': 'node', 'id': 6481176315, 'lat': 6.4671236, 'lon': 2.3945342, 'tags': {'amenity': 'doctors', 'healthcare': 'doctor', 'name': 'Hopital Chez Ahouie'}}"
"{'type': 'node', 'id': 6572766832, 'lat': 6.1370338, 'lon': 1.2189602, 'tags': {'amenity': 'pharmacy', 'healthcare': 'pharmacy', 'name': 'Pharmacie Hanoukopé'}}"
"{'type': 'node', 'id': 6770089218, 'lat': 6.1969505, 'lon': 1.1885063, 'tags': {'amenity': 'clinic', 'name': 'Clinique Ophtalmologique Lumière Divine', 'phone': '+228 93398702'}}"
"{'type': 'node', 'id': 6776860885, 'lat': 6.3568276, 'lon': 2.3733356, 'tags': {'amenity': 'clinic', 'name': 'Clinique du Cœur'}}"
"{'type': 'node', 'id': 6799808906, 'lat': 6.465434, 'lon': 2.3376066, 'tags': {'amenity': 'doctors', 'healthcare': 'doctor', 'healthcare:speciality': 'ophthalmology', 'name': 'Clinique ophtalmologique Bartimée'}}"
"{'type': 'node', 'id': 6806707307, 'lat': 6.1920094, 'lon': 1.1774504, 'tags': {'amenity': 'pharmacy', 'name': 'Pharmacie Maïna', 'phone': '+22870436534'}}"
"{'type': 'node', 'id': 6872253182, 'lat': 6.6094315, 'lon': 2.3587393, 'tags': {'amenity': 'pharmacy', 'name': 'Pharmacie Zinvié', 'phone': '+22994017251'}}"
"{'type': 'node', 'id': 6895259636, 'lat': 6.2334942, 'lon': 1.196272, 'tags': {'amenity': 'clinic', 'name': 'Ma famille'}}"
"{'type': 'node', 'id': 6895772621, 'lat': 6.51665, 'lon': 1.9421137, 'tags': {'healthcare': 'yes', 'name': 'CSA-Dahè'}}"
"{'type': 'node', 'id': 6908619573, 'lat': 6.4849198, 'lon': 2.3260197, 'tags': {'amenity': 'clinic', 'name': 'clinique la plénitude'}}"
"{'type': 'node', 'id': 6908810099, 'lat': 6.4584965, 'lon': 2.3215444, 'tags': {'amenity': 'pharmacy', 'name': 'Pharmacie Saint Pio Nouveau site'}}"
"{'type': 'node', 'id': 6917401841, 'lat': 6.2333568, 'lon': 1.1489943, 'tags': {'amenity': 'pharmacy', 'name': 'Pharmacie Zossimé'}}"
"{'type': 'node', 'id': 6926177388, 'lat': 6.3756403, 'lon': 2.357557, 'tags': {'amenity': 'pharmacy', 'name': 'Pharmacie Safari'}}"
"{'type': 'node', 'id': 6966704885, 'lat': 6.3686477, 'lon': 2.4032719, 'tags': {'amenity': 'pharmacy', 'name': 'Phamarcie Ste Foi'}}"
"{'type': 'node', 'id': 6989609010, 'lat': 6.3782275, 'lon': 2.3534046, 'tags': {'addr:housenumber': '336', 'amenity': 'pharmacy', 'name': 'Cristal Santé'}}"
"{'type': 'node', 'id': 6989619810, 'lat': 6.3717787, 'lon': 2.3569166, 'tags': {'amenity': 'pharmacy', 'name': 'Luli Luli'}}"
"{'type': 'node', 'id': 7120283022, 'lat': 6.3748131, 'lon': 2.448783, 'tags': {'amenity': 'clinic', 'name': 'Clinique de la Vue'}}"
"{'type': 'node', 'id': 7122856161, 'lat': 6.195382, 'lon': 1.1318129, 'tags': {'description': 'centre privé', 'healthcare': 'centre', 'name': 'CMS Le Triomphe', 'phone': '+22898286021'}}"
"{'type': 'node', 'id': 7124412355, 'lat': 6.1762419, 'lon': 1.3657305, 'tags': {'amenity': 'pharmacy', 'name': ""Pharmacie La Flamme d'Amour""}}"
"{'type': 'node', 'id': 7124461217, 'lat': 6.3670517, 'lon': 2.4262933, 'tags': {'addr:housenumber': '300', 'addr:street': 'Rue des missions', 'amenity': 'clinic', 'name': 'Cabinet de Cardiologie', 'phone': '97015894'}}"
"{'type': 'node', 'id': 7124466392, 'lat': 6.4316452, 'lon': 2.3464966, 'tags': {'healthcare': 'yes', 'name': ""Centre de Santé et d'association Dounia""}}"
"{'type': 'node', 'id': 7131752899, 'lat': 6.1561605, 'lon': 1.2220666, 'tags': {'amenity': 'clinic', 'name': 'Clinique Principale ATBF de Lomé'}}"
"{'type': 'node', 'id': 7208051039, 'lat': 6.1734229, 'lon': 1.1697008, 'tags': {'amenity': 'pharmacy', 'name': 'Pharmacie villageois'}}"
"{'type': 'node', 'id': 7260593485, 'lat': 7.1602811, 'lon': 1.9397071, 'tags': {'amenity': 'hospital', 'name': 'Centre Saint Camille de Davougon'}}"
"{'type': 'node', 'id': 7280775811, 'lat': 6.4383802, 'lon': 2.3437043, 'tags': {'amenity': 'clinic', 'name': 'Clinique  la gratitude'}}"
"{'type': 'node', 'id': 7287888774, 'lat': 6.1777028, 'lon': 1.1715725, 'tags': {'amenity': 'clinic', 'contact:phone': '+22899334197', 'name': 'Secours médical santé pour tous', 'opening_hours': 'Mo-Su 20:00-19:00', 'phone': '+22892110977'}}"
"{'type': 'node', 'id': 7395617879, 'lat': 6.4051574, 'lon': 2.3073274, 'tags': {'amenity': 'pharmacy', 'name': 'Saint Benoît'}}"
"{'type': 'node', 'id': 7395617931, 'lat': 6.4025359, 'lon': 2.3170017, 'tags': {'amenity': 'pharmacy', 'name': 'Eyitayo Womey'}}"
"{'type': 'node', 'id': 7416976876, 'lat': 6.2563345, 'lon': 1.1448741, 'tags': {'amenity': 'hospital'}}"
"{'type': 'node', 'id': 7501888286, 'lat': 6.4703157, 'lon': 1.742768, 'tags': {'addr:street': 'Afagnagan - Aklokou', 'amenity': 'hospital', 'description': 'USP Type 1 (Classification centre de santé au Togo)', 'healthcare': 'nurse', 'name': 'Dispensaire Agomé Séva'}}"
"{'type': 'node', 'id': 7501888487, 'lat': 6.4455986, 'lon': 1.7519651, 'tags': {'addr:street': 'Afagnagan - Aklakou', 'amenity': 'hospital', 'description': 'USP Type 1 (Classification centre de santé au Togo)', 'email': 'emilekounke@gmail.com', 'healthcare': 'nurse', 'name': 'Dispensaire de Batonou Bas-Mono', 'opening_hours': '24/7'}}"
"{'type': 'node', 'id': 7501895888, 'lat': 6.2399325, 'lon': 1.1853269, 'tags': {'addr:city': 'Agoè', 'addr:street': 'Voix Express de la CEDEAO', 'amenity': 'hospital', 'email': 'cmsshalom.eadt@gmail.com', 'emergency': 'yes', 'healthcare': 'hospital', 'healthcare:speciality': 'prise_en_charge_médico-sanitaires;general', 'name': 'Centre Médico social Shalom', 'opening_hours': '24/7', 'phone': '+228 92454455'}}"
"{'type': 'node', 'id': 7523506302, 'lat': 6.378935, 'lon': 2.4163683, 'tags': {'healthcare': 'yes', 'name': 'GEH'}}"
"{'type': 'node', 'id': 7523952001, 'lat': 6.3781817, 'lon': 2.3946867, 'tags': {'healthcare': 'yes', 'name': 'Saint Potin'}}"
"{'type': 'node', 'id': 7540836204, 'lat': 6.1824402, 'lon': 1.1996998, 'tags': {'amenity': 'pharmacy', 'bench': 'no', 'bus': 'yes', 'highway': 'bus_stop', 'name': 'Pharmacie Mathilda', 'operator': 'SOTRAL', 'public_transport': 'platform', 'shelter': 'no', 'source': 'Sotral;survey'}}"
"{'type': 'node', 'id': 7589102730, 'lat': 6.1729421, 'lon': 1.1865807, 'tags': {'amenity': 'clinic', 'name': ""Cabinet d'ophtalmologie De. BALO"", 'phone': '+22822518175'}}"
"{'type': 'node', 'id': 7625773626, 'lat': 6.2692505, 'lon': 1.7341474, 'tags': {'amenity': 'hospital', 'description': 'USP Type 1 (Classification centre de santé au Togo)', 'healthcare': 'nurse', 'name': 'Dispensaire de Djéta'}}"
"{'type': 'node', 'id': 7625773627, 'lat': 6.2905354, 'lon': 1.8026979, 'tags': {'amenity': 'hospital', 'description': 'USP Type 1 (Classification centre de santé au Togo)', 'healthcare': 'nurse', 'name': ""Centre de santé d'Agbannakin""}}"
"{'type': 'node', 'id': 7625773629, 'lat': 6.3042135, 'lon': 1.6683662, 'tags': {'amenity': 'hospital', 'description': 'USP Type 1 (Classification centre de santé au Togo)', 'healthcare': 'nurse', 'name': ""Dispensaire d'Atoèta""}}"
"{'type': 'node', 'id': 7625773630, 'lat': 6.3355366, 'lon': 1.643879, 'tags': {'amenity': 'hospital', 'description': 'USP Type 1 (Classification centre de santé au Togo)', 'healthcare': 'nurse', 'name': 'Dispensaire de Mélédjigbé'}}"
"{'type': 'node', 'id': 7625773631, 'lat': 6.3267219, 'lon': 1.6129357, 'tags': {'amenity': 'hospital', 'healthcare': 'nurse', 'name': 'Unité de Soins Périphérique de Vo koutimé'}}"
"{'type': 'node', 'id': 7625773639, 'lat': 6.2495738, 'lon': 1.600745, 'tags': {'amenity': 'hospital', 'description': 'USP Type 1 (Classification centre de santé au Togo)', 'healthcare': 'nurse', 'name': 'Centre Médical Social de Glidji'}}"
"{'type': 'node', 'id': 7625773647, 'lat': 6.1981916, 'lon': 1.4184245, 'tags': {'amenity': 'hospital', 'description': 'USP Type 2 (Classification centre de santé au Togo)', 'healthcare': 'nurse', 'name': 'Centre Médical Social de Gbodjomé'}}"
"{'type': 'node', 'id': 7625773648, 'lat': 6.2120027, 'lon': 1.5047964, 'tags': {'amenity': 'hospital', 'description': 'USP Type 1 (Classification centre de santé au Togo)', 'healthcare': 'nurse', 'name': 'Unité de Soin Périphérique de Kpémé'}}"
"{'type': 'node', 'id': 7625773649, 'lat': 6.2174736, 'lon': 1.5320644, 'tags': {'amenity': 'hospital', 'description': 'USP Type 1 (Classification centre de santé au Togo)', 'healthcare': 'nurse', 'name': 'Unité de Soin Périphérique de Goumoukopé'}}"
"{'type': 'node', 'id': 7625773650, 'lat': 6.3333026, 'lon': 1.5307192, 'tags': {'amenity': 'hospital', 'healthcare': 'clinic', 'name': 'Polyclinique de Vogan'}}"
"{'type': 'node', 'id': 7625773658, 'lat': 6.4950175, 'lon': 1.6287795, 'tags': {'amenity': 'hospital', 'healthcare': 'clinic', 'name': ""Polyclinique d'Afagnan""}}"
"{'type': 'node', 'id': 7625773659, 'lat': 6.2293738, 'lon': 1.5948307, 'tags': {'amenity': 'hospital', 'healthcare': 'clinic', 'name': 'Pomefa Polyclinique Mère et Enfant'}}"
"{'type': 'node', 'id': 7625894607, 'lat': 6.2620198, 'lon': 1.680935, 'tags': {'amenity': 'hospital', 'description': 'USP Type 1 (Classification centre de santé au Togo)', 'healthcare': 'nurse', 'name': ""Dispensaire d'Agouègan""}}"
"{'type': 'node', 'id': 7625894608, 'lat': 6.2634222, 'lon': 1.7104956, 'tags': {'amenity': 'hospital', 'description': 'USP Type 1 (Classification centre de santé au Togo)', 'healthcare': 'nurse', 'name': 'Dispensaire de Séko'}}"
"{'type': 'node', 'id': 7626112086, 'lat': 6.4708441, 'lon': 1.5693699, 'tags': {'amenity': 'hospital', 'description': 'USP Type 1 (Classification centre de santé au Togo)', 'healthcare': 'nurse', 'name': 'Dispensaire de Dzrekpo'}}"
"{'type': 'node', 'id': 7626112091, 'lat': 6.4825375, 'lon': 1.5008559, 'tags': {'amenity': 'hospital', 'description': 'USP Type 1 (Classification centre de santé au Togo)', 'healthcare': 'nurse', 'name': 'Dispensaire de Dagbati'}}"
"{'type': 'node', 'id': 7626112092, 'lat': 6.469253, 'lon': 1.5578471, 'tags': {'description': 'USP Type 1 (Classification centre de santé au Togo)', 'health_amenity:type': 'first_aid_kit', 'healthcare': 'nurse', 'name': 'Dispensaire de Mome Hounkpati'}}"
"{'type': 'node', 'id': 7626112121, 'lat': 6.416634, 'lon': 1.6071716, 'tags': {'amenity': 'hospital', 'description': 'USP Type 1 (Classification centre de santé au Togo)', 'healthcare': 'nurse', 'name': 'Dispensaire de Zooti'}}"
"{'type': 'node', 'id': 7626112122, 'lat': 6.3839044, 'lon': 1.6004661, 'tags': {'amenity': 'hospital', 'description': 'USP Type 1 (Classification centre de santé au Togo)', 'healthcare': 'nurse', 'name': ""Dispensaire d'Assankondji""}}"
"{'type': 'node', 'id': 7626129221, 'lat': 6.2117168, 'lon': 1.4808691, 'tags': {'amenity': 'hospital', 'healthcare': 'hospital', 'name': ""Centre Médico-Social d'Agbodrafo""}}"
"{'type': 'node', 'id': 7626163670, 'lat': 6.4960062, 'lon': 1.711421, 'tags': {'amenity': 'hospital', 'description': 'USP Type 1 (Classification centre de santé au Togo)', 'healthcare': 'nurse', 'name': ""Dispensaire d'Agbetiko""}}"
"{'type': 'node', 'id': 7626233517, 'lat': 6.4941248, 'lon': 1.6323173, 'tags': {'amenity': 'hospital', 'name': ""Hôpital Saint Jean d'Afagnan"", 'operator': 'private'}}"
"{'type': 'node', 'id': 7626252685, 'lat': 6.5585043, 'lon': 1.6652924, 'tags': {'amenity': 'hospital', 'description': 'USP Type 2 (Classification centre de santé au Togo)', 'healthcare': 'nurse', 'name': ""Centre Médico-Social d'agomé Glozou""}}"
"{'type': 'node', 'id': 7626334870, 'lat': 6.2878974, 'lon': 1.5094238, 'tags': {'amenity': 'hospital', 'building': 'yes', 'description': 'USP Type 1 (Classification centre de santé au Togo)', 'emergency': 'yes', 'healthcare': 'nurse', 'name': 'Dispensaire de Wogba'}}"
"{'type': 'node', 'id': 7626334871, 'lat': 6.3830408, 'lon': 1.4366341, 'tags': {'amenity': 'hospital', 'building': 'yes', 'description': 'USP Type 1 (Classification centre de santé au Togo)', 'emergency': 'yes', 'healthcare': 'nurse', 'name': ""Centre Médico-Social d'Akoumapé""}}"
"{'type': 'node', 'id': 7626334872, 'lat': 6.3689703, 'lon': 1.41188, 'tags': {'amenity': 'hospital', 'description': 'USP Type 1 (Classification centre de santé au Togo)', 'healthcare': 'nurse', 'name': 'Dispensaire Hahotoe'}}"
"{'type': 'node', 'id': 7626334873, 'lat': 6.4228443, 'lon': 1.4972413, 'tags': {'amenity': 'hospital', 'description': 'USP Type 1 (Classification centre de santé au Togo)', 'healthcare': 'nurse', 'name': ""Centre de santé d'Atahonou""}}"
"{'type': 'node', 'id': 7626808830, 'lat': 6.522333, 'lon': 1.5773267, 'tags': {'amenity': 'hospital', 'description': 'USP Type 1 (Classification centre de santé au Togo)', 'healthcare': 'nurse', 'name': 'Dispensaire Kpétou'}}"
"{'type': 'node', 'id': 7626808916, 'lat': 6.4755281, 'lon': 1.6632056, 'tags': {'addr:street': 'Afagnagan - Aklokou', 'amenity': 'hospital', 'description': 'USP Type 1 (Classification centre de santé au Togo)', 'healthcare': 'nurse', 'name': 'Unité de Soins Périphérique de Logowomé'}}"
"{'type': 'node', 'id': 7626808946, 'lat': 6.4465949, 'lon': 1.6738607, 'tags': {'addr:street': 'Afagnagan - Aklokou', 'amenity': 'hospital', 'description': 'USP Type 1 (Classification centre de santé au Togo)', 'healthcare': 'nurse', 'name': 'Dispensaire de Masséda'}}"
"{'type': 'node', 'id': 7638751586, 'lat': 7.1807758, 'lon': 2.0458016, 'tags': {'amenity': 'clinic', 'name': 'ETS CLINIQUE L’ESPÉRANCE'}}"
"{'type': 'node', 'id': 7638751588, 'lat': 7.1784944, 'lon': 2.0629227, 'tags': {'amenity': 'clinic', 'name': 'Clinique St Perpétue'}}"
"{'type': 'node', 'id': 7638752288, 'lat': 7.1747619, 'lon': 2.0352667, 'tags': {'amenity': 'clinic', 'name': 'Clinique d’accouchement la Grâce Divine'}}"
"{'type': 'node', 'id': 7638752485, 'lat': 7.1821953, 'lon': 2.0439627, 'tags': {'amenity': 'clinic', 'name': 'ETS CLINIQUE L’ESPÉRANCE'}}"
"{'type': 'node', 'id': 7638752585, 'lat': 7.1822623, 'lon': 2.0444389, 'tags': {'amenity': 'clinic', 'name': 'CLINIQUE L’ESPÉRANCE'}}"
"{'type': 'node', 'id': 7681376071, 'lat': 6.6614718, 'lon': 2.1596478, 'tags': {'amenity': 'pharmacy', 'name': 'Pharmacie Bethsda'}}"
"{'type': 'node', 'id': 7699708568, 'lat': 6.421208, 'lon': 1.663701, 'tags': {'amenity': 'hospital', 'description': 'USP Type 2 (Classification centre de santé au Togo)', 'healthcare': 'clinic', 'name': 'CMS Attitogon', 'source': 'bing;survey'}}"
"{'type': 'node', 'id': 7703902085, 'lat': 6.2250364, 'lon': 1.2183265, 'tags': {'amenity': 'clinic', 'name': 'Cabinet Médical Ste VERONIQUE'}}"
"{'type': 'node', 'id': 7728938544, 'lat': 6.2689276, 'lon': 1.5543735, 'tags': {'amenity': 'hospital', 'name': 'CMS San Marino Anyonkopé'}}"
"{'type': 'node', 'id': 7791090987, 'lat': 6.2294278, 'lon': 1.2110093, 'tags': {'amenity': 'pharmacy', 'name': 'Pharmacie Vétérinaire et clinique la référence', 'opening_hours': 'Mo-Fr 08:00-18:00', 'phone': '+22890030375'}}"
"{'type': 'node', 'id': 7791419795, 'lat': 6.3847282, 'lon': 2.4028404, 'tags': {'amenity': 'hospital', 'name': 'Saint Luc'}}"
"{'type': 'node', 'id': 7810009761, 'lat': 6.1762116, 'lon': 1.2014003, 'tags': {'amenity': 'clinic', 'healthcare': 'doctor', 'healthcare:speciality': 'dermatology', 'name': 'Docteurs Tchangaï', 'operator': 'private'}}"
"{'type': 'node', 'id': 7810011842, 'lat': 6.176641, 'lon': 1.2050588, 'tags': {'amenity': 'hospital', 'healthcare': 'hospital', 'name': 'centre de santé communautaire'}}"
"{'type': 'node', 'id': 7862605449, 'lat': 6.4153935, 'lon': 2.3392691, 'tags': {'healthcare': 'laboratory', 'name': ""Laboratoire d'Ecologie Appliquée""}}"
"{'type': 'node', 'id': 7889741781, 'lat': 6.5983453, 'lon': 2.3642322, 'tags': {'amenity': 'hospital', 'name': 'Hôpital La Croix de Zinvié'}}"
"{'type': 'node', 'id': 7902371760, 'lat': 7.1932961, 'lon': 2.0788842, 'tags': {'amenity': 'pharmacy', 'name': 'Shalom'}}"
"{'type': 'node', 'id': 7925740785, 'lat': 6.1773345, 'lon': 1.1450737, 'tags': {'amenity': 'hospital', 'name': 'CMS Soeur PURA PAGANI'}}"
"{'type': 'node', 'id': 7930722985, 'lat': 7.1804638, 'lon': 2.0638686, 'tags': {'addr:city': 'Bohicon', 'amenity': 'pharmacy', 'contact:phone': '+229 22 13 03 57', 'dispensing': 'yes', 'healthcare': 'pharmacy', 'name': 'Pharmacie de l’étoile de Kpokon'}}"
"{'type': 'node', 'id': 8125305498, 'lat': 6.3740004, 'lon': 2.3529931, 'tags': {'amenity': 'clinic', 'name': 'Clinique Pôle Santé'}}"
"{'type': 'node', 'id': 8237972058, 'lat': 6.2374252, 'lon': 1.162816, 'tags': {'amenity': 'pharmacy', 'name': 'Pharmacie Ganfat'}}"
"{'type': 'node', 'id': 8241405381, 'lat': 6.2182105, 'lon': 1.18285, 'tags': {'amenity': 'pharmacy', 'name': 'Pharmacie Nabine'}}"
"{'type': 'node', 'id': 8251874361, 'lat': 6.1523773, 'lon': 1.2218298, 'tags': {'amenity': 'clinic', 'name': 'Clinique Taamba'}}"
"{'type': 'node', 'id': 8255798548, 'lat': 6.4327576, 'lon': 2.342613, 'tags': {'amenity': 'pharmacy', 'name': 'Pharmacie fleuve de vie'}}"
"{'type': 'node', 'id': 8269509029, 'lat': 6.4315522, 'lon': 2.3283901, 'tags': {'healthcare': 'clinic', 'name': 'Clinic Bethesda Tankpe', 'survey:date': '2020-12-29', 'wheelchair': 'no'}}"
"{'type': 'node', 'id': 8316807163, 'lat': 6.1703991, 'lon': 1.1862966, 'tags': {'amenity': 'clinic', 'name': 'Cabinet médical Zoé Cardiologie', 'phone': '+22893960290'}}"
"{'type': 'node', 'id': 8335956758, 'lat': 6.1572745, 'lon': 1.2331672, 'tags': {'amenity': 'pharmacy', 'name': 'Pharmacie Isis'}}"
"{'type': 'node', 'id': 8397386656, 'lat': 6.410915, 'lon': 1.88677, 'tags': {'amenity': 'pharmacy', 'name': 'Pharmacie sainte Croix'}}"
"{'type': 'node', 'id': 8420228890, 'lat': 6.3718519, 'lon': 2.3202218, 'tags': {'amenity': 'pharmacy', 'name': 'Pharmacie Hedomey'}}"
"{'type': 'node', 'id': 8426662993, 'lat': 6.235027, 'lon': 1.2003304, 'tags': {'amenity': 'pharmacy', 'name': 'Pharmacie La Main de Dieu'}}"
"{'type': 'node', 'id': 8429820017, 'lat': 6.3427514, 'lon': 1.1128147, 'tags': {'amenity': 'pharmacy', 'name': 'Dépôt de pharmacie Dieu nous aime'}}"
"{'type': 'node', 'id': 8430049309, 'lat': 6.3397459, 'lon': 1.1074828, 'tags': {'amenity': 'hospital', 'name': 'CMS Kovié'}}"
"{'type': 'node', 'id': 8464794335, 'lat': 6.3577491, 'lon': 2.3583851, 'tags': {'amenity': 'pharmacy', 'name': 'Pharmacie Akogbato'}}"
"{'type': 'node', 'id': 8474826217, 'lat': 7.236181, 'lon': 1.8519321, 'tags': {'amenity': 'hospital', 'name': 'CS TANGANDJI'}}"
"{'type': 'node', 'id': 8514466137, 'lat': 6.1924973, 'lon': 1.1814503, 'tags': {'amenity': 'pharmacy', 'name': 'Pharmacie Bétania', 'phone': '+22822438940'}}"
"{'type': 'node', 'id': 8541607217, 'lat': 6.4767406, 'lon': 2.3376812, 'tags': {'amenity': 'pharmacy', 'name': 'St Gérard de Zondja'}}"
"{'type': 'node', 'id': 8560686696, 'lat': 6.4033512, 'lon': 2.2958266, 'tags': {'amenity': 'pharmacy', 'name': 'Pharmacie st Benoît de Womey', 'phone': '+'}}"
"{'type': 'node', 'id': 8567159674, 'lat': 6.4239112, 'lon': 1.58434, 'tags': {'amenity': 'hospital', 'name': ""USP Médécin d'Afrique""}}"
"{'type': 'node', 'id': 8567159710, 'lat': 6.3684812, 'lon': 1.6065373, 'tags': {'amenity': 'hospital'}}"
"{'type': 'node', 'id': 8567164739, 'lat': 6.3717639, 'lon': 1.5668164, 'tags': {'amenity': 'hospital'}}"
"{'type': 'node', 'id': 8610448643, 'lat': 6.5904405, 'lon': 2.1258867, 'tags': {'amenity': 'hospital', 'name': ""Centre de Santé d'Arrondissement de Azohouè Aliho"", 'operator': 'Public'}}"
"{'type': 'node', 'id': 8640050492, 'lat': 6.2930673, 'lon': 1.7167064, 'tags': {'amenity': 'hospital', 'emergency': 'no', 'healthcare': 'hospital', 'healthcare:speciality': 'general;gynaecology;outpatient', 'name': 'Dispensaire de Sivame'}}"
"{'type': 'node', 'id': 8668466202, 'lat': 6.1863484, 'lon': 1.1756116, 'tags': {'amenity': 'hospital', 'name': 'Polyclinique Melia'}}"
"{'type': 'node', 'id': 8755694733, 'lat': 6.1518801, 'lon': 1.2324318, 'tags': {'amenity': 'pharmacy', 'name': 'Pharmacie Saint Paul'}}"
"{'type': 'node', 'id': 8755700393, 'lat': 6.15514, 'lon': 1.2281967, 'tags': {'healthcare': 'rehabilitation', 'name': 'Entreprises', 'opening_hours': 'Mo-Fr 09:00-18:00'}}"
"{'type': 'node', 'id': 8755700395, 'lat': 6.1566679, 'lon': 1.2295337, 'tags': {'healthcare': 'laboratory', 'name': 'Laboratoire'}}"
"{'type': 'node', 'id': 8755701164, 'lat': 6.1517983, 'lon': 1.2348367, 'tags': {'amenity': 'hospital', 'name': 'Centre médico sociale de la police nationale'}}"
"{'type': 'node', 'id': 8755702202, 'lat': 6.1461803, 'lon': 1.2194924, 'tags': {'amenity': 'hospital', 'name': 'CMS nukafu'}}"
"{'type': 'node', 'id': 8755707943, 'lat': 6.157042, 'lon': 1.2380718, 'tags': {'amenity': 'hospital', 'name': 'Cabinet médical La Gloire de Dieu', 'phone': '+22892883455'}}"
"{'type': 'node', 'id': 8755709687, 'lat': 6.1555963, 'lon': 1.2334824, 'tags': {'amenity': 'hospital', 'name': 'Cabinet médical Espoir'}}"
"{'type': 'node', 'id': 8755713318, 'lat': 6.1598733, 'lon': 1.2339533, 'tags': {'healthcare': 'yes', 'name': 'Vision pour tous'}}"
"{'type': 'node', 'id': 8755713420, 'lat': 6.1615342, 'lon': 1.2368136, 'tags': {'healthcare': 'yes', 'name': 'Cabinet médical salam'}}"
"{'type': 'node', 'id': 8755714632, 'lat': 6.1606822, 'lon': 1.2338052, 'tags': {'amenity': 'pharmacy', 'name': 'Pharmacie de la Providence'}}"
"{'type': 'node', 'id': 8757770015, 'lat': 6.1731468, 'lon': 1.2061088, 'tags': {'healthcare': 'laboratory', 'name': 'Bureau de prolabo diagnostics'}}"
"{'type': 'node', 'id': 8758656289, 'lat': 6.1772954, 'lon': 1.2051749, 'tags': {'amenity': 'pharmacy', 'name': 'Pharmacie Saint Joseph'}}"
"{'type': 'node', 'id': 8762539789, 'lat': 6.1597269, 'lon': 1.2261792, 'tags': {'amenity': 'pharmacy', 'name': 'Pharmacie forever'}}"
"{'type': 'node', 'id': 8767105417, 'lat': 6.3768444, 'lon': 2.3811961, 'tags': {'amenity': 'clinic', 'name': 'DAHIN'}}"
"{'type': 'node', 'id': 8807980842, 'lat': 6.3201665, 'lon': 1.223432, 'tags': {'amenity': 'pharmacy', 'dispensing': 'yes', 'name': 'Pharmacie Amen', 'operator': 'private', 'wheelchair': 'no'}}"
"{'type': 'node', 'id': 8855277028, 'lat': 6.3362084, 'lon': 1.4582098, 'tags': {'amenity': 'hospital', 'name': 'USP'}}"
"{'type': 'node', 'id': 8855277042, 'lat': 6.3663646, 'lon': 1.4918178, 'tags': {'amenity': 'hospital', 'name': 'Centre de Santé de Sagada kope'}}"
"{'type': 'node', 'id': 8855277054, 'lat': 6.347406, 'lon': 1.5242216, 'tags': {'amenity': 'pharmacy'}}"
"{'type': 'node', 'id': 8855277062, 'lat': 6.4022126, 'lon': 1.5173753, 'tags': {'amenity': 'hospital', 'name': 'USP Apawohonou'}}"
"{'type': 'node', 'id': 8855277077, 'lat': 6.4128864, 'lon': 1.5158585, 'tags': {'amenity': 'hospital', 'name': 'Centre de Santé Atahonou'}}"
"{'type': 'node', 'id': 8855363962, 'lat': 6.2177541, 'lon': 1.1889535, 'tags': {'amenity': 'clinic', 'name': ""Clinique de l'Océan"", 'phone': '+22893320909'}}"
"{'type': 'node', 'id': 8861036540, 'lat': 6.2605816, 'lon': 1.1631053, 'tags': {'amenity': 'pharmacy', 'name': 'Pharmacie La Pharmacie Tulipe'}}"
"{'type': 'node', 'id': 8871169824, 'lat': 6.1849635, 'lon': 1.1954713, 'tags': {'amenity': 'hospital', 'healthcare': 'hospital'}}"
"{'type': 'node', 'id': 8872015393, 'lat': 6.4033229, 'lon': 1.1126767, 'tags': {'amenity': 'hospital', 'name': 'Dispensaire'}}"
"{'type': 'node', 'id': 8872015408, 'lat': 6.4091974, 'lon': 1.1628368, 'tags': {'amenity': 'hospital', 'name': 'Dispensaire saint Savin de wli centre'}}"
"{'type': 'node', 'id': 8912040242, 'lat': 6.6709469, 'lon': 1.1618243, 'tags': {'amenity': 'hospital', 'name': ""Centre Médico-social D'Agbélouvé""}}"
"{'type': 'node', 'id': 8930337217, 'lat': 6.4344167, 'lon': 1.8421733, 'tags': {'amenity': 'hospital', 'name': ""Centre de santé d'Oumako"", 'website': 'zs comé @yahoo.fr'}}"
"{'type': 'node', 'id': 9005979120, 'lat': 6.207645, 'lon': 1.1748193, 'tags': {'amenity': 'clinic', 'name': ""Clinique l'Éternel Guérit""}}"
"{'type': 'node', 'id': 9006010056, 'lat': 6.2279131, 'lon': 1.165745, 'tags': {'amenity': 'clinic', 'name': 'Clinique Padre Pio'}}"
"{'type': 'node', 'id': 9015122517, 'lat': 6.2021934, 'lon': 1.1731723, 'tags': {'amenity': 'pharmacy', 'name': 'Pharmacie Volontas Déï'}}"
"{'type': 'node', 'id': 9023202280, 'lat': 6.170083, 'lon': 1.1781675, 'tags': {'amenity': 'hospital', 'name': 'Centre médico social Dadh'}}"
"{'type': 'node', 'id': 9080822271, 'lat': 6.2046265, 'lon': 1.1830116, 'tags': {'amenity': 'clinic', 'name': 'Clinique Bethesda'}}"
"{'type': 'node', 'id': 9085127928, 'lat': 6.3375767, 'lon': 1.1117301, 'tags': {'healthcare': 'yes', 'name': 'Grâce Yin APTM - Togo'}}"
"{'type': 'node', 'id': 9087964640, 'lat': 6.3559807, 'lon': 2.4012285, 'tags': {'healthcare': 'yes', 'name': 'Clinique Patte d’Oie'}}"
"{'type': 'node', 'id': 9095143743, 'lat': 6.1861313, 'lon': 1.1924726, 'tags': {'amenity': 'hospital', 'name': 'CMS Djidjolé'}}"
"{'type': 'node', 'id': 9120580501, 'lat': 6.1816436, 'lon': 1.1719805, 'tags': {'amenity': 'clinic', 'name': 'Saint trinite', 'source': 'bing , survey'}}"
"{'type': 'node', 'id': 9120931046, 'lat': 6.9511308, 'lon': 1.1728521, 'tags': {'amenity': 'clinic', 'healthcare': 'clinic', 'name': 'CHP Notsé'}}"
"{'type': 'node', 'id': 9121256205, 'lat': 6.7761863, 'lon': 1.1787405, 'tags': {'amenity': 'clinic', 'healthcare': 'clinic', 'name': ""CMS d'Amakpapé""}}"
"{'type': 'node', 'id': 9135410393, 'lat': 6.2539478, 'lon': 1.1457163, 'tags': {'amenity': 'clinic', 'name': 'La Grâçe Divine'}}"
"{'type': 'node', 'id': 9135427549, 'lat': 6.2554089, 'lon': 1.1436644, 'tags': {'amenity': 'pharmacy', 'name': 'Dépos de Pharmacopé'}}"
"{'type': 'node', 'id': 9164699518, 'lat': 6.2092382, 'lon': 1.172807, 'tags': {'amenity': 'hospital', 'name': 'CMS ELAVAGNON'}}"
"{'type': 'node', 'id': 9187999451, 'lat': 6.4047317, 'lon': 1.8821483, 'tags': {'amenity': 'pharmacy', 'name': 'Grande Pharmacie de comé'}}"
"{'type': 'node', 'id': 9202832294, 'lat': 6.2393736, 'lon': 1.1886146, 'tags': {'healthcare': 'yes', 'name': 'Soins Infirmiers Des Anges', 'phone': '+22890275366'}}"
"{'type': 'node', 'id': 9275634306, 'lat': 6.2193083, 'lon': 1.1579167, 'tags': {'amenity': 'clinic'}}"
"{'type': 'node', 'id': 9287154979, 'lat': 6.2476092, 'lon': 1.1617103, 'tags': {'amenity': 'pharmacy', 'name': 'Pharmacie Denis'}}"
"{'type': 'node', 'id': 9290874206, 'lat': 6.1841029, 'lon': 1.1681659, 'tags': {'amenity': 'hospital', 'name': ""CMS d'adidogomé""}}"
"{'type': 'node', 'id': 9296521609, 'lat': 6.2437061, 'lon': 1.1965237, 'tags': {'amenity': 'clinic', 'name': ""CMS de l'association AAPV""}}"
"{'type': 'node', 'id': 9346840654, 'lat': 7.1444203, 'lon': 1.5953095, 'tags': {'amenity': 'hospital', 'healthcare': 'hospital', 'name': 'Hôpital de Tado'}}"
"{'type': 'node', 'id': 9355947181, 'lat': 6.2378848, 'lon': 1.5132029, 'tags': {'amenity': 'hospital', 'name': 'USP Badougbé'}}"
"{'type': 'node', 'id': 9360316019, 'lat': 6.2466873, 'lon': 1.556337, 'tags': {'amenity': 'hospital', 'name': 'Usp de Kéta-akoda'}}"
"{'type': 'node', 'id': 9363332906, 'lat': 6.1950789, 'lon': 1.1820596, 'tags': {'amenity': 'clinic', 'name': 'Clinique de Tsotsi', 'phone': '+22822256717'}}"
"{'type': 'node', 'id': 9433135067, 'lat': 6.5837738, 'lon': 1.3385639, 'tags': {'amenity': 'hospital', 'name': 'Dispensaire Esse Zogbédji - Nadje'}}"
"{'type': 'node', 'id': 9461431969, 'lat': 6.3969257, 'lon': 2.1988454, 'tags': {'addr:street': 'Pahou', 'amenity': 'pharmacy', 'description': 'Médecine traditionnelle', 'name': 'Maman PK'}}"
"{'type': 'node', 'id': 9507953624, 'lat': 6.2099719, 'lon': 1.1746304, 'tags': {'amenity': 'clinic', 'name': 'Mama Clinique', 'phone': '+22890109242'}}"
"{'type': 'node', 'id': 9563711359, 'lat': 7.1988591, 'lon': 1.9962203, 'tags': {'amenity': 'clinic', 'name': 'Clinic Sedami'}}"
"{'type': 'node', 'id': 9566046614, 'lat': 7.1807885, 'lon': 2.0248536, 'tags': {'amenity': 'pharmacy', 'name': 'Pharmacie St Luc de Djimè'}}"
"{'type': 'node', 'id': 9577636434, 'lat': 7.1999655, 'lon': 1.9832048, 'tags': {'description': ""le centre dispose d'une ambulance"", 'healthcare': 'yes', 'name': 'Centre de santé humanitaire à Ouma Zongo', 'phone': '97632003'}}"
