OSM_Data
"{'type': 'node', 'id': 1526228667, 'lat': -28.2731586, 'lon': -52.4127159, 'tags': {'addr:housenumber': '303', 'alt_name': 'CAIS Gervásió', 'amenity': 'hospital', 'name': 'CAIS-Centro de Atendimento Integrado à Saúde Luiza'}}"
"{'type': 'node', 'id': 1780338973, 'lat': -28.2269117, 'lon': -52.4374168, 'tags': {'amenity': 'clinic', 'healthcare': 'clinic', 'name': 'Cais Záchia'}}"
"{'type': 'node', 'id': 2492244593, 'lat': -27.9409581, 'lon': -52.9221653, 'tags': {'amenity': 'pharmacy', 'name': 'Farmácia São João'}}"
"{'type': 'node', 'id': 2492273793, 'lat': -27.945011, 'lon': -52.9180233, 'tags': {'amenity': 'hospital'}}"
"{'type': 'node', 'id': 2626319631, 'lat': -27.2316493, 'lon': -52.0309011, 'tags': {'addr:city': 'Concórdia', 'addr:housename': 'Farmácia Concórdia', 'addr:housenumber': '80', 'addr:postcode': '89700-000', 'addr:street': 'Rua Doutor Maruri', 'amenity': 'pharmacy', 'healthcare': 'pharmacy', 'name': 'Farmacia Concórdia'}}"
"{'type': 'node', 'id': 2638512431, 'lat': -27.0755397, 'lon': -52.1363504, 'tags': {'amenity': 'hospital', 'healthcare': 'hospital', 'name': 'Hospital São Camilo'}}"
"{'type': 'node', 'id': 3018005708, 'lat': -27.6477229, 'lon': -52.2673771, 'tags': {'amenity': 'pharmacy', 'healthcare': 'pharmacy', 'name': 'Farmácia Altos da Sete'}}"
"{'type': 'node', 'id': 3389517714, 'lat': -27.131586, 'lon': -52.6021976, 'tags': {'addr:housenumber': '3175', 'addr:street': 'Avenida Nereu Ramos - D', 'addr:suburb': 'Seminário', 'amenity': 'pharmacy', 'brand': 'Lider Farma', 'dispensing': 'yes', 'healthcare': 'pharmacy', 'name': 'Farmácia Bem Viver', 'operator': 'Andreza Pasquali de Souza', 'phone': '+55-49-3322-0327', 'source': 'http://liderfarma.far.br/c.php?int=noticia&codigo_not=498'}}"
"{'type': 'node', 'id': 3570390493, 'lat': -27.3921809, 'lon': -52.5662949, 'tags': {'amenity': 'hospital', 'healthcare': 'hospital'}}"
"{'type': 'node', 'id': 3651757465, 'lat': -27.7037117, 'lon': -52.4230098, 'tags': {'addr:city': 'Paulo Bento', 'amenity': 'hospital', 'emergency': 'no', 'source': 'Bing;IBGE'}}"
"{'type': 'node', 'id': 3668997126, 'lat': -27.7282647, 'lon': -52.5374631, 'tags': {'addr:city': 'Jacutinga', 'amenity': 'clinic', 'name': 'Posto de Saúde', 'source': 'Bing;IBGE'}}"
"{'type': 'node', 'id': 3670716812, 'lat': -27.6589902, 'lon': -52.4898284, 'tags': {'addr:city': 'Ponte Preta', 'amenity': 'clinic', 'name': 'Posto de Saúde', 'source': 'Bing;IBGE'}}"
"{'type': 'node', 'id': 3881850135, 'lat': -27.083603, 'lon': -52.6123588, 'tags': {'addr:city': 'Chapecó', 'addr:street': 'Rua Borges de Medeiros - E', 'addr:suburb': 'Passo dos Fortes', 'amenity': 'pharmacy', 'healthcare': 'pharmacy', 'name': 'Farmácias São Rafael'}}"
"{'type': 'node', 'id': 3891135092, 'lat': -27.0957346, 'lon': -52.6740552, 'tags': {'addr:street': 'Avenida Atílio Fontana', 'amenity': 'pharmacy', 'healthcare': 'pharmacy', 'name': 'Farmácia São Rafael'}}"
"{'type': 'node', 'id': 3905343294, 'lat': -28.2833353, 'lon': -52.795632, 'tags': {'addr:housenumber': '831', 'addr:postcode': '99500-000', 'addr:street': 'Avenida Pátria', 'addr:suburb': 'Centro', 'amenity': 'clinic', 'email': 'prontocarazinho@annex.com.br', 'healthcare': 'clinic', 'name': 'Prontoclinica Carazinho', 'ref:CNES': '7292945', 'ref:vatin': 'BR03044492000296'}}"
"{'type': 'node', 'id': 3905343295, 'lat': -28.2849937, 'lon': -52.7946848, 'tags': {'amenity': 'clinic', 'healthcare': 'clinic', 'healthcare:speciality': 'orthopaedics', 'name': 'Clinica Ortopédica', 'opening_hours': '08:00-17:00'}}"
"{'type': 'node', 'id': 3995666591, 'lat': -27.0860959, 'lon': -52.6115913, 'tags': {'addr:city': 'Chapecó', 'addr:street': 'Rua Borges de Medeiros - E', 'addr:suburb': 'Passo dos Fortes', 'amenity': 'pharmacy', 'brand': 'Farmácia São João', 'brand:wikidata': 'Q65164556', 'healthcare': 'pharmacy', 'name': 'Farmácia São João'}}"
"{'type': 'node', 'id': 4233849719, 'lat': -27.7164057, 'lon': -51.9154559, 'tags': {'amenity': 'clinic', 'name': 'Posto de Saúde de Carlos Gomes', 'operator': 'Prefeitura Municipal de Carlos Gomes', 'operator:type': 'public'}}"
"{'type': 'node', 'id': 4255495504, 'lat': -27.462627, 'lon': -51.9063036, 'tags': {'amenity': 'pharmacy', 'healthcare': 'pharmacy'}}"
"{'type': 'node', 'id': 4255551095, 'lat': -27.4639956, 'lon': -51.9056605, 'tags': {'addr:city': 'Marcelino Ramos', 'addr:housenumber': '258', 'addr:postcode': '99800-000', 'addr:street': 'Rua Doutor João da Silveira', 'addr:suburb': 'Centro', 'amenity': 'hospital', 'healthcare': 'hospital', 'name': 'Associacao Hospitalar Marcelinense', 'ref:CNES': '2249618', 'ref:vatin': 'BR20088681000107'}}"
"{'type': 'node', 'id': 4286192692, 'lat': -27.7843418, 'lon': -52.8042793, 'tags': {'amenity': 'hospital', 'name': 'Atra'}}"
"{'type': 'node', 'id': 4376443498, 'lat': -28.3095772, 'lon': -52.790849, 'tags': {'amenity': 'pharmacy', 'name': 'Farmácia Glória'}}"
"{'type': 'node', 'id': 4376443499, 'lat': -28.3062901, 'lon': -52.7931772, 'tags': {'amenity': 'pharmacy', 'name': 'Farmácia Saudefar'}}"
"{'type': 'node', 'id': 4437760269, 'lat': -27.095219, 'lon': -52.6755219, 'tags': {'addr:street': 'Avenida Atílio Fontana', 'amenity': 'pharmacy', 'healthcare': 'pharmacy', 'name': 'Farmácia Desbrava', 'phone': '+55-49-3328-7654'}}"
"{'type': 'node', 'id': 4437760270, 'lat': -27.0952948, 'lon': -52.674667, 'tags': {'addr:housenumber': '2730', 'addr:street': 'Avenida Atílio Fontana', 'amenity': 'pharmacy', 'healthcare': 'pharmacy', 'name': 'Farmácia Preço Popular', 'phone': '+55-49-3329-4934', 'website': 'https://www.precopopular.com.br/'}}"
"{'type': 'node', 'id': 4648791476, 'lat': -27.3669347, 'lon': -52.7724019, 'tags': {'amenity': 'hospital'}}"
"{'type': 'node', 'id': 4648949424, 'lat': -27.3547073, 'lon': -52.7744121, 'tags': {'addr:housenumber': '395', 'addr:postcode': '99600-000', 'addr:street': 'Rua Padre Manoel Gomes Gonzales', 'addr:suburb': 'Operario', 'amenity': 'hospital', 'fax': '+55 54 362 1077', 'healthcare': 'hospital', 'name': 'Hospital Comunitário Nonoai', 'phone': '+55 54 362 1212', 'ref:CNES': '2228688', 'ref:vatin': 'BR90894221000143'}}"
"{'type': 'node', 'id': 4674053299, 'lat': -27.4183568, 'lon': -51.7721293, 'tags': {'access': 'yes', 'addr:street': 'Avenida 18 de Fevereiro', 'alt_name': 'Posto de Saúde', 'amenity': 'clinic', 'brand': 'SUS', 'emergency': 'no', 'healthcare': 'clinic', 'name': 'Unidade Básica de Saúde'}}"
"{'type': 'node', 'id': 4724120624, 'lat': -27.1098412, 'lon': -52.6157992, 'tags': {'amenity': 'clinic', 'healthcare': 'clinic', 'name': 'Clínica Comunicação'}}"
"{'type': 'node', 'id': 4751345262, 'lat': -27.0991621, 'lon': -52.6059748, 'tags': {'amenity': 'clinic', 'healthcare': 'clinic', 'name': 'Clínica Supera - Oncologia e Mastologia'}}"
"{'type': 'node', 'id': 4784514121, 'lat': -27.0991543, 'lon': -52.6090527, 'tags': {'addr:city': 'Chapecó', 'addr:housenumber': '652', 'addr:street': 'Rua Marechal Deodoro da Fonseca - D', 'addr:suburb': 'Maria Goretti', 'amenity': 'pharmacy', 'healthcare': 'pharmacy', 'name': 'Farmácias São Rafael', 'opening_hours': 'Mo-Sa 07:30-21:00; Su 09:00-12:00, 17:00-21:00', 'phone': '+55 49 3329 3522', 'website': 'https://www.farmasaorafael.com.br/'}}"
"{'type': 'node', 'id': 4823051179, 'lat': -27.6704151, 'lon': -52.6496984, 'tags': {'amenity': 'hospital', 'healthcare': 'hospital', 'name': 'Posto de Saúde'}}"
"{'type': 'node', 'id': 4826167970, 'lat': -28.269783, 'lon': -51.6880342, 'tags': {'amenity': 'clinic', 'source': 'IBGE'}}"
"{'type': 'node', 'id': 4826286448, 'lat': -27.6799754, 'lon': -52.8397802, 'tags': {'amenity': 'clinic', 'healthcare': 'clinic', 'source': 'IBGE'}}"
"{'type': 'node', 'id': 4826292431, 'lat': -27.7829317, 'lon': -52.8018002, 'tags': {'addr:city': 'Ronda Alta', 'addr:housenumber': '38', 'addr:postcode': '99670-000', 'addr:street': 'Travessa São Jorge', 'addr:suburb': 'Centro', 'amenity': 'hospital', 'healthcare': 'hospital', 'name': 'Associação Hospitalar de Ronda Alta', 'phone': '+55 54 364 1077', 'ref:CNES': '2235420', 'ref:vatin': 'BR97319487000101', 'source': 'IEDE/RS'}}"
"{'type': 'node', 'id': 4974344827, 'lat': -27.0678403, 'lon': -52.8625993, 'tags': {'addr:street': 'Rua Nove de Julho', 'amenity': 'clinic', 'healthcare': 'clinic', 'name': 'Unidade Básica de Saúde de Planalto Alegre', 'short_name': 'UBS Planalto Alegre'}}"
"{'type': 'node', 'id': 5127667010, 'lat': -28.3087939, 'lon': -52.8011975, 'tags': {'amenity': 'clinic', 'name': 'Posto de Saúde Conceição'}}"
"{'type': 'node', 'id': 5127667012, 'lat': -28.2975562, 'lon': -52.8054752, 'tags': {'amenity': 'clinic', 'name': 'Posto de Saúde Sassi'}}"
"{'type': 'node', 'id': 5215152621, 'lat': -28.2680294, 'lon': -52.3924957, 'tags': {'amenity': 'pharmacy', 'name': 'Panvel', 'opening_hours': 'Mo-Su 08:00-21:00'}}"
"{'type': 'node', 'id': 5300199023, 'lat': -27.6413369, 'lon': -52.2705529, 'tags': {'amenity': 'pharmacy', 'dispensing': 'yes', 'healthcare': 'pharmacy', 'name': 'São José'}}"
"{'type': 'node', 'id': 5484471436, 'lat': -27.1016815, 'lon': -52.6131687, 'tags': {'addr:city': 'Chapecó', 'addr:country': 'BR', 'addr:housenumber': '307', 'addr:postcode': '89801-020', 'addr:state': 'SC', 'addr:street': 'Avenida Nereu Ramos - E', 'addr:suburb': 'Centro', 'healthcare': 'pharmacy', 'name': 'Farmácia Camargo', 'phone': '+55 49 3322-4920'}}"
"{'type': 'node', 'id': 5484536674, 'lat': -27.1034948, 'lon': -52.6194693, 'tags': {'amenity': 'doctors', 'healthcare': 'doctor', 'healthcare:speciality': 'general;gynaecology', 'name': 'Clínica Médica Giacomazzi', 'website': 'http://clinicagiacomazzi.com.br/'}}"
"{'type': 'node', 'id': 5484536677, 'lat': -27.1035085, 'lon': -52.6195786, 'tags': {'healthcare': 'laboratory', 'name': 'Laboratório Merisio', 'website': 'https://laboratoriomerisio.com.br/'}}"
"{'type': 'node', 'id': 5484942296, 'lat': -27.1066669, 'lon': -52.6118852, 'tags': {'amenity': 'doctors', 'healthcare': 'doctor', 'name': 'Chape Clínica Integrada'}}"
"{'type': 'node', 'id': 5499982207, 'lat': -27.1064413, 'lon': -52.6081368, 'tags': {'addr:city': 'Chapecó', 'addr:housenumber': '549', 'addr:street': 'Rua Uruguai - E', 'addr:suburb': 'Centro', 'amenity': 'pharmacy', 'healthcare': 'pharmacy', 'name': 'Farmácia Brasil Poupa Lar'}}"
"{'type': 'node', 'id': 5509286549, 'lat': -27.1106529, 'lon': -52.6123372, 'tags': {'amenity': 'doctors', 'contact:phone': '+55 49 3323-0910', 'contact:website': 'http://www.clinicabonfante.com.br/', 'description': 'Dr. Delso Bonfante Dr. Fernando Bonfante Dr. Alexandre Takahashi Dr. Juliano de Souza', 'healthcare': 'doctor', 'healthcare:speciality': 'ophthalmology;neurology;dermatology', 'image': 'http://www.clinicabonfante.com.br/img/logo.png', 'name': 'Clínica de Olhos Delso Bonfante', 'opening_hours': 'Mo-Fr 07:30-12:00,13:00-18:00', 'wheelchair': 'yes'}}"
"{'type': 'node', 'id': 5570082153, 'lat': -27.0945003, 'lon': -52.6813035, 'tags': {'addr:housenumber': '3340', 'addr:street': 'Avenida Atílio Fontana', 'amenity': 'pharmacy', 'healthcare': 'pharmacy', 'name': 'Farmácia Efapi', 'operator': 'Farmácia e Drogaria Efapi Ltda ME', 'phone': '+55-49-3329-5214'}}"
"{'type': 'node', 'id': 5712536929, 'lat': -28.0617392, 'lon': -52.0148134, 'tags': {'amenity': 'clinic', 'source': 'IBGE'}}"
"{'type': 'node', 'id': 5712536930, 'lat': -28.0625688, 'lon': -51.9992016, 'tags': {'addr:city': 'Tapejara', 'addr:postcode': '99950-000', 'amenity': 'clinic', 'healthcare': 'clinic', 'name': 'Posto de Saúde - Bairro São Paulo', 'source': 'IBGE'}}"
"{'type': 'node', 'id': 5744405094, 'lat': -27.5358648, 'lon': -52.7283884, 'tags': {'amenity': 'clinic', 'healthcare': 'clinic'}}"
"{'type': 'node', 'id': 5819113025, 'lat': -27.1078199, 'lon': -52.6144297, 'tags': {'addr:door': 'sala 02', 'amenity': 'dentist', 'contact:email': 'andreia_pelisser@yahoo.com.br', 'contact:facebook': 'https://www.facebook.com/DraAndreiaPelisser/', 'contact:phone': '+55 49 3322-9684', 'contact:whatsapp': '+55 49 98438-8442', 'healthcare': 'dentist', 'name': 'Andréia Pelisser', 'opening_hours': 'Mo-Fr 08:00-12:00,13:30-18:30; Sa 09:00-12:00; Su,PH off', 'wheelchair': 'yes'}}"
"{'type': 'node', 'id': 5824387351, 'lat': -27.1077127, 'lon': -52.6138566, 'tags': {'addr:city': 'Chapecó', 'addr:country': 'BR', 'addr:housenumber': '324', 'addr:postcode': '89802-001', 'addr:street': 'Avenida Getúlio Vargas - S', 'addr:suburb': 'Bairro Líder', 'amenity': 'pharmacy', 'brand': 'Droga Raia', 'brand:wikidata': 'Q10357101', 'brand:wikipedia': 'pt:RaiaDrogasil', 'dispensing': 'yes', 'healthcare': 'pharmacy', 'name': 'Droga Raia', 'opening_hours': 'Mo-Fr 07:00-23:00, Sa 07:00-23:00; Su 08:00-22:00', 'phone': '+55 49 3329-2274', 'website': 'https://www.drogaraia.com.br/'}}"
"{'type': 'node', 'id': 5838930794, 'lat': -28.2637386, 'lon': -52.3971518, 'tags': {'amenity': 'pharmacy', 'dispensing': 'yes', 'healthcare': 'pharmacy', 'name': 'Farmácia'}}"
"{'type': 'node', 'id': 5857198561, 'lat': -27.5220087, 'lon': -52.8871599, 'tags': {'addr:city': 'Trindade do Sul', 'addr:housenumber': '82', 'addr:postcode': '99615-000', 'addr:street': 'Rua Cabiuna', 'addr:suburb': 'Centro', 'amenity': 'hospital', 'healthcare': 'hospital', 'name': 'Aspiazu Filhas Cia Ltda', 'ref:CNES': '2235366', 'ref:vatin': 'BR97441307000160'}}"
"{'type': 'node', 'id': 5859527781, 'lat': -27.8260737, 'lon': -52.9078827, 'tags': {'amenity': 'clinic', 'healthcare': 'clinic'}}"
"{'type': 'node', 'id': 5859589892, 'lat': -27.5733911, 'lon': -52.8800197, 'tags': {'amenity': 'clinic', 'healthcare': 'clinic'}}"
"{'type': 'node', 'id': 5947225558, 'lat': -27.5595595, 'lon': -52.5247175, 'tags': {'amenity': 'clinic', 'source': 'IBGE'}}"
"{'type': 'node', 'id': 6006237712, 'lat': -27.4333703, 'lon': -52.1135482, 'tags': {'amenity': 'clinic', 'source': 'IBGE'}}"
"{'type': 'node', 'id': 6156566649, 'lat': -27.3859864, 'lon': -52.4554333, 'tags': {'amenity': 'clinic', 'source': 'IBGE'}}"
"{'type': 'node', 'id': 6296250206, 'lat': -27.0904862, 'lon': -52.6119161, 'tags': {'amenity': 'dentist', 'healthcare': 'dentist'}}"
"{'type': 'node', 'id': 6296250207, 'lat': -27.0904564, 'lon': -52.6117927, 'tags': {'amenity': 'dentist', 'healthcare': 'dentist', 'name': 'Consultório Odontológico Camargo'}}"
"{'type': 'node', 'id': 6296250217, 'lat': -27.0904134, 'lon': -52.6115151, 'tags': {'amenity': 'pharmacy', 'brand': 'Farmácia Popular', 'healthcare': 'pharmacy', 'name': 'Farmácia Popular'}}"
"{'type': 'node', 'id': 6297909307, 'lat': -27.1000645, 'lon': -52.6153421, 'tags': {'addr:housenumber': '534', 'addr:street': 'Avenida Getúlio Vargas - N', 'amenity': 'pharmacy', 'brand': 'Farmácia Popular', 'healthcare': 'pharmacy', 'name': 'Farmácia Popular'}}"
"{'type': 'node', 'id': 6297911489, 'lat': -27.1015798, 'lon': -52.6154219, 'tags': {'amenity': 'pharmacy', 'brand': 'Farmácia São João', 'brand:wikidata': 'Q65164556', 'healthcare': 'pharmacy', 'name': 'Farmácia São João'}}"
"{'type': 'node', 'id': 6297911761, 'lat': -27.1042852, 'lon': -52.6114734, 'tags': {'addr:housenumber': '280', 'addr:street': 'Rua Marechal Floriano Peixoto - L', 'amenity': 'pharmacy', 'healthcare': 'pharmacy', 'name': 'SPfarma'}}"
"{'type': 'node', 'id': 6299063093, 'lat': -27.103403, 'lon': -52.614436, 'tags': {'addr:housenumber': '150', 'addr:street': 'Avenida Getúlio Vargas - N', 'amenity': 'pharmacy', 'healthcare': 'pharmacy', 'name': 'Farmácia Sesi'}}"
"{'type': 'node', 'id': 6299063095, 'lat': -27.1032669, 'lon': -52.6144561, 'tags': {'amenity': 'pharmacy', 'brand': 'Farmácia São João', 'brand:wikidata': 'Q65164556', 'healthcare': 'pharmacy', 'name': 'Farmácia São João'}}"
"{'type': 'node', 'id': 6299077630, 'lat': -27.1032813, 'lon': -52.608338, 'tags': {'addr:housenumber': '605', 'addr:street': 'Rua Marechal Floriano Peixoto - L', 'amenity': 'dentist', 'healthcare': 'dentist', 'name': 'Doutora Elissa Santin Costella', 'short_name': 'Dra. Elissa Santin Costella'}}"
"{'type': 'node', 'id': 6299077631, 'lat': -27.1044023, 'lon': -52.6120931, 'tags': {'amenity': 'dentist', 'healthcare': 'dentist', 'name': 'Odonto Agostini'}}"
"{'type': 'node', 'id': 6371315275, 'lat': -26.9616894, 'lon': -52.5326527, 'tags': {'amenity': 'pharmacy', 'dispensing': 'yes', 'healthcare': 'pharmacy'}}"
"{'type': 'node', 'id': 6371315278, 'lat': -26.9624257, 'lon': -52.5332642, 'tags': {'healthcare': 'laboratory'}}"
"{'type': 'node', 'id': 6448516068, 'lat': -27.619047, 'lon': -52.3799211, 'tags': {'amenity': 'hospital', 'healthcare': 'hospital', 'source': 'IBGE'}}"
"{'type': 'node', 'id': 6450852267, 'lat': -27.4150787, 'lon': -51.7746028, 'tags': {'amenity': 'hospital', 'healthcare': 'hospital', 'name': 'Hospital Sociedade Beneficente Piratuba-Ipira'}}"
"{'type': 'node', 'id': 6468695682, 'lat': -27.7725526, 'lon': -51.6018113, 'tags': {'addr:city': 'São José do Ouro', 'addr:housenumber': '801', 'addr:postcode': '99870-000', 'addr:street': 'Avenida Marechal Floriano', 'addr:suburb': 'Centro', 'amenity': 'hospital', 'email': 'araucaria@araucaria.org.br', 'healthcare': 'hospital', 'name': 'Hospital São José', 'phone': '+55 54 3352 4750', 'ref:CNES': '2246791', 'ref:vatin': 'BR96704333000413'}}"
"{'type': 'node', 'id': 6551022847, 'lat': -27.1075395, 'lon': -52.6116028, 'tags': {'addr:housenumber': '362', 'addr:street': 'Avenida Nereu Ramos - D', 'amenity': 'dentist', 'healthcare': 'dentist', 'name': 'Parisotto Odontologia Avançada'}}"
"{'type': 'node', 'id': 6551022848, 'lat': -27.1075163, 'lon': -52.6112499, 'tags': {'addr:city': 'Chapecó', 'addr:housenumber': '365', 'addr:street': 'Avenida Nereu Ramos - D', 'addr:suburb': 'Centro', 'healthcare': 'rehabilitation', 'healthcare:speciality': 'orthopaedics', 'name': 'Clínica Reichmann'}}"
"{'type': 'node', 'id': 6551048969, 'lat': -27.1056135, 'lon': -52.6106536, 'tags': {'addr:city': 'Chapecó', 'addr:housenumber': '200', 'addr:street': 'Rua Rui Barbosa - D', 'addr:suburb': 'Centro', 'healthcare': 'rehabilitation', 'name': 'Centro de Coluna'}}"
"{'type': 'node', 'id': 6659169332, 'lat': -28.2354401, 'lon': -52.3686806, 'tags': {'addr:housenumber': '548', 'addr:street': 'Avenida Padre Antônio Vieira', 'amenity': 'pharmacy', 'name': 'Farmácias Cesarfarma'}}"
"{'type': 'node', 'id': 6769516676, 'lat': -28.261387, 'lon': -52.416428, 'tags': {'addr:city': 'Passo Fundo', 'addr:housenumber': '1898', 'addr:postcode': '99025-120', 'addr:street': 'Rua Lava Pés', 'addr:suburb': 'Centro', 'amenity': 'hospital', 'emergency': 'yes', 'healthcare': 'hospital', 'healthcare:speciality': 'general', 'name': 'Unimed Planalto Médio Cooperativa de Serviços Médicos Ltda', 'operator': 'Unimed', 'operator:wikidata': 'Q7865295', 'ref:CNES': '5039029', 'ref:vatin': 'BR87607149000626'}}"
"{'type': 'node', 'id': 6819560496, 'lat': -27.1036155, 'lon': -52.6184516, 'tags': {'addr:housenumber': '370', 'addr:street': 'Rua Barão do Rio Branco - E', 'amenity': 'doctors', 'description': 'Clínica dermatológica', 'healthcare': 'doctor', 'healthcare:speciality': 'dermatology', 'name': 'Clínica de Dermatologia Paula Hund', 'operator': 'Paula Hund', 'operator:type': 'private', 'phone': '+55 49 3329-9087'}}"
"{'type': 'node', 'id': 6872304846, 'lat': -27.0958627, 'lon': -52.5957587, 'tags': {'addr:housenumber': '2031', 'addr:street': 'Rua Marechal Deodoro da Fonseca - D', 'amenity': 'pharmacy', 'brand': 'Farmácia Popular', 'healthcare': 'pharmacy', 'name': 'Farmácia Popular'}}"
"{'type': 'node', 'id': 6872893953, 'lat': -27.1089232, 'lon': -52.6176563, 'tags': {'addr:street': 'Rua Uruguai', 'amenity': 'clinic', 'healthcare': 'clinic', 'name': 'Clínica Seben'}}"
"{'type': 'node', 'id': 6872902273, 'lat': -27.1087373, 'lon': -52.6170054, 'tags': {'addr:street': 'Avenida Porto Alegre - E', 'amenity': 'clinic', 'healthcare': 'laboratory', 'name': 'Bio Imagem'}}"
"{'type': 'node', 'id': 6916851265, 'lat': -27.7705329, 'lon': -51.6628325, 'tags': {'amenity': 'hospital', 'healthcare': 'hospital'}}"
"{'type': 'node', 'id': 7019715520, 'lat': -27.096752, 'lon': -52.6581775, 'tags': {'addr:street': 'Avenida Atílio Fontana', 'amenity': 'clinic', 'emergency': 'no', 'healthcare': 'clinic', 'healthcare:speciality': 'geriatrics', 'name': 'Centro de Saúde Cidade do Idoso', 'operator': 'Prefeitura Municipal de Chapecó', 'operator:type': 'government', 'phone': '+55-49-2049-9072', 'short_name': 'Cidade do Idoso'}}"
"{'type': 'node', 'id': 7023378108, 'lat': -27.0997009, 'lon': -52.6176359, 'tags': {'addr:housenumber': '614', 'addr:street': 'Avenida Fernando Machado - D', 'amenity': 'pharmacy', 'brand': 'Farmácia Popular', 'healthcare': 'pharmacy', 'name': 'Farmácia Popular'}}"
"{'type': 'node', 'id': 7024035613, 'lat': -27.1023518, 'lon': -52.6172657, 'tags': {'amenity': 'pharmacy', 'healthcare': 'pharmacy', 'name': 'Farma e Farma Popular'}}"
"{'type': 'node', 'id': 7028731827, 'lat': -27.0929336, 'lon': -52.6123734, 'tags': {'addr:city': 'Chapecó', 'addr:housenumber': '960', 'addr:postcode': '89801-200', 'addr:street': 'Rua Minas Gerais', 'addr:suburb': 'Presidente Médici', 'brand': 'Theràpie Spa Urbano', 'description': 'Theràpie Spa Urbano Novo conceito em terapias integrativas e nutrição funcional. Priscila Fontana Fisioterapeuta Naieli Perin Nutricionista Claci Dal Bosco Fontana Terapeuta', 'email': 'contato@therapiespa.com.br', 'healthcare': 'alternative', 'name': 'Theràpie Spa Urbano', 'operator': 'Daniel Uez Martins', 'phone': '+55 49 98423-9225', 'website': 'https://www.therapiespa.com.br/', 'wheelchair': 'yes'}}"
"{'type': 'node', 'id': 7102243276, 'lat': -27.7053861, 'lon': -51.7639454, 'tags': {'addr:city': 'Paim Filho', 'addr:housenumber': '39', 'addr:postcode': '99850-000', 'addr:street': 'Rua Doutor Milton Michelin', 'addr:suburb': 'Centro', 'amenity': 'hospital', 'healthcare': 'hospital', 'name': 'Hospital Santa Terezinha', 'ref:CNES': '2247046', 'ref:vatin': 'BR91272732000196'}}"
"{'type': 'node', 'id': 7122273443, 'lat': -27.1043655, 'lon': -52.6732152, 'tags': {'addr:housenumber': '965', 'addr:street': 'Rua Cunha Porã - E', 'amenity': 'pharmacy', 'healthcare': 'pharmacy', 'name': 'Farmácia Popular', 'phone': '+55 49 3329-6430'}}"
"{'type': 'node', 'id': 7516026883, 'lat': -27.9498417, 'lon': -51.8097412, 'tags': {'addr:housenumber': '484', 'addr:street': 'Avenida Salzano da Cunha', 'healthcare': 'psychotherapist', 'healthcare:speciality': 'general', 'name': 'Clínica de Psicologia Juliana Miotto', 'operator': 'Juliana Miotto'}}"
"{'type': 'node', 'id': 7844734690, 'lat': -27.1033283, 'lon': -52.6170809, 'tags': {'addr:city': 'Chapecó', 'addr:housenumber': '386', 'addr:street': 'Rua Barão do Rio Branco - E', 'healthcare': 'laboratory', 'name': 'Laboratório Bergmann'}}"
"{'type': 'node', 'id': 7847772076, 'lat': -27.1010498, 'lon': -52.6187954, 'tags': {'addr:street': 'Rua Marechal Deodoro da Fonseca - E', 'amenity': 'pharmacy', 'dispensing': 'yes', 'healthcare': 'pharmacy', 'name': 'Farmácia São Rafael'}}"
"{'type': 'node', 'id': 7975011016, 'lat': -27.0918588, 'lon': -52.6176508, 'tags': {'amenity': 'pharmacy', 'dispensing': 'yes', 'healthcare': 'pharmacy', 'name': 'Farmácia São Vicente'}}"
"{'type': 'node', 'id': 7975011024, 'lat': -27.0908418, 'lon': -52.616917, 'tags': {'amenity': 'doctors', 'healthcare': 'doctor', 'healthcare:speciality': 'otolaryngology', 'name': 'Clínica Inspiratto'}}"
"{'type': 'node', 'id': 8387469337, 'lat': -27.1071033, 'lon': -52.6132032, 'tags': {'addr:housenumber': '283, Sala 3 e 4', 'addr:street': 'Avenida Getúlio Vargas - S', 'amenity': 'doctors', 'healthcare': 'doctor', 'name': 'Clínica Catarinense de Dermatologia'}}"
"{'type': 'node', 'id': 8508495551, 'lat': -27.1792939, 'lon': -51.9194045, 'tags': {'amenity': 'clinic', 'healthcare': 'clinic'}}"
"{'type': 'node', 'id': 8626378788, 'lat': -27.1578084, 'lon': -52.1459773, 'tags': {'amenity': 'clinic'}}"
"{'type': 'node', 'id': 8626378789, 'lat': -27.0704347, 'lon': -52.3421383, 'tags': {'amenity': 'hospital', 'name': 'Hospital São Lucas'}}"
"{'type': 'node', 'id': 8626378790, 'lat': -27.050267, 'lon': -52.2750798, 'tags': {'amenity': 'clinic'}}"
"{'type': 'node', 'id': 8626378791, 'lat': -27.0093074, 'lon': -52.253988, 'tags': {'amenity': 'clinic'}}"
"{'type': 'node', 'id': 8626378793, 'lat': -27.0268061, 'lon': -51.9012644, 'tags': {'amenity': 'clinic'}}"
"{'type': 'node', 'id': 8626378800, 'lat': -27.2565421, 'lon': -52.5000278, 'tags': {'amenity': 'clinic'}}"
"{'type': 'node', 'id': 8626378805, 'lat': -27.0512558, 'lon': -52.0870403, 'tags': {'amenity': 'hospital', 'healthcare': 'hospital', 'name': 'Hospital Doutora Izolde Dalmora'}}"
"{'type': 'node', 'id': 8626378808, 'lat': -27.0525365, 'lon': -52.0827233, 'tags': {'access': 'yes', 'addr:housenumber': '97', 'addr:postcode': '89735-000', 'addr:street': 'Rua Almirante Tamandaré', 'amenity': 'clinic', 'healthcare': 'clinic', 'healthcare:speciality': 'general', 'loc_name': 'Posto de Saúde', 'name': 'Unidade Básica de Saúde Lindóia do Sul', 'opening_hours': 'Mo-Fr 08:00-17:00; PH off', 'operator': 'Prefeitura Municipal de Lindóia do Sul', 'operator:type': 'government', 'ref:CNES': '2702320', 'short_name': 'UBS Lindóia do Sul'}}"
"{'type': 'node', 'id': 8626379602, 'lat': -27.3693832, 'lon': -51.9502887, 'tags': {'amenity': 'clinic'}}"
"{'type': 'node', 'id': 8626379609, 'lat': -27.4143244, 'lon': -51.770724, 'tags': {'amenity': 'clinic'}}"
"{'type': 'node', 'id': 8626379612, 'lat': -27.4603828, 'lon': -51.8809981, 'tags': {'amenity': 'clinic'}}"
"{'type': 'node', 'id': 8626379613, 'lat': -27.3690787, 'lon': -51.9504113, 'tags': {'amenity': 'clinic'}}"
"{'type': 'node', 'id': 8626379614, 'lat': -27.4323238, 'lon': -51.906678, 'tags': {'amenity': 'clinic'}}"
"{'type': 'node', 'id': 8626379615, 'lat': -27.4049018, 'lon': -51.7757013, 'tags': {'amenity': 'clinic'}}"
"{'type': 'node', 'id': 8626379616, 'lat': -27.3731261, 'lon': -51.9063385, 'tags': {'amenity': 'clinic'}}"
"{'type': 'node', 'id': 8626387717, 'lat': -27.1714413, 'lon': -51.7476757, 'tags': {'amenity': 'clinic'}}"
"{'type': 'node', 'id': 8626387718, 'lat': -27.0568395, 'lon': -51.6557675, 'tags': {'amenity': 'clinic'}}"
"{'type': 'node', 'id': 8626387726, 'lat': -27.1607202, 'lon': -51.6554754, 'tags': {'amenity': 'clinic'}}"
"{'type': 'node', 'id': 8626387729, 'lat': -27.0063394, 'lon': -51.804047, 'tags': {'amenity': 'clinic'}}"
"{'type': 'node', 'id': 8626387730, 'lat': -27.004095, 'lon': -51.7419351, 'tags': {'amenity': 'clinic'}}"
"{'type': 'node', 'id': 8626387732, 'lat': -27.1657396, 'lon': -51.8080892, 'tags': {'amenity': 'clinic'}}"
"{'type': 'node', 'id': 8626387746, 'lat': -27.1108961, 'lon': -51.6019593, 'tags': {'amenity': 'clinic'}}"
"{'type': 'node', 'id': 8626387747, 'lat': -27.2218644, 'lon': -51.8078912, 'tags': {'access': 'yes', 'amenity': 'clinic', 'brand': 'Sistema Único de Saúde', 'brand:short': 'SUS', 'healthcare': 'clinic', 'loc_name': 'Posto de Saúde', 'name': 'Unidade Básica de Saúde', 'operator': 'Prefeitura Municipal de Presidente Castello Branco', 'operator:type': 'public', 'short_name': 'UBS'}}"
"{'type': 'node', 'id': 8626387749, 'lat': -27.0709838, 'lon': -51.6620313, 'tags': {'amenity': 'clinic'}}"
"{'type': 'node', 'id': 8626387750, 'lat': -27.0729192, 'lon': -51.6655723, 'tags': {'amenity': 'clinic'}}"
"{'type': 'node', 'id': 8954357413, 'lat': -27.7171291, 'lon': -52.6259117, 'tags': {'addr:city': 'Campinas do Sul', 'addr:postcode': '99660-000', 'addr:street': 'Avenida Mauricio Cardoso', 'addr:suburb': 'Centro', 'amenity': 'pharmacy', 'dispensing': 'yes', 'healthcare': 'pharmacy', 'name': 'Líder Farma'}}"
"{'type': 'node', 'id': 9605952301, 'lat': -27.1062701, 'lon': -52.6158356, 'tags': {'addr:door': 'Sala 2', 'contact:whatsapp': '+55 49 3026-4440', 'healthcare': 'laboratory', 'name': 'Laboratório Lizér', 'phone': '+55 49 3026-4440', 'website': 'https://lablizer.com.br/'}}"
"{'type': 'node', 'id': 9664586822, 'lat': -27.9486575, 'lon': -51.8137878, 'tags': {'amenity': 'pharmacy', 'dispensing': 'yes', 'healthcare': 'pharmacy'}}"
"{'type': 'node', 'id': 9664590979, 'lat': -27.9502538, 'lon': -51.8153562, 'tags': {'amenity': 'clinic', 'healthcare': 'clinic', 'name': 'Posto de Saúde Central'}}"
"{'type': 'node', 'id': 9701858939, 'lat': -27.1140082, 'lon': -52.609905, 'tags': {'addr:city': 'Chapecó', 'addr:housenumber': '1110', 'addr:street': 'Avenida Nereu Ramos - D', 'amenity': 'pharmacy', 'brand': 'Droga Raia', 'brand:wikidata': 'Q10357101', 'dispensing': 'yes', 'healthcare': 'pharmacy', 'name': 'Droga Raia'}}"
"{'type': 'node', 'id': 9701874724, 'lat': -27.1143974, 'lon': -52.609787, 'tags': {'addr:city': 'Chapecó', 'addr:housenumber': '1180', 'addr:street': 'Avenida Nereu Ramos - D', 'amenity': 'pharmacy', 'dispensing': 'yes', 'healthcare': 'pharmacy', 'name': 'Trip Farma', 'operator': 'Trip Farma'}}"
"{'type': 'node', 'id': 9791000963, 'lat': -27.0928292, 'lon': -52.6168316, 'tags': {'addr:city': 'Chapecó', 'addr:housenumber': '73', 'addr:postcode': '89802-240', 'addr:street': 'Rua São João - D', 'addr:suburb': 'Centro', 'amenity': 'dentist', 'healthcare': 'dentist', 'healthcare:speciality': 'orthodontics', 'internet_access': 'wlan', 'name': 'Clinica Noskoski Integrada', 'website': 'https://noskoskiodontologia.com.br/', 'wheelchair': 'yes'}}"
"{'type': 'node', 'id': 9791000964, 'lat': -27.0939855, 'lon': -52.6103026, 'tags': {'addr:city': 'Chapecó', 'addr:housenumber': '684', 'addr:postcode': '89801-141', 'addr:street': 'Rua Sete de Setembro - D', 'addr:suburb': 'Presidente Médici', 'amenity': 'dentist', 'healthcare': 'dentist', 'healthcare:speciality': 'orthodontics', 'name': 'Clinica Noskoski Odontologia'}}"
"{'type': 'node', 'id': 9847057251, 'lat': -27.0958168, 'lon': -52.6298797, 'tags': {'addr:city': 'Chapecó', 'addr:housenumber': '1310', 'addr:street': 'Avenida São Pedro - E', 'addr:suburb': 'São Cristóvão', 'amenity': 'pharmacy', 'dispensing': 'yes', 'healthcare': 'pharmacy', 'name': 'Farmácia Preço Popular', 'operator': 'Farmácia Preço Popular'}}"
"{'type': 'node', 'id': 9957610715, 'lat': -27.946206, 'lon': -51.8196606, 'tags': {'addr:city': 'Sananduva', 'addr:housenumber': '626', 'addr:postcode': '99840000', 'addr:street': 'Avenida Rio Branco', 'addr:suburb': 'Vila Jardim', 'amenity': 'clinic', 'healthcare': 'clinic', 'name': 'Unidade Básica de Saúde Vila Jardim'}}"
"{'type': 'node', 'id': 10085990810, 'lat': -27.1074527, 'lon': -52.6127917, 'tags': {'addr:street': 'Rua Uruguai - E', 'amenity': 'clinic', 'healthcare': 'clinic', 'name': 'Centro Clínico Chapecó'}}"
"{'type': 'node', 'id': 10261531359, 'lat': -27.9501789, 'lon': -51.8124226, 'tags': {'amenity': 'pharmacy', 'healthcare': 'pharmacy'}}"
"{'type': 'node', 'id': 10261531360, 'lat': -27.9504869, 'lon': -51.8128543, 'tags': {'amenity': 'pharmacy', 'healthcare': 'pharmacy', 'name': 'Tchê Farmácia'}}"
"{'type': 'node', 'id': 10261531361, 'lat': -27.9499638, 'lon': -51.8105927, 'tags': {'amenity': 'pharmacy', 'healthcare': 'pharmacy', 'name': 'Tchê Farmácia'}}"
"{'type': 'node', 'id': 10261531362, 'lat': -27.949873, 'lon': -51.809712, 'tags': {'amenity': 'pharmacy', 'brand': 'São João', 'brand:wikidata': 'Q62663306', 'dispensing': 'yes', 'healthcare': 'pharmacy', 'name': 'São João'}}"
"{'type': 'node', 'id': 10265774579, 'lat': -27.6304899, 'lon': -52.2638279, 'tags': {'addr:city': 'Erechim', 'addr:housenumber': '139', 'addr:postcode': '99700-000', 'addr:street': 'Rua Jacinto Godoy', 'addr:suburb': 'José Bonifácio', 'amenity': 'pharmacy', 'healthcare': 'pharmacy', 'name': 'Farmácia Vida e Saúde'}}"
"{'type': 'node', 'id': 10742595870, 'lat': -27.1065802, 'lon': -52.6069823, 'tags': {'addr:city': 'Chapecó', 'addr:housenumber': '680', 'addr:postcode': '89812-200', 'addr:street': 'Rua Uruguai - E', 'addr:suburb': 'Santa Maria', 'amenity': 'pharmacy', 'brand': 'Farmácia São João', 'brand:wikidata': 'Q65164556', 'healthcare': 'pharmacy', 'name': 'Farmácia São João'}}"
"{'type': 'node', 'id': 10742608215, 'lat': -27.1066257, 'lon': -52.6073953, 'tags': {'addr:city': 'Chapecó', 'addr:housenumber': '618', 'addr:postcode': '89812-222', 'addr:street': 'Rua Uruguai - E', 'addr:suburb': 'Santa Maria', 'amenity': 'pharmacy', 'healthcare': 'pharmacy', 'name': 'Farmácia Preço Popular'}}"
"{'type': 'node', 'id': 10809674889, 'lat': -27.1077088, 'lon': -52.6096331, 'tags': {'addr:city': 'Chapecó', 'addr:housenumber': '429', 'addr:street': 'Rua Rui Barbosa - D', 'addr:suburb': 'Santa Maria', 'healthcare': 'clinic', 'name': 'Serviço de Atendimento à Saúde do Servidor Municipal', 'phone': '+55 49 3329-9299', 'short_name': 'SASSM'}}"
"{'type': 'node', 'id': 10832126705, 'lat': -28.2636911, 'lon': -52.4048547, 'tags': {'addr:housenumber': '173', 'addr:street': 'Rua Bento Gonçalves', 'amenity': 'pharmacy', 'name': 'Farmácia São João'}}"
"{'type': 'node', 'id': 10863550279, 'lat': -27.5691641, 'lon': -52.0193313, 'tags': {'addr:city': 'Viadutos', 'addr:housenumber': '108', 'addr:postcode': '99820-000', 'addr:street': 'Rua Angelo Alegretti', 'addr:suburb': 'Centro', 'amenity': 'hospital', 'healthcare': 'hospital', 'name': 'Sociedade Hospitalar Nossa Senhora da Pompéia', 'ref:CNES': '2249537', 'ref:vatin': 'BR98714876000102', 'source:geometry': 'IEDE/RS'}}"
"{'type': 'node', 'id': 10863550280, 'lat': -27.5860974, 'lon': -52.1008326, 'tags': {'addr:city': 'Gaurama', 'addr:housenumber': '690', 'addr:postcode': '99830-000', 'addr:street': 'Rua José Sponchiado', 'addr:suburb': 'Centro', 'amenity': 'hospital', 'healthcare': 'hospital', 'name': 'Hospital Santa Isabel', 'ref:CNES': '2249545', 'ref:vatin': 'BR89428734001747', 'source:geometry': 'IEDE/RS'}}"
"{'type': 'node', 'id': 10863550281, 'lat': -27.6366352, 'lon': -52.2827288, 'tags': {'addr:city': 'Erechim', 'addr:housenumber': '878', 'addr:postcode': '99711-010', 'addr:street': 'Rua Itália', 'addr:suburb': 'Espirito Santo', 'amenity': 'hospital', 'healthcare': 'hospital', 'name': 'Hospital Santa Mônica', 'ref:CNES': '9142118', 'ref:vatin': 'BR24008994000150', 'source:geometry': 'IEDE/RS'}}"
"{'type': 'node', 'id': 10863683943, 'lat': -27.8253944, 'lon': -52.9135088, 'tags': {'addr:city': 'Rondinha', 'addr:housenumber': '174', 'addr:postcode': '99590-000', 'addr:suburb': 'Centro', 'amenity': 'hospital', 'healthcare': 'hospital', 'name': 'Sociedade Hospitalar Beneficente Padre Eugênio Medicheschi', 'ref:CNES': '2235447', 'ref:vatin': 'BR88555313000157', 'source:geometry': 'IEDE/RS'}}"
"{'type': 'node', 'id': 10863683944, 'lat': -27.8840872, 'lon': -52.22315, 'tags': {'addr:city': 'Getúlio Vargas', 'addr:housenumber': '212', 'addr:postcode': '99900-000', 'addr:street': 'Rua Jacob Gremmelmaier', 'addr:suburb': 'Centro', 'amenity': 'hospital', 'email': 'hospitalsaoroque@itaque.com.br', 'healthcare': 'hospital', 'name': 'Hospital Sao Roque de Getulio Vargas', 'phone': '+55 54 3341 1333', 'ref:CNES': '2249510', 'ref:vatin': 'BR90156217000188', 'source:geometry': 'IEDE/RS'}}"
"{'type': 'node', 'id': 10863683945, 'lat': -27.9130726, 'lon': -52.2572301, 'tags': {'addr:city': 'Estação', 'addr:housenumber': '931', 'addr:postcode': '99930-000', 'addr:street': 'Avenida Lido Tagliari', 'addr:suburb': 'Centro', 'amenity': 'hospital', 'email': 'hantonio@est.itake.com.br', 'healthcare': 'hospital', 'name': 'Hospital Santo Antonio Ltda', 'ref:CNES': '2249626', 'ref:vatin': 'BR43407737000136', 'source:geometry': 'IEDE/RS'}}"
"{'type': 'node', 'id': 10979828210, 'lat': -27.108834, 'lon': -52.5949662, 'tags': {'addr:city': 'Chapecó', 'addr:housenumber': '1259', 'addr:postcode': '89812-211', 'addr:street': 'Rua São Marcos', 'addr:suburb': 'Santa Maria', 'amenity': 'doctors', 'healthcare': 'doctor', 'healthcare:speciality': 'oncology', 'name': 'Supera Oncologia'}}"
"{'type': 'node', 'id': 10979828215, 'lat': -27.1083175, 'lon': -52.5973288, 'tags': {'amenity': 'pharmacy', 'healthcare': 'pharmacy', 'name': 'Farmácia'}}"
"{'type': 'node', 'id': 10979845547, 'lat': -27.108993, 'lon': -52.5968753, 'tags': {'amenity': 'clinic', 'healthcare': 'clinic', 'healthcare:speciality': 'nephrology', 'name': 'Clínica Renal do Oeste'}}"
"{'type': 'node', 'id': 11022776226, 'lat': -27.1173387, 'lon': -52.5964775, 'tags': {'amenity': 'clinic', 'healthcare': 'clinic', 'name': 'C.S.F. Esplanada'}}"
"{'type': 'node', 'id': 11023052606, 'lat': -27.1070238, 'lon': -52.5993897, 'tags': {'amenity': 'pharmacy', 'healthcare': 'pharmacy', 'name': 'Farmácia e manipulação São Rafael'}}"
"{'type': 'node', 'id': 11108807381, 'lat': -28.2548664, 'lon': -52.4030677, 'tags': {'amenity': 'pharmacy', 'contact:facebook': 'https://www.facebook.com/FarmaciasAssocidasVidaFarma/', 'name': 'Farmácias Associadas', 'website': 'https://farmaciasassociadas.com.br'}}"
"{'type': 'node', 'id': 11139169826, 'lat': -27.4663159, 'lon': -51.6592173, 'tags': {'amenity': 'clinic', 'healthcare': 'clinic', 'name': 'Posto de saúde municipal Barro preto'}}"
"{'type': 'node', 'id': 11148835408, 'lat': -28.1839218, 'lon': -52.0152895, 'tags': {'amenity': 'clinic', 'fixme': 'Corrigir localização', 'healthcare': 'clinic', 'name': 'Casa de Saúde Indígena de Água Santa', 'ref:CNES': '7520069', 'short_name': 'Casai'}}"
"{'type': 'node', 'id': 11232729005, 'lat': -27.0899934, 'lon': -52.5836508, 'tags': {'amenity': 'hospital', 'healthcare': 'hospital', 'name': 'CAPS III ALCOOL E DROGAS'}}"
"{'type': 'node', 'id': 11287113079, 'lat': -28.2617668, 'lon': -52.4061244, 'tags': {'amenity': 'pharmacy', 'brand': 'Panvel', 'brand:wikidata': 'Q10344254', 'healthcare': 'pharmacy', 'name': 'Panvel'}}"
"{'type': 'node', 'id': 11289542669, 'lat': -28.2589768, 'lon': -52.4097446, 'tags': {'amenity': 'pharmacy', 'name': 'São João'}}"
"{'type': 'node', 'id': 11298963963, 'lat': -27.0955467, 'lon': -52.6187855, 'tags': {'amenity': 'pharmacy', 'healthcare': 'pharmacy', 'name': 'Farmácia São Rafael'}}"
"{'type': 'node', 'id': 11327690245, 'lat': -28.2605227, 'lon': -52.3961918, 'tags': {'amenity': 'pharmacy', 'healthcare': 'pharmacy', 'name': 'São João'}}"
"{'type': 'node', 'id': 11447407357, 'lat': -28.2712976, 'lon': -52.3856113, 'tags': {'amenity': 'pharmacy', 'brand': 'Panvel', 'brand:wikidata': 'Q10344254', 'healthcare': 'pharmacy', 'name': 'Panvel'}}"
"{'type': 'node', 'id': 11782761042, 'lat': -27.6503644, 'lon': -52.2750351, 'tags': {'amenity': 'clinic', 'healthcare': 'clinic', 'name': 'UBS SÃO CRISTÓVÃO'}}"
"{'type': 'node', 'id': 11985783027, 'lat': -27.093792, 'lon': -52.6369274, 'tags': {'addr:street': 'Avenida São Pedro - E', 'addr:suburb': 'São Cristóvão', 'amenity': 'pharmacy', 'healthcare': 'pharmacy', 'name': 'Farmácia Sempre Fort', 'operator': 'Grupo Pereira'}}"
"{'type': 'node', 'id': 12099232234, 'lat': -27.3959826, 'lon': -52.2999487, 'tags': {'amenity': 'hospital', 'healthcare': 'hospital', 'name': 'Hospital Acha'}}"
"{'type': 'node', 'id': 12105992836, 'lat': -27.0956769, 'lon': -52.6282545, 'tags': {'addr:city': 'Chapecó', 'addr:housenumber': '1119', 'addr:postcode': '89803-400', 'addr:street': 'Avenida São Pedro - E', 'addr:suburb': 'São Cristóvão', 'amenity': 'pharmacy', 'healthcare': 'pharmacy', 'name': 'Farmácia e Manipulação São Rafael'}}"
"{'type': 'node', 'id': 12106009478, 'lat': -27.0956257, 'lon': -52.6280641, 'tags': {'addr:city': 'Chapecó', 'addr:housenumber': '1119', 'addr:postcode': '89803-400', 'addr:street': 'Avenida São Pedro - E', 'addr:suburb': 'São Cristóvão', 'healthcare': 'laboratory', 'name': 'Merisio Laboratório'}}"
"{'type': 'node', 'id': 12111431348, 'lat': -28.2626233, 'lon': -52.4074651, 'tags': {'amenity': 'pharmacy', 'brand': 'São João', 'brand:wikidata': 'Q62663306', 'healthcare': 'pharmacy', 'name': 'São João'}}"
"{'type': 'node', 'id': 12125215981, 'lat': -28.2612975, 'lon': -52.4047024, 'tags': {'healthcare': 'laboratory', 'name': 'Unidos Análises Clínicas'}}"
"{'type': 'node', 'id': 12308331244, 'lat': -27.0941816, 'lon': -52.6257581, 'tags': {'amenity': 'pharmacy', 'brand': 'Droga Raia', 'brand:wikidata': 'Q10357101', 'healthcare': 'pharmacy', 'name': 'Droga Raia'}}"
