OSM_Data
"{'type': 'node', 'id': 1676514180, 'lat': 0.8716637, 'lon': -79.8525033, 'tags': {'amenity': 'pharmacy', 'dispensing': 'no', 'healthcare': 'pharmacy'}}"
"{'type': 'node', 'id': 1676514214, 'lat': 0.8722536, 'lon': -79.8515648, 'tags': {'amenity': 'pharmacy', 'dispensing': 'no', 'healthcare': 'pharmacy', 'name': 'Noelia'}}"
"{'type': 'node', 'id': 1676514272, 'lat': 0.8709695, 'lon': -79.8536513, 'tags': {'amenity': 'pharmacy', 'dispensing': 'no', 'healthcare': 'pharmacy', 'name': ""FarmaRed's""}}"
"{'type': 'node', 'id': 1682767554, 'lat': 0.8710314, 'lon': -79.8535591, 'tags': {'amenity': 'pharmacy', 'dispensing': 'no', 'healthcare': 'pharmacy', 'name': 'SuFarmacia'}}"
"{'type': 'node', 'id': 1683858594, 'lat': 0.8703159, 'lon': -79.8491938, 'tags': {'amenity': 'doctors', 'healthcare': 'doctor', 'name': 'Centro Médico San Patricio'}}"
"{'type': 'node', 'id': 1683858626, 'lat': 0.8702625, 'lon': -79.8485233, 'tags': {'amenity': 'dentist', 'healthcare': 'dentist', 'name': 'Clínica Dental Atacames'}}"
"{'type': 'node', 'id': 1683858633, 'lat': 0.8684958, 'lon': -79.8499106, 'tags': {'amenity': 'pharmacy', 'brand': 'Cruz Azul', 'brand:wikidata': 'Q62108219', 'dispensing': 'no', 'healthcare': 'pharmacy', 'name': 'Cruz Azul'}}"
"{'type': 'node', 'id': 1683858680, 'lat': 0.8707795, 'lon': -79.851855, 'tags': {'amenity': 'pharmacy', 'dispensing': 'no', 'healthcare': 'pharmacy', 'name': 'El Caracól'}}"
"{'type': 'node', 'id': 1683858790, 'lat': 0.8703592, 'lon': -79.8492838, 'tags': {'amenity': 'dentist', 'healthcare': 'dentist', 'name': 'M.J. Serrano'}}"
"{'type': 'node', 'id': 1683858866, 'lat': 0.8684193, 'lon': -79.8504189, 'tags': {'amenity': 'pharmacy', 'dispensing': 'no', 'healthcare': 'pharmacy', 'name': 'San Andrés'}}"
"{'type': 'node', 'id': 1683858885, 'lat': 0.8694621, 'lon': -79.8490537, 'tags': {'amenity': 'pharmacy', 'brand': 'Farmacias Económicas', 'brand:wikidata': 'Q62108380', 'dispensing': 'no', 'healthcare': 'pharmacy', 'name': 'Farmacias Económicas'}}"
"{'type': 'node', 'id': 1683858886, 'lat': 0.8708625, 'lon': -79.8472254, 'tags': {'amenity': 'pharmacy', 'branch': 'Atacames 2', 'brand': 'Farmacias Económicas', 'brand:wikidata': 'Q62108380', 'dispensing': 'no', 'healthcare': 'pharmacy', 'name': 'Farmacias Económicas'}}"
"{'type': 'node', 'id': 1683859174, 'lat': 0.8695555, 'lon': -79.8490003, 'tags': {'amenity': 'pharmacy', 'dispensing': 'no', 'healthcare': 'pharmacy', 'name': 'Su Farmacia'}}"
"{'type': 'node', 'id': 3161645562, 'lat': 0.8709446, 'lon': -79.8473322, 'tags': {'amenity': 'pharmacy', 'brand': 'Sana Sana', 'brand:wikidata': 'Q62564499', 'healthcare': 'pharmacy', 'name': 'Sana Sana'}}"
"{'type': 'node', 'id': 3164595475, 'lat': 0.6551553, 'lon': -79.5434266, 'tags': {'amenity': 'pharmacy', 'name': 'Farmacia Cruz Azul'}}"
"{'type': 'node', 'id': 3169681894, 'lat': 0.8272615, 'lon': -79.9450251, 'tags': {'amenity': 'pharmacy'}}"
"{'type': 'node', 'id': 3169681895, 'lat': 0.8283143, 'lon': -79.9454036, 'tags': {'amenity': 'pharmacy'}}"
"{'type': 'node', 'id': 3599697177, 'lat': 0.9570566, 'lon': -79.652569, 'tags': {'amenity': 'pharmacy', 'name': 'Eco Colon'}}"
"{'type': 'node', 'id': 3599700290, 'lat': 0.9667649, 'lon': -79.653784, 'tags': {'amenity': 'pharmacy', 'name': 'Eco Olmedo Siglo XXI'}}"
"{'type': 'node', 'id': 3599700326, 'lat': 0.9647253, 'lon': -79.6530545, 'tags': {'amenity': 'pharmacy', 'name': 'Medicity Esmeraldas'}}"
"{'type': 'node', 'id': 3599700692, 'lat': 0.9707366, 'lon': -79.6528962, 'tags': {'amenity': 'pharmacy', 'name': 'Paf San Andres'}}"
"{'type': 'node', 'id': 3599700746, 'lat': 0.9662328, 'lon': -79.651775, 'tags': {'amenity': 'pharmacy', 'name': 'Eco 9 de Octubre'}}"
"{'type': 'node', 'id': 3599702332, 'lat': 0.8694621, 'lon': -79.8490537, 'tags': {'amenity': 'pharmacy', 'healthcare': 'pharmacy', 'name': 'Eco Atacames'}}"
"{'type': 'node', 'id': 3599703310, 'lat': 0.9569842, 'lon': -79.6525717, 'tags': {'amenity': 'pharmacy', 'name': 'Medicity Colon'}}"
"{'type': 'node', 'id': 3615569642, 'lat': 0.327974, 'lon': -79.4731192, 'tags': {'amenity': 'pharmacy', 'name': 'Paf sagrado Corazón 3'}}"
"{'type': 'node', 'id': 3658366814, 'lat': 0.9201188, 'lon': -79.6823549, 'tags': {'amenity': 'pharmacy', 'name': 'Farmacia Cruz Azul', 'website': 'https://www.farmaciascruzazul.com/CruzAzul/'}}"
"{'type': 'node', 'id': 3658384297, 'lat': 0.9230872, 'lon': -79.6831106, 'tags': {'addr:city': 'Esmeraldas', 'addr:country': 'EC', 'addr:postcode': '080118', 'addr:street': 'Calle A y Pasaje 9', 'amenity': 'clinic', 'healthcare': 'clinic', 'healthcare:speciality': 'urology', 'name': 'Centro de Hemodialisis'}}"
"{'type': 'node', 'id': 3741543865, 'lat': 0.8738004, 'lon': -79.8385893, 'tags': {'amenity': 'pharmacy', 'name': 'Fybeca'}}"
"{'type': 'node', 'id': 4141346039, 'lat': 0.9006542, 'lon': -79.7071438, 'tags': {'amenity': 'hospital', 'name': 'Por definir'}}"
"{'type': 'node', 'id': 4176700389, 'lat': 0.9301618, 'lon': -79.6610654, 'tags': {'addr:housenumber': '0', 'addr:street': 'Simon Plata Torres', 'amenity': 'clinic', 'email': 'renalcentroesmeraldas@yahoo.com', 'name': 'clinica del riñon RENAL CENTRO', 'opening_hours': 'Mo-Sa 07:00-21:30', 'phone': '062702438'}}"
"{'type': 'node', 'id': 4176886690, 'lat': 0.930908, 'lon': -79.6616792, 'tags': {'addr:street': 'Simon Plata Torres', 'amenity': 'clinic', 'name': 'CLINICA DEL RIÑON renal centro', 'opening_hours': 'Mo-Sa 07:00-21:00', 'phone': '062702438'}}"
"{'type': 'node', 'id': 4309386089, 'lat': 0.9165387, 'lon': -79.6928987, 'tags': {'amenity': 'hospital', 'name': 'Sub centro de Salud', 'note': 'Sub centro de Salud Tipo C'}}"
"{'type': 'node', 'id': 4356704299, 'lat': 0.8707726, 'lon': -79.8471225, 'tags': {'addr:street': 'Olmedo', 'amenity': 'pharmacy', 'brand': 'Cruz Azul', 'brand:wikidata': 'Q62108219', 'healthcare': 'pharmacy', 'name': 'Cruz Azul', 'name:es': 'Farmacias Cruz Azul'}}"
"{'type': 'node', 'id': 4358212500, 'lat': 0.8709481, 'lon': -79.8471316, 'tags': {'addr:street': 'Luis Tello', 'amenity': 'clinic', 'healthcare': 'clinic', 'name': 'Clínica Colon', 'name:es': 'Clínica Colon'}}"
"{'type': 'node', 'id': 4361558589, 'lat': 0.8738662, 'lon': -79.8390436, 'tags': {'addr:street': 'Vía del Pacífico Atacames Esmeraldas', 'amenity': 'hospital', 'name': 'Hospital Juan Carlos Huaqui', 'opening_hours': '24/7'}}"
"{'type': 'node', 'id': 4400512394, 'lat': 0.9513093, 'lon': -79.6513726, 'tags': {'addr:street': 'Ecuador', 'amenity': 'hospital', 'name': 'sub centro #1', 'name:es': 'sub centro #1'}}"
"{'type': 'node', 'id': 4405152290, 'lat': 0.9197302, 'lon': -79.6817753, 'tags': {'addr:postcode': '080118', 'addr:street': 'Calle F y 44', 'amenity': 'pharmacy', 'name': 'Farmacia Milan', 'name:es': 'Farmacia Milan', 'opening_hours': 'Mo-Su 08:30-22:30', 'operator': 'Farmacia Milan', 'phone': '062011214'}}"
"{'type': 'node', 'id': 4437750092, 'lat': 0.9516304, 'lon': -79.650745, 'tags': {'amenity': 'hospital', 'name': 'Cruz Roja JP Esmeraldas', 'name:en': 'Esmeralda Red cross', 'name:es': 'Cruz roja JP Esmeraldas'}}"
"{'type': 'node', 'id': 4466652489, 'lat': 0.3339492, 'lon': -79.4714175, 'tags': {'amenity': 'pharmacy', 'name': 'Sana sana', 'name:es': 'Sana sana'}}"
"{'type': 'node', 'id': 4699517321, 'lat': 0.9818326, 'lon': -79.6563103, 'tags': {'addr:city': 'Esmeraldas', 'addr:street': 'Tácito Ortiz Urriola', 'amenity': 'dentist', 'healthcare': 'dentist', 'name': 'Dra. Elsa Estupiñan', 'opening_hours': '17:30 - 20:00'}}"
"{'type': 'node', 'id': 4773934521, 'lat': 0.9147047, 'lon': -79.6915719, 'tags': {'amenity': 'hospital', 'name': 'Hospital de Especialidades Esmeraldas Sur', 'name:es': 'Hospital de Especialidades Esmeraldas Sur', 'opening_hours': '24/7'}}"
"{'type': 'node', 'id': 4937579921, 'lat': 0.976881, 'lon': -79.6537758, 'tags': {'amenity': 'doctors', 'healthcare': 'doctor'}}"
"{'type': 'node', 'id': 4962971521, 'lat': 0.9592407, 'lon': -79.6497032, 'tags': {'addr:street': 'la Habana', 'amenity': 'hospital', 'name': 'Instituto de ciencias forenses', 'name:en': 'Español', 'name:es': 'Instituto de ciencias forenses', 'opening_hours': '24/7'}}"
"{'type': 'node', 'id': 4986677223, 'lat': 0.331055, 'lon': -79.4709812, 'tags': {'addr:street': 'Manuel Aleman', 'amenity': 'clinic', 'internet_access': 'wlan', 'name': 'Seimsa ecos Rx laboratorio clínico', 'opening_hours': '24/7', 'phone': '5932737245'}}"
"{'type': 'node', 'id': 4986678022, 'lat': 0.3311606, 'lon': -79.4708937, 'tags': {'addr:street': 'Manuel Aleman', 'amenity': 'clinic', 'email': 'clinicasamaniego@hotmail.com', 'internet_access': 'wlan', 'name': 'Clínica Samaniego', 'name:en': 'Clínica Samaniego', 'name:es': 'Clínica Samaniego', 'opening_hours': '24/7', 'phone': '59362736216'}}"
"{'type': 'node', 'id': 5097099121, 'lat': 0.9644822, 'lon': -79.6525655, 'tags': {'addr:street': 'Manuela Canizares', 'amenity': 'hospital', 'name': 'Clínica Alfa', 'name:es': 'Clínica Alfa'}}"
"{'type': 'node', 'id': 5207743822, 'lat': 0.8934938, 'lon': -79.7107774, 'tags': {'addr:housenumber': '0986282523', 'addr:street': 'Vía del Pacífico Atacames Esmeraldas', 'amenity': 'pharmacy', 'name': 'Farmacia Papeleria Bazar Areolis', 'name:en': 'Español', 'opening_hours': 'Mo-Su 07:00-21:00'}}"
"{'type': 'node', 'id': 5422663725, 'lat': 1.0962108, 'lon': -79.1632777, 'tags': {'amenity': 'pharmacy', 'name': 'Farma Todo'}}"
"{'type': 'node', 'id': 5436114364, 'lat': 1.0971944, 'lon': -79.1605664, 'tags': {'amenity': 'doctors', 'healthcare': 'doctor'}}"
"{'type': 'node', 'id': 5523977963, 'lat': 1.2515492, 'lon': -78.9853807, 'tags': {'amenity': 'hospital', 'healthcare': 'hospital'}}"
"{'type': 'node', 'id': 6589991792, 'lat': 0.4144678, 'lon': -79.2488446, 'tags': {'amenity': 'clinic', 'name': 'CENTRO DE Salud Zapallo'}}"
"{'type': 'node', 'id': 6734038885, 'lat': 0.9143844, 'lon': -79.6916251, 'tags': {'amenity': 'hospital', 'name': 'Hospital del Sur'}}"
"{'type': 'node', 'id': 7447387885, 'lat': 0.454627, 'lon': -79.1599468, 'tags': {'amenity': 'clinic', 'name': 'Centro de salud Cristóbal Colón 4315'}}"
"{'type': 'node', 'id': 8016824686, 'lat': 0.3301204, 'lon': -79.4733447, 'tags': {'addr:street': 'Victor Villegas Plaza', 'amenity': 'hospital', 'internet_access': 'wlan', 'name': 'Padre Alberto Bufoni', 'opening_hours': 'Mo-Su 08:00-17:00'}}"
"{'type': 'node', 'id': 8098417317, 'lat': 0.8843754, 'lon': -79.8081963, 'tags': {'addr:street': 'Vía del Pacífico Atacames Esmeraldas', 'amenity': 'pharmacy', 'name': 'Farmacias Económicas'}}"
"{'type': 'node', 'id': 8304496818, 'lat': 1.0880215, 'lon': -78.9899709, 'tags': {'addr:street': 'E15', 'amenity': 'hospital', 'name': 'Hospital Básico de Borbón', 'name:en': 'Basic Hospital of Borbón'}}"
"{'type': 'node', 'id': 8451457317, 'lat': 0.8752964, 'lon': -79.8364421, 'tags': {'addr:street': 'Vía del Pacífico Atacames Esmeraldas', 'amenity': 'clinic', 'name': 'Centro medico de especialidades ECUACUBA CENTER'}}"
"{'type': 'node', 'id': 8846314518, 'lat': 0.3197062, 'lon': -79.2104904, 'tags': {'amenity': 'clinic', 'name': 'Centro de Salud tipo A Golondrinas', 'name:en': 'Centro de Salud Tipo A Golondrinas'}}"
"{'type': 'node', 'id': 9736092217, 'lat': 0.3303361, 'lon': -79.4607695, 'tags': {'amenity': 'clinic', 'name': 'C.S tipo B Nuevo Quinindé'}}"
"{'type': 'node', 'id': 9872952043, 'lat': 0.3562452, 'lon': -80.0385648, 'tags': {'addr:city': 'Cojimies', 'addr:housenumber': 'S/N', 'addr:postcode': '131001', 'addr:street': 'Vía a Cojimíes', 'healthcare': 'centre', 'name': 'DIRECCION DISTRITAL 13D11 PEDERNALES – JAMA – SUCRE – SAN VICENTE -SALUD', 'operator': 'Subcentro de Salud Tipo B Cojimies'}}"
"{'type': 'node', 'id': 10803111105, 'lat': 0.4442, 'lon': -79.300715, 'tags': {'amenity': 'clinic', 'internet_access': 'wlan', 'name': 'C.S NARANJAL DE CANANDE'}}"
"{'type': 'node', 'id': 11125277905, 'lat': 0.9854692, 'lon': -79.6545577, 'tags': {'addr:housenumber': '099 513 4805', 'addr:street': 'Gran Colombia', 'amenity': 'clinic', 'name': 'Centro de Salud Tipo C Las Palmas', 'opening_hours': '24/7', 'phone': '099 513 4805'}}"
"{'type': 'node', 'id': 11252111937, 'lat': 0.3644307, 'lon': -80.0382534, 'tags': {'amenity': 'pharmacy', 'name': 'FARMACIAS SANTA MARTHA'}}"
