OSM_Data
"{'type': 'node', 'id': 1241363190, 'lat': -22.7685787, 'lon': -46.2234255, 'tags': {'amenity': 'hospital', 'emergency': 'no', 'name': 'Pronto Atendimento Ápio Cardoso'}}"
"{'type': 'node', 'id': 1341313285, 'lat': -22.6301219, 'lon': -46.0204792, 'tags': {'amenity': 'pharmacy'}}"
"{'type': 'node', 'id': 1825438768, 'lat': -22.1606207, 'lon': -46.0421467, 'tags': {'amenity': 'hospital', 'emergency': 'yes', 'name': 'Pronto Atendimento'}}"
"{'type': 'node', 'id': 2056349444, 'lat': -22.5786541, 'lon': -47.1653634, 'tags': {'addr:housenumber': '939', 'addr:postcode': '13163-006', 'addr:street': 'Avenida Doutor Fernando Arens', 'amenity': 'hospital', 'healthcare': 'hospital', 'name': 'Hospital e Maternidade de Artur Nogueira', 'operator:ref:vatin': 'BR45735552000186', 'ref:CNES': '2037297'}}"
"{'type': 'node', 'id': 2429551274, 'lat': -22.6967707, 'lon': -46.7683784, 'tags': {'amenity': 'hospital', 'healthcare': 'hospital', 'name': 'Santa Casa Anna Cintra'}}"
"{'type': 'node', 'id': 2608908215, 'lat': -22.611652, 'lon': -46.7002685, 'tags': {'amenity': 'pharmacy', 'healthcare': 'pharmacy', 'name': 'Farmácia Central', 'wheelchair': 'yes'}}"
"{'type': 'node', 'id': 2670509904, 'lat': -22.474947, 'lon': -46.6323152, 'tags': {'amenity': 'pharmacy', 'dispensing': 'no', 'name': 'Drogaria Thermal'}}"
"{'type': 'node', 'id': 2738779382, 'lat': -22.6851179, 'lon': -46.6806481, 'tags': {'addr:city': 'Monte Alegre do Sul', 'addr:postcode': '13910-000', 'amenity': 'hospital', 'emergency': 'yes', 'name': 'Pronto Socorro'}}"
"{'type': 'node', 'id': 3017243560, 'lat': -21.9780481, 'lon': -46.7991533, 'tags': {'addr:housenumber': '42', 'addr:street': 'Rua João Francisco Valim', 'amenity': 'clinic', 'emergency': 'no', 'healthcare': 'clinic', 'name': 'Centro de Especialidades'}}"
"{'type': 'node', 'id': 3017379503, 'lat': -21.966777, 'lon': -46.7629384, 'tags': {'amenity': 'clinic', 'emergency': 'no', 'name': 'Instituto de Doenças Renais', 'short_name': 'IDR'}}"
"{'type': 'node', 'id': 3017379526, 'lat': -21.9680735, 'lon': -46.7645965, 'tags': {'amenity': 'clinic', 'name': 'Atto Diagnosis'}}"
"{'type': 'node', 'id': 3017389100, 'lat': -21.9684428, 'lon': -46.78909, 'tags': {'amenity': 'clinic', 'healthcare': 'clinic', 'healthcare:speciality': 'ophthalmology', 'name': 'Clínica de Olhos Dr. Heleno'}}"
"{'type': 'node', 'id': 3017389102, 'lat': -21.9682563, 'lon': -46.789431, 'tags': {'amenity': 'pharmacy', 'name': 'Drograria Santo André'}}"
"{'type': 'node', 'id': 3018196893, 'lat': -21.9666485, 'lon': -46.797923, 'tags': {'amenity': 'clinic', 'healthcare': 'clinic', 'name': 'Medicina e Segurança do Trabalho', 'short_name': 'METRA'}}"
"{'type': 'node', 'id': 3018196895, 'lat': -21.9662393, 'lon': -46.7981477, 'tags': {'amenity': 'pharmacy', 'healthcare': 'pharmacy', 'name': 'Drogafani', 'phone': '19 3622-3012'}}"
"{'type': 'node', 'id': 3018335765, 'lat': -21.9722032, 'lon': -46.7976197, 'tags': {'amenity': 'pharmacy', 'brand': 'Droga Raia', 'brand:wikidata': 'Q10357101', 'brand:wikipedia': 'pt:RaiaDrogasil', 'healthcare': 'pharmacy', 'name': 'Droga Raia'}}"
"{'type': 'node', 'id': 3018335789, 'lat': -21.9819353, 'lon': -46.7963043, 'tags': {'addr:street': 'Avenida João Osório', 'amenity': 'pharmacy', 'healthcare': 'pharmacy', 'name': 'Polifarma'}}"
"{'type': 'node', 'id': 3018335792, 'lat': -21.981824, 'lon': -46.7959331, 'tags': {'addr:street': 'Rua Carolina Malheiros', 'amenity': 'pharmacy', 'healthcare': 'pharmacy', 'name': 'Realfarma'}}"
"{'type': 'node', 'id': 3018408064, 'lat': -21.9792816, 'lon': -46.796998, 'tags': {'addr:street': 'Rua Conselheiro Antônio Prado', 'amenity': 'clinic', 'healthcare': 'clinic', 'name': 'Cirurgimed'}}"
"{'type': 'node', 'id': 3018408065, 'lat': -21.9791914, 'lon': -46.7970549, 'tags': {'addr:street': 'Rua Conselheiro Antônio Prado', 'amenity': 'clinic', 'healthcare': 'clinic', 'name': 'Clínica São Lucas'}}"
"{'type': 'node', 'id': 3018408066, 'lat': -21.9790552, 'lon': -46.7971348, 'tags': {'addr:street': 'Rua Conselheiro Antônio Prado', 'amenity': 'clinic', 'healthcare': 'clinic', 'healthcare:speciality': 'ophthalmology', 'name': 'Clínica de Olhos'}}"
"{'type': 'node', 'id': 3018408067, 'lat': -21.9790627, 'lon': -46.7969644, 'tags': {'addr:street': 'Rua Conselheiro Antônio Prado', 'amenity': 'clinic', 'healthcare': 'clinic', 'name': 'Endo Centro'}}"
"{'type': 'node', 'id': 3018408070, 'lat': -21.9781785, 'lon': -46.7976725, 'tags': {'amenity': 'clinic', 'healthcare': 'clinic', 'name': 'Clínica de Especialidades Médicas'}}"
"{'type': 'node', 'id': 3018408072, 'lat': -21.977921, 'lon': -46.7967238, 'tags': {'addr:street': 'Rua Coronel Ernesto de Oliveira', 'amenity': 'pharmacy', 'healthcare': 'pharmacy', 'name': 'Droganova'}}"
"{'type': 'node', 'id': 3019159744, 'lat': -21.965844, 'lon': -46.7946161, 'tags': {'addr:housenumber': '851', 'addr:street': 'Rua Doutor Teófilo Ribeiro de Andrade', 'amenity': 'doctors', 'healthcare': 'doctor', 'name': 'Exame Médico Motorista'}}"
"{'type': 'node', 'id': 3419849190, 'lat': -22.1633567, 'lon': -46.1783166, 'tags': {'amenity': 'pharmacy', 'healthcare': 'pharmacy', 'name': 'Ideal Pharma'}}"
"{'type': 'node', 'id': 3498152457, 'lat': -22.3712729, 'lon': -46.9440598, 'tags': {'addr:city': 'Mogi Guaçu', 'addr:street': 'Rua Quinze de Novembro', 'addr:suburb': 'Centro', 'amenity': 'pharmacy', 'brand': 'Droga Raia', 'brand:wikidata': 'Q10357101', 'brand:wikipedia': 'pt:RaiaDrogasil', 'dispensing': 'yes', 'drive_through': 'no', 'healthcare': 'pharmacy', 'name': 'Droga Raia', 'opening_hours': '24/7'}}"
"{'type': 'node', 'id': 4179247590, 'lat': -22.0737085, 'lon': -46.5737268, 'tags': {'addr:street': 'pça Cel Antônio Augusto de Oliveira', 'amenity': 'dentist', 'healthcare': 'dentist', 'name': 'Clínica Rodrigo e Amanda', 'opening_hours': 'Mo-Su 08:00-18:00'}}"
"{'type': 'node', 'id': 4360796571, 'lat': -22.6332714, 'lon': -47.0544065, 'tags': {'amenity': 'pharmacy', 'name': 'Aquitem Farmácia Popular'}}"
"{'type': 'node', 'id': 4707187590, 'lat': -21.946691, 'lon': -46.7249518, 'tags': {'amenity': 'hospital', 'name': 'Pronto Socorro', 'name:pt': 'Pronto Socorro'}}"
"{'type': 'node', 'id': 5312257648, 'lat': -22.624932, 'lon': -47.0590165, 'tags': {'amenity': 'hospital'}}"
"{'type': 'node', 'id': 5342860657, 'lat': -21.7043503, 'lon': -47.2730097, 'tags': {'amenity': 'hospital', 'healthcare': 'hospital', 'name': 'Santa Casa'}}"
"{'type': 'node', 'id': 5343193376, 'lat': -21.7075466, 'lon': -47.2741767, 'tags': {'amenity': 'pharmacy', 'healthcare': 'pharmacy'}}"
"{'type': 'node', 'id': 5361912626, 'lat': -22.7527177, 'lon': -47.3232527, 'tags': {'amenity': 'pharmacy', 'healthcare': 'pharmacy', 'name': 'Drogal'}}"
"{'type': 'node', 'id': 5391166697, 'lat': -22.0571421, 'lon': -46.9785979, 'tags': {'amenity': 'pharmacy', 'dispensing': 'yes', 'healthcare': 'pharmacy', 'name': 'Drogaria'}}"
"{'type': 'node', 'id': 6270481198, 'lat': -21.9822265, 'lon': -46.7946263, 'tags': {'healthcare': 'laboratory', 'name': 'Santa Lab', 'operator': 'Santa Casa de Misericórdia Dona Carolina Malheiros'}}"
"{'type': 'node', 'id': 6381623245, 'lat': -21.5493597, 'lon': -46.0471141, 'tags': {'amenity': 'hospital', 'healthcare': 'hospital', 'name': 'Hospital Nossa Senhora Aparecida'}}"
"{'type': 'node', 'id': 6383561369, 'lat': -22.3432756, 'lon': -47.16141, 'tags': {'amenity': 'pharmacy', 'dispensing': 'yes', 'healthcare': 'pharmacy'}}"
"{'type': 'node', 'id': 6384483812, 'lat': -22.4191634, 'lon': -46.9647188, 'tags': {'amenity': 'pharmacy', 'dispensing': 'yes', 'healthcare': 'pharmacy'}}"
"{'type': 'node', 'id': 6388391895, 'lat': -22.5982948, 'lon': -46.5290141, 'tags': {'addr:housenumber': '481', 'addr:street': 'Rua Dom Pedro I', 'addr:suburb': 'Aparecidinha', 'amenity': 'clinic', 'healthcare': 'clinic', 'healthcare:speciality': 'physiotherapy', 'name': 'Phisis'}}"
"{'type': 'node', 'id': 6460414594, 'lat': -22.7243236, 'lon': -47.3171261, 'tags': {'addr:city': 'Americana', 'addr:housenumber': '522', 'addr:postcode': '13472-360', 'addr:street': 'Rua São Simão', 'addr:suburb': 'Cariobinha', 'amenity': 'hospital', 'healthcare': 'hospital', 'healthcare:speciality': 'general', 'name': 'Ubs Cariobinha De Posto Do Saúde', 'operator:ref:vatin': 'BR45781176000166', 'ref:CNES': '2042592'}}"
"{'type': 'node', 'id': 7553063008, 'lat': -22.6945962, 'lon': -46.7798211, 'tags': {'amenity': 'hospital', 'healthcare': 'hospital', 'healthcare:speciality': 'psychiatry', 'name': 'Fazenda Palmeiras'}}"
"{'type': 'node', 'id': 7691767968, 'lat': -21.7296605, 'lon': -46.9701616, 'tags': {'amenity': 'hospital', 'healthcare': 'hospital'}}"
"{'type': 'node', 'id': 7850253248, 'lat': -22.7353306, 'lon': -46.6822435, 'tags': {'amenity': 'clinic', 'healthcare': 'clinic', 'healthcare:speciality': 'dentist;family_medicine', 'name': 'UBS bairro dos Lima', 'operator': 'Prefeitura Municipal de Monte Alegre do Sul', 'operator:type': 'public'}}"
"{'type': 'node', 'id': 7869630557, 'lat': -22.7052324, 'lon': -46.8084467, 'tags': {'amenity': 'hospital', 'healthcare': 'hospital', 'name': 'USF Santa Maria do Amparo'}}"
"{'type': 'node', 'id': 7869630558, 'lat': -22.7005924, 'lon': -46.770702, 'tags': {'amenity': 'hospital', 'healthcare': 'hospital', 'name': 'Centro de Especialidades Médicas de Amparo'}}"
"{'type': 'node', 'id': 8740262915, 'lat': -22.7626622, 'lon': -47.1508257, 'tags': {'addr:city': 'Paulínia', 'addr:housenumber': '879', 'addr:postcode': '13140-184', 'addr:street': 'Rua Maria das Dores Leal de Queiroz', 'addr:suburb': 'Vista Alegre', 'amenity': 'dentist', 'healthcare': 'dentist', 'healthcare:speciality': 'dentist', 'name': 'Ana Claúdia Pietrobon', 'opening_hours': 'Mo-Fr 08:00-18:00'}}"
"{'type': 'node', 'id': 8920486809, 'lat': -22.7503483, 'lon': -47.3273353, 'tags': {'addr:city': 'Americana', 'addr:housenumber': '516', 'addr:postcode': '13466-310', 'addr:street': 'Rua Ari Meireles', 'addr:suburb': 'Vila Santa Catarina', 'amenity': 'clinic', 'description': 'Biomedicina estética', 'healthcare': 'clinic', 'healthcare:speciality': 'anaesthetics', 'name': 'Doutora Rachel Araújo', 'source': 'local knowledge'}}"
"{'type': 'node', 'id': 9131772152, 'lat': -21.7829846, 'lon': -46.5704758, 'tags': {'amenity': 'dentist', 'healthcare': 'dentist', 'name': 'DentalStudio Odontologia Especializada'}}"
"{'type': 'node', 'id': 9216410809, 'lat': -22.7467205, 'lon': -47.1715517, 'tags': {'addr:housenumber': '772', 'amenity': 'dentist', 'healthcare': 'dentist', 'name': 'Bersan'}}"
"{'type': 'node', 'id': 9216448395, 'lat': -22.7467633, 'lon': -47.1714931, 'tags': {'addr:housenumber': '772', 'amenity': 'clinic', 'healthcare': 'clinic', 'name': 'Concept'}}"
"{'type': 'node', 'id': 10023113165, 'lat': -22.7771397, 'lon': -47.2931702, 'tags': {'amenity': 'pharmacy', 'dispensing': 'yes', 'healthcare': 'pharmacy'}}"
"{'type': 'node', 'id': 10115003528, 'lat': -22.5983228, 'lon': -46.5294543, 'tags': {'addr:city': 'Socorro', 'addr:housenumber': '129', 'addr:postcode': '13960-000', 'addr:street': 'Avenida Doutor Renato Silva', 'addr:suburb': 'Centro', 'amenity': 'hospital', 'email': 'hospital@santacasasocorro.com.br', 'emergency': 'yes', 'healthcare': 'hospital', 'name': 'Pronto-Socorro', 'operator': 'Irmandade da Santa Casa de Misericórdia de Socorro', 'phone': '+55 19 3855-9555', 'website': 'http://santacasasocorro.com.br/', 'wheelchair': 'yes'}}"
"{'type': 'node', 'id': 10134348787, 'lat': -22.708188, 'lon': -46.9898467, 'tags': {'addr:housenumber': '459', 'addr:street': 'Rua Candido Bueno', 'amenity': 'clinic', 'description': 'Clínica de fisioterapia', 'healthcare:speciality': 'physiotherapy', 'name': 'Fisio Corpo', 'opening_hours': 'Mo-Fr 07:00-20:00', 'phone': '19 99984-0037'}}"
"{'type': 'node', 'id': 10170170217, 'lat': -22.7055241, 'lon': -46.9880685, 'tags': {'addr:housenumber': '363', 'addr:postcode': '13910005', 'addr:street': 'Rua Silvia Bueno', 'amenity': 'clinic', 'healthcare': 'clinic', 'name': 'Clinica Selten', 'name:en': 'Selten Clinic', 'opening_hours': 'Mo-Fr 08:00-19:00', 'phone': '+55 19 99913-0708'}}"
"{'type': 'node', 'id': 10589934000, 'lat': -22.0676805, 'lon': -46.569125, 'tags': {'amenity': 'clinic', 'fixme': 'Rever nome e completar detalhes.', 'healthcare': 'clinic', 'name': 'Centro Municipal de Saúde', 'operator': 'Prefeitura Municipal de Andradas', 'operator:type': 'government'}}"
"{'type': 'node', 'id': 10678986005, 'lat': -22.7082239, 'lon': -46.7762215, 'tags': {'addr:housenumber': '2600', 'addr:postcode': '13900-560', 'addr:street': 'Avenida Doutor Carlos Burgos', 'healthcare': 'laboratory', 'name': 'AME Ambulatório Médico de Especialidades', 'opening_hours': 'Mo-Fr 07:00-19:00'}}"
"{'type': 'node', 'id': 10682184509, 'lat': -22.7120012, 'lon': -46.7699533, 'tags': {'addr:housenumber': '187', 'addr:postcode': '13904-025', 'addr:street': 'Rua Cabo João dos Santos', 'amenity': 'pharmacy', 'healthcare': 'pharmacy', 'name': 'Farmácia Ribeirão', 'name:pt': 'Farmácia Ribeirão loja 01', 'opening_hours': 'Mo-Fr 07:00-19:00; Sa 07:00-14:00', 'phone': '3807-4534'}}"
"{'type': 'node', 'id': 10682184610, 'lat': -22.710723, 'lon': -46.7709736, 'tags': {'addr:housenumber': '12', 'addr:postcode': '13900-415', 'addr:street': 'Praça Virgílio de Araújo', 'amenity': 'pharmacy', 'healthcare': 'pharmacy', 'name': 'Farmácia Ribeirão loja 02', 'opening_hours': 'Mo-Fr 07:00-19:00; Sa 07:00-14:00'}}"
"{'type': 'node', 'id': 10684245317, 'lat': -22.7168842, 'lon': -46.7682968, 'tags': {'amenity': 'hospital', 'healthcare': 'hospital'}}"
"{'type': 'node', 'id': 10686282205, 'lat': -22.7083487, 'lon': -46.7729589, 'tags': {'addr:housenumber': '471', 'addr:postcode': '13900-400', 'addr:street': 'Avenida Bernardino de Campos', 'amenity': 'pharmacy', 'brand': 'Droga Raia', 'brand:wikidata': 'Q10357101', 'healthcare': 'pharmacy', 'name': 'Droga Raia', 'opening_hours': 'Mo-Sa 07:00-23:00', 'phone': '998793637'}}"
"{'type': 'node', 'id': 10686282406, 'lat': -22.703596, 'lon': -46.7687008, 'tags': {'addr:housenumber': '61', 'addr:postcode': '13900-490', 'addr:street': 'Rua Ferrucio Guarizzo', 'amenity': 'pharmacy', 'healthcare': 'pharmacy', 'name': 'Farmácia de Manipulação Nova Hera', 'opening_hours': 'Mo-Fr 08:00-18:30; Sa 08:00-12:00', 'phone': '3808-5766', 'website': 'https://www.farmacianovahera.com.br/'}}"
"{'type': 'node', 'id': 10686400107, 'lat': -22.7002696, 'lon': -46.7706667, 'tags': {'addr:street': 'Rua Gustavo Vasconcelos', 'amenity': 'pharmacy', 'healthcare': 'pharmacy', 'name': 'Farmácia de Especialidades'}}"
"{'type': 'node', 'id': 10688344505, 'lat': -22.7080546, 'lon': -46.7706753, 'tags': {'addr:housenumber': '207', 'addr:postcode': '13900-000', 'addr:street': 'Avenida Bernardino de Campos', 'amenity': 'clinic', 'healthcare': 'clinic', 'healthcare:speciality': 'nephrology', 'name': 'CENAM Centro de Nefrologia de Amparo', 'opening_hours': 'Mo-Sa 06:00-21:00', 'phone': '(19)3817-1379', 'website': 'https://cenamhemodialise.com.br'}}"
"{'type': 'node', 'id': 10688804505, 'lat': -22.7065939, 'lon': -46.7706254, 'tags': {'addr:housenumber': '173', 'addr:postcode': '13900-400', 'addr:street': 'Avenida Bernardino de Campos', 'amenity': 'clinic', 'healthcare': 'clinic', 'name': 'Instituto de Gastroenterologia de Amparo', 'opening_hours': 'Mo-Fr 08:00-17:00', 'phone': '3808-1373, 3808-6153, 99649-0770'}}"
"{'type': 'node', 'id': 10688804506, 'lat': -22.7081392, 'lon': -46.7703412, 'tags': {'addr:housenumber': '130', 'addr:street': 'Rua Doutor Vasco de Toledo', 'amenity': 'clinic', 'healthcare': 'clinic', 'name': 'Instituto Gastro Procto'}}"
"{'type': 'node', 'id': 10688804507, 'lat': -22.7085237, 'lon': -46.7723244, 'tags': {'addr:housenumber': '127', 'addr:postcode': '13900-450', 'addr:street': 'Avenida Doutor Arruda', 'healthcare': 'laboratory', 'name': 'PetsLab Laboratório Veterinário', 'opening_hours': 'Mo-We, Fr 09:00-17:30; Th 09:00-13:00; Sa 09:00-12:00', 'phone': '(19)99722-9478'}}"
"{'type': 'node', 'id': 10688804605, 'lat': -22.7041225, 'lon': -46.7635201, 'tags': {'addr:housenumber': '472', 'addr:postcode': '13900-000', 'addr:street': 'Rua Quintino Bocaiúva', 'amenity': 'doctors', 'email': 'medtrans@yahoo.com.br', 'healthcare': 'doctor', 'name': 'Medtrans Exames Detran', 'name:pt': 'MEDTRANS Exames Médicos Detran', 'phone': '3807-6757'}}"
"{'type': 'node', 'id': 10688982605, 'lat': -22.710099, 'lon': -46.7710476, 'tags': {'addr:housenumber': '406', 'addr:street': 'Rua Doutor Vasco de Toledo', 'amenity': 'dentist', 'healthcare': 'dentist', 'name': 'Dentista - Luiz Zanarella'}}"
"{'type': 'node', 'id': 10689042505, 'lat': -22.7065668, 'lon': -46.7707369, 'tags': {'addr:housenumber': '176', 'addr:postcode': '13900-400', 'addr:street': 'Avenida Bernardino de Campos', 'amenity': 'pharmacy', 'healthcare': 'pharmacy', 'name': 'Farmácia Unimed', 'opening_hours': 'Mo-Fr 08:00-22:00; Sa 09:00-15:00', 'phone': '3808-7099', 'website': 'http://www.unimedamparo.coop.br/'}}"
"{'type': 'node', 'id': 10689378705, 'lat': -22.6993897, 'lon': -46.7680272, 'tags': {'addr:housenumber': '136', 'addr:postcode': '13901-310', 'addr:street': 'Rua Ana Cintra', 'amenity': 'pharmacy', 'name': 'Drogaria Anna Cintra', 'opening_hours': 'Mo-Sa 07:00-21:00; Su 08:00-19:00', 'phone': '3807-5673', 'shop': 'chemist', 'website': 'https://drogariaannacintra.negocio.site/'}}"
"{'type': 'node', 'id': 10691171709, 'lat': -22.698579, 'lon': -46.7689597, 'tags': {'addr:housenumber': '1626', 'addr:postcode': '13900-560', 'addr:street': 'Avenida Doutor Carlos Burgos', 'amenity': 'clinic', 'healthcare': 'clinic', 'name': 'Clinica CDE - Diagnóstico por Imagem', 'opening_hours': 'Mo-Fr 07:00-18:00', 'phone': '(19)3737-0770', 'website': 'https://www.clinicacde.com.br/site/'}}"
"{'type': 'node', 'id': 10694885905, 'lat': -22.7084542, 'lon': -46.7712203, 'tags': {'addr:housenumber': '157', 'addr:postcode': '13900-430', 'addr:street': 'Rua Monsenhor Pedro dos Santos', 'healthcare': 'laboratory', 'name': 'Posto de Coleta Laboratório Unimed', 'opening_hours': 'Mo-Sa 06:30-14:30', 'website': 'https://www.unimed.coop.br/site/web/amparo/exames-laboratoriais'}}"
"{'type': 'node', 'id': 10694886005, 'lat': -22.7011352, 'lon': -46.7634671, 'tags': {'addr:housenumber': '90', 'addr:postcode': '13900-090', 'addr:street': 'Rua XV de Novembro', 'healthcare': 'laboratory', 'name': 'SM Laboratório Análises', 'opening_hours': 'Mo-Fr 06:30-18:00; Sa 06:30-11:00', 'phone': '3807-8785', 'website': 'https://smlaboratorio.com.br/'}}"
"{'type': 'node', 'id': 10778976419, 'lat': -22.7078341, 'lon': -46.7736214, 'tags': {'addr:housenumber': '321', 'addr:postcode': '13900-570', 'addr:street': 'Avenida Saudade', 'amenity': 'hospital', 'healthcare': 'hospital', 'name': 'Espaço Saúde Unimed', 'ref:CNES': '4109341', 'ref:vatin': 'BR65422339001527'}}"
"{'type': 'node', 'id': 10787672411, 'lat': -22.5860212, 'lon': -46.5252511, 'tags': {'amenity': 'pharmacy', 'healthcare': 'pharmacy'}}"
"{'type': 'node', 'id': 10797126318, 'lat': -22.7002763, 'lon': -46.7704438, 'tags': {'addr:housenumber': '155', 'addr:postcode': '13900-000', 'addr:street': 'Rua José Camargo Bichinho', 'amenity': 'clinic', 'name': 'UBS Saúde Centro'}}"
"{'type': 'node', 'id': 10844410981, 'lat': -21.7849617, 'lon': -46.5557378, 'tags': {'amenity': 'pharmacy', 'healthcare': 'pharmacy', 'name': 'FARMACIA ARAÚJO'}}"
"{'type': 'node', 'id': 10844411320, 'lat': -21.7848393, 'lon': -46.5864743, 'tags': {'amenity': 'pharmacy', 'healthcare': 'pharmacy'}}"
"{'type': 'node', 'id': 10844825013, 'lat': -21.7854419, 'lon': -46.5770634, 'tags': {'amenity': 'pharmacy', 'healthcare': 'pharmacy'}}"
"{'type': 'node', 'id': 10992283113, 'lat': -22.5738204, 'lon': -47.163459, 'tags': {'healthcare': 'psychotherapist', 'name': 'Sandra M. Ferreira - Psicanálise Clínica'}}"
"{'type': 'node', 'id': 10997925686, 'lat': -22.3165932, 'lon': -46.3277814, 'tags': {'amenity': 'pharmacy', 'healthcare': 'pharmacy', 'name': 'Drogaria Ultra Popular'}}"
"{'type': 'node', 'id': 11076097451, 'lat': -22.7043782, 'lon': -47.2969238, 'tags': {'addr:street': 'Avenida Cecília Meireles', 'amenity': 'pharmacy', 'dispensing': 'yes', 'drive_through': 'no', 'healthcare': 'pharmacy', 'name': 'Drogarias Pratika Popular'}}"
"{'type': 'node', 'id': 11079242257, 'lat': -22.7419184, 'lon': -47.308361, 'tags': {'addr:housenumber': '415', 'addr:street': 'Avenida da Saúde', 'addr:suburb': 'Jardim Nossa Senhora de Fátima', 'amenity': 'hospital', 'emergency': 'yes', 'healthcare': 'hospital', 'name': 'Pronto Socorro Central Luiza da Motta Tebaldi', 'ref:CNES': '2028050', 'source': 'CNES'}}"
"{'type': 'node', 'id': 11118832278, 'lat': -22.7025635, 'lon': -46.9953478, 'tags': {'amenity': 'hospital', 'healthcare': 'hospital'}}"
"{'type': 'node', 'id': 11165481711, 'lat': -22.7466715, 'lon': -47.3294805, 'tags': {'blood:whole': 'yes', 'healthcare': 'blood_donation', 'name': 'banco de sangue hospital são francisco'}}"
"{'type': 'node', 'id': 11165481712, 'lat': -22.7501574, 'lon': -47.3277521, 'tags': {'healthcare': 'blood_donation', 'name': 'Serviço Medicina Transfusional'}}"
"{'type': 'node', 'id': 11165481713, 'lat': -22.7413976, 'lon': -47.3086759, 'tags': {'healthcare': 'blood_donation', 'name': 'Cohe Prest Serv Hemat Clin Hemot Onc Clinic S S'}}"
"{'type': 'node', 'id': 11500342025, 'lat': -22.6231192, 'lon': -47.054728, 'tags': {'addr:city': 'Holambra', 'addr:housenumber': '92', 'addr:postcode': '13825000', 'addr:street': 'Rua Assen', 'addr:suburb': 'Nova Holanda', 'healthcare': 'holistic_therapist', 'healthcare:speciality': 'práticas_integrativas;desenvolvimento_pessoal;autoconhecimento;gestao_de_projetos;coaching;barras_de_access', 'name': 'SouProjetos', 'office': 'therapist', 'opening_hours': 'Mo-Sa 09:00-18:00', 'phone': '+55 19 999893252', 'website': 'https://www.saibamais.souprojetos.com.br/'}}"
"{'type': 'node', 'id': 11500983279, 'lat': -22.7357837, 'lon': -47.3573876, 'tags': {'addr:city': 'Americana', 'addr:housenumber': '186', 'addr:street': 'Avenida da Amizade', 'addr:suburb': 'Vila Dainese', 'amenity': 'pharmacy', 'dispensing': 'yes', 'drive_through': 'no', 'healthcare': 'pharmacy', 'name': 'Drogal', 'opening_hours': 'Mo-Su 07:00-23:59', 'phone': '+55 19 3458 7744', 'website': 'https://www.drogal.com.br/'}}"
"{'type': 'node', 'id': 11918617926, 'lat': -21.9764132, 'lon': -46.7983512, 'tags': {'amenity': 'doctors', 'healthcare': 'doctor', 'name': 'Oftalmoclínica Arrigucci'}}"
"{'type': 'node', 'id': 11948388103, 'lat': -22.2745463, 'lon': -46.1658038, 'tags': {'amenity': 'pharmacy', 'healthcare': 'pharmacy', 'name': 'Ultra Popular'}}"
"{'type': 'node', 'id': 11981595126, 'lat': -22.0708496, 'lon': -46.5722288, 'tags': {'amenity': 'doctors', 'healthcare': 'doctor', 'name': 'Instituto Pro Vitta'}}"
"{'type': 'node', 'id': 12102851133, 'lat': -21.7862721, 'lon': -46.5657692, 'tags': {'amenity': 'pharmacy', 'healthcare': 'pharmacy', 'name': 'Santa Cecília'}}"
"{'type': 'node', 'id': 12102860758, 'lat': -21.7868798, 'lon': -46.5459993, 'tags': {'amenity': 'pharmacy', 'brand': 'Drogasil', 'brand:wikidata': 'Q5308185', 'healthcare': 'pharmacy', 'name': 'Drogasil', 'wheelchair': 'yes'}}"
"{'type': 'node', 'id': 12108741301, 'lat': -22.7035797, 'lon': -46.986089, 'tags': {'addr:housenumber': '1200', 'addr:postcode': '13820000', 'addr:street': 'Rua Julio Frank', 'amenity': 'clinic', 'name': 'Fisiomed', 'opening_hours': 'Mo-Fr 09:00-18:00', 'phone': '+55 19 3837-1099'}}"
"{'type': 'node', 'id': 12158312401, 'lat': -22.684012, 'lon': -46.9853078, 'tags': {'addr:housenumber': '195', 'addr:postcode': '13820-000', 'addr:street': 'Rua Pinto Catão', 'amenity': 'clinic', 'name': 'UBS XII de Setembro', 'opening_hours': 'Mo-Fr 07:00-20:00', 'outdoor_seating': 'no', 'phone': '+55 19 3867-0034'}}"
"{'type': 'node', 'id': 12280910185, 'lat': -22.6100776, 'lon': -46.0577006, 'tags': {'amenity': 'pharmacy', 'brand': 'Pague Menos', 'brand:wikidata': 'Q7124466', 'healthcare': 'pharmacy', 'name': 'Pague Menos'}}"
"{'type': 'node', 'id': 12469926321, 'lat': -22.7220711, 'lon': -47.0223727, 'tags': {'amenity': 'clinic', 'healthcare': 'clinic', 'name': 'Centro Clinico - UNIFAJ'}}"
