OSM_Data
"{'type': 'node', 'id': 2450554146, 'lat': -8.9764077, 'lon': -38.2156603, 'tags': {'amenity': 'hospital', 'name': 'Hospital Municipal Dr. Francisco Simões de Lima'}}"
"{'type': 'node', 'id': 2452988628, 'lat': -8.9774603, 'lon': -38.2244012, 'tags': {'amenity': 'hospital', 'name': 'Clínica São Gabriel e Laboratório de Analises Clinicas'}}"
"{'type': 'node', 'id': 2453233680, 'lat': -8.9723274, 'lon': -38.2259809, 'tags': {'amenity': 'hospital', 'name': 'PSF Renascer'}}"
"{'type': 'node', 'id': 2454129142, 'lat': -8.9772699, 'lon': -38.2253431, 'tags': {'amenity': 'hospital', 'name': 'PSF Dr. Herminio'}}"
"{'type': 'node', 'id': 2454129172, 'lat': -8.9720758, 'lon': -38.220369, 'tags': {'amenity': 'hospital', 'name': 'PSF Antônio Firmino'}}"
"{'type': 'node', 'id': 2454129176, 'lat': -8.9832373, 'lon': -38.2227261, 'tags': {'amenity': 'hospital', 'name': 'PSF Santa Inês'}}"
"{'type': 'node', 'id': 2454223051, 'lat': -8.9817515, 'lon': -38.2190918, 'tags': {'amenity': 'pharmacy', 'name': 'Farmácia Dois Irmãos'}}"
"{'type': 'node', 'id': 2454223052, 'lat': -8.9818536, 'lon': -38.2192938, 'tags': {'amenity': 'hospital', 'name': 'Clinica Neurocordis e Laboratório Jaques'}}"
"{'type': 'node', 'id': 2454223054, 'lat': -8.9815116, 'lon': -38.2186212, 'tags': {'amenity': 'pharmacy', 'name': 'Farmácia Trindade'}}"
"{'type': 'node', 'id': 2454648583, 'lat': -8.9799802, 'lon': -38.2172527, 'tags': {'amenity': 'pharmacy', 'name': 'Farmácia Santa Luzia'}}"
"{'type': 'node', 'id': 2454660726, 'lat': -8.9810462, 'lon': -38.2176409, 'tags': {'amenity': 'pharmacy', 'name': 'Farmácia Central'}}"
"{'type': 'node', 'id': 2454671197, 'lat': -8.9785552, 'lon': -38.217373, 'tags': {'amenity': 'hospital', 'name': 'Lacpetro Laboratório de Analises Clinicas'}}"
"{'type': 'node', 'id': 2455512181, 'lat': -8.9737022, 'lon': -38.2204275, 'tags': {'amenity': 'pharmacy', 'name': 'Farmácia Gonzaga'}}"
"{'type': 'node', 'id': 2455535353, 'lat': -8.9831445, 'lon': -38.2221545, 'tags': {'amenity': 'hospital', 'name': 'Ideal Diagnóstico Laboratório de Analises Clinicas'}}"
"{'type': 'node', 'id': 2455549843, 'lat': -8.9768637, 'lon': -38.2229719, 'tags': {'amenity': 'pharmacy', 'name': 'Mercadinho e Farmácia Nova Vida'}}"
"{'type': 'node', 'id': 2456064608, 'lat': -8.9724373, 'lon': -38.2172862, 'tags': {'amenity': 'hospital', 'name': 'Hospital Particular São Thiago'}}"
"{'type': 'node', 'id': 2456064609, 'lat': -8.9763486, 'lon': -38.2163231, 'tags': {'amenity': 'hospital', 'name': 'Biomed Laboratório de Analises Clinicas'}}"
"{'type': 'node', 'id': 2567165765, 'lat': -8.9820358, 'lon': -38.2196404, 'tags': {'amenity': 'hospital', 'name': 'EndorCardio'}}"
"{'type': 'node', 'id': 2754894382, 'lat': -9.2613471, 'lon': -37.9344562, 'tags': {'amenity': 'hospital'}}"
"{'type': 'node', 'id': 3803320630, 'lat': -8.9780808, 'lon': -39.1021889, 'tags': {'amenity': 'hospital'}}"
"{'type': 'node', 'id': 3812412818, 'lat': -8.7197255, 'lon': -39.1141703, 'tags': {'amenity': 'hospital', 'name': 'Unidade de Saúde Básica'}}"
"{'type': 'node', 'id': 3812412838, 'lat': -8.7214753, 'lon': -39.1153934, 'tags': {'amenity': 'hospital'}}"
"{'type': 'node', 'id': 4224318901, 'lat': -8.0747425, 'lon': -39.1214232, 'tags': {'amenity': 'hospital', 'healthcare': 'hospital', 'name': 'Casa de Saúde NS de Fátima Maternidade'}}"
"{'type': 'node', 'id': 4224371845, 'lat': -8.0728168, 'lon': -39.1192755, 'tags': {'amenity': 'pharmacy', 'healthcare': 'pharmacy', 'name': 'Farmácia Santa Luzia'}}"
"{'type': 'node', 'id': 4224371846, 'lat': -8.072766, 'lon': -39.1190165, 'tags': {'amenity': 'pharmacy', 'healthcare': 'pharmacy', 'name': 'Farmácia Gaby'}}"
"{'type': 'node', 'id': 4224371850, 'lat': -8.0686981, 'lon': -39.1206378, 'tags': {'amenity': 'pharmacy', 'name': 'Farmácia São Jorge'}}"
"{'type': 'node', 'id': 5009363250, 'lat': -7.9920046, 'lon': -38.2987943, 'tags': {'amenity': 'clinic', 'name': 'FISIO SERRA', 'name:pt': 'Serrafisio'}}"
"{'type': 'node', 'id': 5015474686, 'lat': -7.9728606, 'lon': -38.2861758, 'tags': {'amenity': 'clinic'}}"
"{'type': 'node', 'id': 5024404522, 'lat': -7.9776468, 'lon': -38.3057068, 'tags': {'amenity': 'clinic', 'name': 'Posto de Saúde', 'name:pt': 'Posto de Saúde'}}"
"{'type': 'node', 'id': 5031048228, 'lat': -7.9783967, 'lon': -38.3053869, 'tags': {'amenity': 'hospital', 'name': 'Clinica de Repouso São Vicente'}}"
"{'type': 'node', 'id': 5033323336, 'lat': -7.9795577, 'lon': -38.2950844, 'tags': {'amenity': 'clinic', 'healthcare': 'clinic', 'name': 'UPAE - Unidade de Pronto Atendimento Especializado'}}"
"{'type': 'node', 'id': 5079452323, 'lat': -7.9794627, 'lon': -38.2944682, 'tags': {'amenity': 'clinic', 'healthcare': 'clinic', 'name': 'UPAE Dr Jose Alves de Carvalho Nunes', 'name:pt': 'UPAE Dr Jose Alves de Carvalho Nunes'}}"
"{'type': 'node', 'id': 5233648422, 'lat': -8.0738112, 'lon': -39.1213237, 'tags': {'amenity': 'pharmacy', 'healthcare': 'pharmacy', 'name': 'Drograria Socorro'}}"
"{'type': 'node', 'id': 6442943534, 'lat': -8.0731342, 'lon': -39.1234948, 'tags': {'amenity': 'hospital', 'healthcare': 'hospital', 'name': 'Pronto Socorro São Francisco'}}"
"{'type': 'node', 'id': 6584317612, 'lat': -8.0691661, 'lon': -39.1136909, 'tags': {'amenity': 'clinic', 'healthcare': 'clinic', 'name': 'Posto de Saúde'}}"
"{'type': 'node', 'id': 6584317637, 'lat': -8.0704061, 'lon': -39.1141566, 'tags': {'amenity': 'pharmacy', 'dispensing': 'yes', 'healthcare': 'pharmacy'}}"
"{'type': 'node', 'id': 8773928917, 'lat': -7.9928731, 'lon': -38.2986389, 'tags': {'amenity': 'clinic', 'healthcare': 'clinic', 'name': 'Espaço Neutro Psi', 'phone': '+55 87 9 9970 6265'}}"
"{'type': 'node', 'id': 8840176411, 'lat': -8.0756799, 'lon': -39.1215679, 'tags': {'addr:city': 'Salgueiro', 'addr:housenumber': '2301', 'addr:postcode': '56000000', 'addr:street': 'Avenida Aurora de Carvalho Rosa', 'addr:suburb': 'Santo Antonio', 'amenity': 'hospital', 'healthcare': 'hospital', 'healthcare:speciality': 'odontologia;clínica_odontológica', 'name': 'Salgueiro Center', 'opening_hours': 'Seg a Sex 08:00-18:00', 'operator': 'Salgueiro Center', 'operator:type': 'public', 'phone': '+55 87 3871 1044', 'website': 'https://www.salgueirocenter.com.br/'}}"
"{'type': 'node', 'id': 8880892917, 'lat': -7.9939867, 'lon': -38.2980799, 'tags': {'amenity': 'clinic', 'name': 'APAE'}}"
"{'type': 'node', 'id': 8895192317, 'lat': -7.9927267, 'lon': -38.298083, 'tags': {'amenity': 'hospital', 'name': 'Pronto Socorro São Jose'}}"
"{'type': 'node', 'id': 8954077460, 'lat': -8.6021845, 'lon': -38.5730314, 'tags': {'addr:city': 'Floresta-PE', 'addr:housenumber': '205', 'addr:postcode': '56400-000', 'addr:street': 'Avenida Paulo Pessoa Guerra', 'addr:suburb': 'Centro', 'amenity': 'dentist', 'healthcare': 'dentist', 'healthcare:speciality': 'dentist', 'name': 'Dr. Rildege Ferraz', 'operator': 'Rildege Ferraz'}}"
"{'type': 'node', 'id': 10072950913, 'lat': -8.0689344, 'lon': -39.1224187, 'tags': {'amenity': 'hospital', 'check_date': '2024-03-21', 'healthcare': 'hospital', 'name': 'Clínica do Coração'}}"
"{'type': 'node', 'id': 10072950916, 'lat': -8.0697821, 'lon': -39.1234607, 'tags': {'amenity': 'pharmacy', 'brand': 'Drogasil', 'brand:wikidata': 'Q5308185', 'dispensing': 'yes', 'healthcare': 'pharmacy', 'name': 'Drogasil', 'wheelchair': 'yes'}}"
"{'type': 'node', 'id': 11730759669, 'lat': -8.8496369, 'lon': -38.766533, 'tags': {'amenity': 'hospital', 'healthcare': 'hospital'}}"
"{'type': 'node', 'id': 11991191655, 'lat': -8.7280951, 'lon': -38.6852922, 'tags': {'addr:housenumber': '39', 'addr:postcode': '56430-000', 'addr:street': 'Rua Cícero Delgado dos Santos', 'addr:suburb': 'Centro', 'amenity': 'pharmacy', 'healthcare': 'pharmacy', 'name': 'Farmácia São João'}}"
"{'type': 'node', 'id': 11999990596, 'lat': -8.7269197, 'lon': -38.6865028, 'tags': {'addr:housenumber': '11', 'addr:postcode': '56430-000', 'addr:street': 'Avenida Patriarca Aníbal Cantarelli', 'addr:suburb': 'Centro', 'amenity': 'pharmacy', 'description': 'Farmácia', 'healthcare': 'pharmacy'}}"
