OSM_Data
"{'type': 'node', 'id': 976652143, 'lat': 5.8893875, 'lon': 10.5355739, 'tags': {'amenity': 'hospital', 'name': 'Rawado Philantropic Rural Hospital'}}"
"{'type': 'node', 'id': 1068916218, 'lat': 5.9866642, 'lon': 10.4370021, 'tags': {'amenity': 'pharmacy', 'dispensing': 'God Bless Phamacy'}}"
"{'type': 'node', 'id': 1069053734, 'lat': 6.0008731, 'lon': 10.4446815, 'tags': {'amenity': 'hospital', 'beds': '80', 'cases:HIV': '135 (Sep.2010)', 'cases:malaria': '187 (sep.2010)', 'consultation': '853 (Sep.2010)', 'laboratory': '3', 'name': 'Ndop District Hospital', 'pharmacy': '2', 'source': 'data of Sep 2010', 'staff_count:doctors': '2', 'staff_count:nurses': '15'}}"
"{'type': 'node', 'id': 1069081719, 'lat': 5.9741739, 'lon': 10.4875384, 'tags': {'amenity': 'hospital', 'beds': '18', 'cases:malaria': '65', 'consultation': '77', 'disease:AIDS': 'no', 'disease:HIV': 'no', 'laboratory': 'yes', 'name': 'Bamunka Rural Health Centre', 'pharmacy': 'yes', 'staff_count:nurses': '4'}}"
"{'type': 'node', 'id': 1069146913, 'lat': 5.9874847, 'lon': 10.4346599, 'tags': {'amenity': 'pharmacy', 'dispensing': 'Diamond Phamacy', 'name': 'Faith pharmacy'}}"
"{'type': 'node', 'id': 1069146931, 'lat': 5.9856367, 'lon': 10.4326955, 'tags': {'amenity': 'hospital', 'beds': '18', 'cases:HIV': '12/Month', 'cases:malaria': '310', 'consultation': '653', 'laboratory': 'yes', 'name': 'Bamunka Health Centre', 'pharmacy': 'yes', 'staff_count:doctors': '0', 'staff_count:nurses': '4'}}"
"{'type': 'node', 'id': 1069147032, 'lat': 5.9962855, 'lon': 10.4414882, 'tags': {'amenity': 'pharmacy', 'dispensing': ""The People's Medical store""}}"
"{'type': 'node', 'id': 2344205652, 'lat': 5.3071766, 'lon': 10.3138918, 'tags': {'amenity': 'hospital', 'name': 'Hôpital de Tchomso'}}"
"{'type': 'node', 'id': 2521654761, 'lat': 5.1783589, 'lon': 10.389764, 'tags': {'amenity': 'hospital', 'name': 'Clinique La Life'}}"
"{'type': 'node', 'id': 2569506791, 'lat': 5.2192608, 'lon': 9.3969359, 'tags': {'amenity': 'hospital', 'name': 'Presbyterian Health Services'}}"
"{'type': 'node', 'id': 3021902094, 'lat': 5.4808768, 'lon': 10.4130095, 'tags': {'amenity': 'pharmacy', 'dispensing': 'yes', 'name': 'Nouvelle Pharmacie du Bénin'}}"
"{'type': 'node', 'id': 3750523172, 'lat': 5.2862397, 'lon': 10.167447, 'tags': {'amenity': 'clinic', 'name': 'Centre de Santé de Fondjomekwet'}}"
"{'type': 'node', 'id': 4357384849, 'lat': 5.4735314, 'lon': 10.1468005, 'tags': {'amenity': 'clinic', 'name': 'Centre de santé Intégré de Mebou'}}"
"{'type': 'node', 'id': 4358961191, 'lat': 4.8197448, 'lon': 9.4610372, 'tags': {'amenity': 'clinic', 'name': 'Integrated Health Center', 'opening_hours': '24/7'}}"
"{'type': 'node', 'id': 4404298342, 'lat': 5.4347125, 'lon': 10.4190031, 'tags': {'addr:city': 'Mbouo, Bandjoun, Bafoussam', 'amenity': 'hospital', 'name': 'Hôpital Protestant de Mbouo'}}"
"{'type': 'node', 'id': 4409603501, 'lat': 5.8425896, 'lon': 10.4010447, 'tags': {'amenity': 'pharmacy', 'name': 'Pinpoh pharmaciy'}}"
"{'type': 'node', 'id': 4411348267, 'lat': 5.8604784, 'lon': 10.4452144, 'tags': {'amenity': 'clinic', 'name': 'Integrated Health Center', 'name:fr': 'Centre de Santé Intégré'}}"
"{'type': 'node', 'id': 4451085220, 'lat': 5.6265722, 'lon': 10.2589328, 'tags': {'amenity': 'pharmacy'}}"
"{'type': 'node', 'id': 4534873636, 'lat': 5.444414, 'lon': 10.0554768, 'tags': {'amenity': 'pharmacy', 'name': 'Pharmacie du Centre'}}"
"{'type': 'node', 'id': 4725674089, 'lat': 5.9811709, 'lon': 10.1794409, 'tags': {'amenity': 'clinic', 'name': 'St Louis Clinic', 'operator': 'Dr Nick Ngwayam'}}"
"{'type': 'node', 'id': 4780959821, 'lat': 5.9836417, 'lon': 10.135345, 'tags': {'addr:street': 'Ngomgham Street', 'amenity': 'doctors', 'healthcare': 'doctor', 'name': 'Doctor Azang', 'name:fr': 'Docteur Azang', 'phone': '677727345'}}"
"{'type': 'node', 'id': 4979030622, 'lat': 5.1421589, 'lon': 10.5208055, 'tags': {'addr:postcode': 'BP 9945', 'amenity': 'pharmacy', 'name': ""Pharmacie De L'espoir"", 'name:fr': ""Pharmacie De L'espoir"", 'phone': '33484513'}}"
"{'type': 'node', 'id': 6352362785, 'lat': 5.4402491, 'lon': 10.0500801, 'tags': {'amenity': 'pharmacy', 'name': 'Phamarcie de la Gare', 'opening_hours': 'Mo-Su 07:00-20:00', 'operator': 'MINSANTE'}}"
"{'type': 'node', 'id': 6352362786, 'lat': 5.4426714, 'lon': 10.0535936, 'tags': {'amenity': 'pharmacy', 'name': 'Phamarcie du Marché', 'opening_hours': 'Mo-Su 07:00-20:00', 'operator': 'MINSANTE'}}"
"{'type': 'node', 'id': 6352362787, 'lat': 5.4462702, 'lon': 10.0561683, 'tags': {'amenity': 'pharmacy', 'name': 'Grande pharmacie Lah', 'opening_hours': 'Mo-Su 07:00-20:00', 'operator': 'MINSANTE'}}"
"{'type': 'node', 'id': 6352362788, 'lat': 5.4478425, 'lon': 10.0600194, 'tags': {'amenity': 'pharmacy', 'name': 'Phamarcie de la Menoua', 'opening_hours': 'Mo-Su 07:00-20:00', 'operator': 'MINSANTE'}}"
"{'type': 'node', 'id': 6352362789, 'lat': 5.4582812, 'lon': 10.0692694, 'tags': {'amenity': 'pharmacy', 'name': ""Phamarcie de l'Unité"", 'opening_hours': 'Mo-Su 07:00-20:00', 'operator': 'MINSANTE'}}"
"{'type': 'node', 'id': 6352362790, 'lat': 5.452106, 'lon': 10.0674435, 'tags': {'amenity': 'pharmacy', 'name': 'Phamarcie Départementale', 'opening_hours': 'Mo-Su 07:00-20:00', 'operator': 'MINSANTE'}}"
"{'type': 'node', 'id': 6581096786, 'lat': 5.1421256, 'lon': 10.5335363, 'tags': {'amenity': 'clinic', 'name': 'Stade'}}"
"{'type': 'node', 'id': 6745200087, 'lat': 5.4444678, 'lon': 10.3886389, 'tags': {'amenity': 'hospital', 'name': 'Hôpital Catholique de Djunang'}}"
"{'type': 'node', 'id': 7387349585, 'lat': 4.9666946, 'lon': 9.9351988, 'tags': {'amenity': 'doctors', 'healthcare': 'doctor', 'name': 'Centre Médical du RASS', 'name:en': 'FAR medical centre'}}"
"{'type': 'node', 'id': 7815381492, 'lat': 5.3729973, 'lon': 10.4148181, 'tags': {'amenity': 'pharmacy', 'name': 'new todjon'}}"
"{'type': 'node', 'id': 7815381493, 'lat': 5.3717708, 'lon': 10.4126455, 'tags': {'amenity': 'pharmacy', 'name': 'koung khi'}}"
"{'type': 'node', 'id': 8321372518, 'lat': 5.6399859, 'lon': 10.3099532, 'tags': {'amenity': 'hospital', 'name': 'Hôpital Ad Lucem de Mbouda', 'name:en': 'Ad Lucem Hospital Mbouda', 'opening_hours': '24/7'}}"
"{'type': 'node', 'id': 8378179044, 'lat': 5.0546838, 'lon': 9.7478492, 'tags': {'amenity': 'hospital', 'healthcare': 'hospital', 'name': 'Muaku Health Centre', 'operator': 'Department of Health', 'operator:type': 'public'}}"
"{'type': 'node', 'id': 8676482528, 'lat': 5.4827335, 'lon': 10.4291904, 'tags': {'amenity': 'pharmacy', 'building': 'yes', 'name': 'Pharmacie BINAM'}}"
"{'type': 'node', 'id': 8697384620, 'lat': 5.2554321, 'lon': 10.3984658, 'tags': {'amenity': 'hospital', 'name': 'CMA Bangou'}}"
"{'type': 'node', 'id': 8697384622, 'lat': 5.2500259, 'lon': 10.4009707, 'tags': {'amenity': 'clinic', 'healthcare': 'clinic', 'name': 'CSI Ad Lucem Bangou Ville'}}"
"{'type': 'node', 'id': 8985917717, 'lat': 5.3610801, 'lon': 10.4139241, 'tags': {'amenity': 'hospital', 'name': 'Hôpital de Bandjoun'}}"
"{'type': 'node', 'id': 9063451640, 'lat': 5.1627255, 'lon': 10.1912603, 'tags': {'amenity': 'pharmacy', 'dispensing': 'yes', 'healthcare': 'pharmacy', 'name': 'pharmacie banka'}}"
"{'type': 'node', 'id': 9063451647, 'lat': 5.1830199, 'lon': 10.215069, 'tags': {'healthcare': 'hospice', 'name': 'hopital manila'}}"
"{'type': 'node', 'id': 9737595017, 'lat': 5.39339, 'lon': 10.4025428, 'tags': {'amenity': 'clinic', 'name': 'Centre de santé de Famleng Topo'}}"
"{'type': 'node', 'id': 10127841817, 'lat': 5.6866185, 'lon': 10.3741937, 'tags': {'amenity': 'hospital'}}"
"{'type': 'node', 'id': 11332785669, 'lat': 5.329413, 'lon': 9.4230595, 'tags': {'amenity': 'hospital', 'name': 'CMA NGUTI'}}"
"{'type': 'node', 'id': 11332816069, 'lat': 5.4355133, 'lon': 9.481055, 'tags': {'amenity': 'hospital', 'name': 'EYANG INTERGRATED HEALTH CENTRE'}}"
"{'type': 'node', 'id': 11335541670, 'lat': 5.01015, 'lon': 9.4192567, 'tags': {'amenity': 'hospital', 'name': 'MBAKWA SUPE  INTERGRATED HC'}}"
"{'type': 'node', 'id': 11335551669, 'lat': 5.0608267, 'lon': 9.395705, 'tags': {'amenity': 'hospital', 'name': 'WONE INTERGRATED HC'}}"
"{'type': 'node', 'id': 11338053469, 'lat': 5.2943717, 'lon': 9.4241183, 'tags': {'amenity': 'hospital', 'name': 'AAH MOBILE CLINIC SITE  MBOKA'}}"
"{'type': 'node', 'id': 11338187769, 'lat': 4.9005316, 'lon': 9.4726802, 'tags': {'amenity': 'hospital', 'name': 'KURUME INTERGRATED HC'}}"
"{'type': 'node', 'id': 11372839970, 'lat': 5.0868283, 'lon': 9.8027983, 'tags': {'amenity': 'hospital', 'name': 'INTERGRATED HEALTH CENTER NKIKOH'}}"
"{'type': 'node', 'id': 11377174969, 'lat': 5.0371068, 'lon': 9.7796785, 'tags': {'amenity': 'hospital', 'name': 'INTERGRATED HEALTH CENTER NKACK'}}"
"{'type': 'node', 'id': 11377239069, 'lat': 5.1268375, 'lon': 9.8166436, 'tags': {'amenity': 'hospital', 'name': 'INTERGRATED HEALTH CENTER  MBOUASSOUM'}}"
