OSM_Data
"{'type': 'node', 'id': 680527263, 'lat': 12.1371284, 'lon': -86.2585705, 'tags': {'amenity': 'pharmacy', 'name': 'Farmacia Cristo Rey'}}"
"{'type': 'node', 'id': 806528000, 'lat': 12.1072751, 'lon': -85.3705025, 'tags': {'amenity': 'pharmacy', 'name': 'Flavia'}}"
"{'type': 'node', 'id': 806528008, 'lat': 12.1052555, 'lon': -85.3726721, 'tags': {'amenity': 'hospital', 'name': 'Cemeqsa'}}"
"{'type': 'node', 'id': 828483301, 'lat': 12.1047776, 'lon': -85.3668811, 'tags': {'amenity': 'pharmacy', 'name': 'Farmacia El Farmaco', 'phone': '25122701'}}"
"{'type': 'node', 'id': 828504675, 'lat': 12.1073101, 'lon': -85.3645203, 'tags': {'amenity': 'pharmacy', 'dispensing': 'yes', 'name': 'Farmacia Cristal'}}"
"{'type': 'node', 'id': 828504682, 'lat': 12.1050082, 'lon': -85.3649739, 'tags': {'amenity': 'pharmacy', 'name': 'Gaby'}}"
"{'type': 'node', 'id': 828504683, 'lat': 12.1033637, 'lon': -85.3666027, 'tags': {'amenity': 'pharmacy', 'name': 'Baez'}}"
"{'type': 'node', 'id': 828504684, 'lat': 12.1084148, 'lon': -85.3660823, 'tags': {'amenity': 'pharmacy', 'name': 'San Ramon'}}"
"{'type': 'node', 'id': 828504685, 'lat': 12.1083099, 'lon': -85.3660126, 'tags': {'amenity': 'hospital', 'name': 'Clínica San Ramon'}}"
"{'type': 'node', 'id': 918847098, 'lat': 12.1240908, 'lon': -86.2617065, 'tags': {'amenity': 'pharmacy', 'healthcare': 'pharmacy', 'name': 'Farma Descuento', 'old_name': 'FARMART', 'source': 'KG Ground Survey 2016'}}"
"{'type': 'node', 'id': 935819775, 'lat': 12.1343752, 'lon': -86.2819919, 'tags': {'amenity': 'clinic', 'healthcare': 'clinic', 'operator': 'MediClínica'}}"
"{'type': 'node', 'id': 1143989028, 'lat': 11.9307617, 'lon': -85.9532012, 'tags': {'amenity': 'pharmacy', 'name': 'Cyber Farmacia Interplaza', 'source': 'KG Ground Survey 2016'}}"
"{'type': 'node', 'id': 1144051572, 'lat': 11.9339909, 'lon': -85.951046, 'tags': {'addr:street': 'Calle Santa Lucía', 'amenity': 'clinic', 'health_facility:type': 'Centro de atención integral a la mujer', 'healthcare': 'clinic', 'healthcare:speciality': 'gynaecology;clinic', 'name': 'Clínica De Atención Integral a La Mujer Vida Plena', 'social_facility:for': 'women'}}"
"{'type': 'node', 'id': 1144051632, 'lat': 11.9333092, 'lon': -85.9551391, 'tags': {'amenity': 'doctors', 'healthcare': 'doctor', 'source': 'KG Ground Survey 2016'}}"
"{'type': 'node', 'id': 1144051690, 'lat': 11.9337285, 'lon': -85.9551337, 'tags': {'amenity': 'pharmacy', 'name': 'Framacia Gracy'}}"
"{'type': 'node', 'id': 1147472217, 'lat': 11.9286509, 'lon': -85.9618777, 'tags': {'healthcare': 'laboratory', 'name': 'Laboratorio Clínica Xalteva'}}"
"{'type': 'node', 'id': 1147472303, 'lat': 11.929667, 'lon': -85.9591373, 'tags': {'amenity': 'dentist', 'healthcare': 'dentist'}}"
"{'type': 'node', 'id': 1147509479, 'lat': 11.9286067, 'lon': -85.9639761, 'tags': {'amenity': 'doctors', 'healthcare': 'doctor'}}"
"{'type': 'node', 'id': 1287108262, 'lat': 12.1403486, 'lon': -86.2232299, 'tags': {'amenity': 'doctors', 'emergency': 'no', 'healthcare': 'doctor', 'name': 'Clínica Municipal de Villa Progreso', 'operator': 'MINSA'}}"
"{'type': 'node', 'id': 1719342702, 'lat': 12.1173765, 'lon': -86.2481266, 'tags': {'amenity': 'hospital', 'designation': 'Medicina Oriental', 'emergency': 'no', 'healthcare': 'hospital', 'name': 'Tanyari'}}"
"{'type': 'node', 'id': 1748811798, 'lat': 12.1149245, 'lon': -86.2651668, 'tags': {'amenity': 'hospital', 'name': 'Hospital Monte España', 'source': 'survey'}}"
"{'type': 'node', 'id': 1766571525, 'lat': 12.1136541, 'lon': -86.3159756, 'tags': {'amenity': 'pharmacy', 'name': 'Farmacia Medco'}}"
"{'type': 'node', 'id': 1797752903, 'lat': 12.1253479, 'lon': -86.2700001, 'tags': {'amenity': 'clinic', 'healthcare': 'clinic', 'name': 'UCA Clinic'}}"
"{'type': 'node', 'id': 1827676412, 'lat': 12.5319659, 'lon': -85.7095461, 'tags': {'amenity': 'hospital', 'emergency': 'yes', 'name': 'Centro de Salud Santa Lucia'}}"
"{'type': 'node', 'id': 1848788712, 'lat': 12.1517182, 'lon': -86.1863206, 'tags': {'amenity': 'pharmacy', 'name': 'Farmacia Rio'}}"
"{'type': 'node', 'id': 1875377092, 'lat': 12.1033311, 'lon': -86.2481439, 'tags': {'amenity': 'pharmacy', 'healthcare': 'pharmacy', 'name': 'Farma Descuento', 'old_name': 'Farmex', 'source': 'survey'}}"
"{'type': 'node', 'id': 1875377555, 'lat': 12.1033949, 'lon': -86.247649, 'tags': {'amenity': 'pharmacy', 'healthcare': 'pharmacy', 'name': 'Medco', 'source': 'survey'}}"
"{'type': 'node', 'id': 1933091330, 'lat': 12.0981932, 'lon': -86.2401994, 'tags': {'addr:city': 'Managua', 'amenity': 'pharmacy', 'healthcare': 'pharmacy', 'name': 'Farmadescuento', 'phone': '2276-1601 / 2276-2769'}}"
"{'type': 'node', 'id': 2110022106, 'lat': 12.1457817, 'lon': -86.2343638, 'tags': {'amenity': 'pharmacy', 'healthcare': 'pharmacy', 'name': 'Farma Costo'}}"
"{'type': 'node', 'id': 2124165116, 'lat': 12.4148479, 'lon': -85.7512458, 'tags': {'amenity': 'hospital', 'designation': 'Puesto Médico', 'emergency': 'no', 'name': 'Centro De Salud', 'source': 'MINSA'}}"
"{'type': 'node', 'id': 2141466262, 'lat': 12.4150337, 'lon': -85.7451645, 'tags': {'amenity': 'hospital'}}"
"{'type': 'node', 'id': 2154665738, 'lat': 11.8504745, 'lon': -86.199928, 'tags': {'amenity': 'pharmacy', 'name': 'FarmaCentro'}}"
"{'type': 'node', 'id': 2339941660, 'lat': 12.0668192, 'lon': -86.214206, 'tags': {'amenity': 'pharmacy', 'name': 'Farma Descuento'}}"
"{'type': 'node', 'id': 2342008660, 'lat': 12.135459, 'lon': -86.2838892, 'tags': {'amenity': 'hospital', 'emergency': 'yes', 'healthcare': 'hospital', 'name': 'Hospital de Especialidades'}}"
"{'type': 'node', 'id': 2343833417, 'lat': 12.0726438, 'lon': -86.2178063, 'tags': {'amenity': 'pharmacy', 'name': 'Farmacia Matagalpa', 'phone': '2279-7017'}}"
"{'type': 'node', 'id': 2343880075, 'lat': 12.0653206, 'lon': -86.2120771, 'tags': {'addr:street': 'NIC-4', 'amenity': 'pharmacy', 'name': 'Farmacia Conny #2', 'source': 'KG Ground Survey 2016'}}"
"{'type': 'node', 'id': 2345162320, 'lat': 12.0984162, 'lon': -86.2408744, 'tags': {'amenity': 'pharmacy', 'delivery': 'yes', 'healthcare': 'pharmacy', 'name': 'Medco', 'opening_hours': 'Mo-Su 07:00-23:00', 'phone': '1-800-2224', 'source': 'survey'}}"
"{'type': 'node', 'id': 2353796987, 'lat': 12.1103634, 'lon': -86.2531129, 'tags': {'addr:city': 'Managua', 'addr:housename': 'Centro Comercial Camino de Oriente, contiguo al POPS', 'addr:street': 'Carretera a Masaya', 'amenity': 'pharmacy', 'dispensing': 'yes', 'name': 'Farma City', 'phone': '1 800 2121', 'source': 'KG Ground Survey 2016', 'website': 'https://www.tufarmacity.com/'}}"
"{'type': 'node', 'id': 2376234047, 'lat': 12.0861439, 'lon': -86.2338616, 'tags': {'amenity': 'pharmacy', 'designation': 'Pharmacy', 'dispensing': 'yes', 'name': 'Farmacia Hospital Vivian Pellas'}}"
"{'type': 'node', 'id': 2397753644, 'lat': 12.1251147, 'lon': -86.2244902, 'tags': {'amenity': 'hospital', 'healthcare': 'hospital', 'name': 'Centro de salud Primero de Mayo'}}"
"{'type': 'node', 'id': 2448549399, 'lat': 12.1501068, 'lon': -86.2974654, 'tags': {'addr:city': 'Managua', 'amenity': 'pharmacy', 'name': 'Farmacia Bravo´s'}}"
"{'type': 'node', 'id': 2454991507, 'lat': 12.1310976, 'lon': -86.2938651, 'tags': {'amenity': 'pharmacy', 'name': 'Buen Día'}}"
"{'type': 'node', 'id': 2462432460, 'lat': 12.1060155, 'lon': -86.2632122, 'tags': {'amenity': 'pharmacy', 'delivery': 'yes', 'description': 'Farmacia express', 'name': 'FarmEx', 'phone': '1-800-2223', 'source': 'survey'}}"
"{'type': 'node', 'id': 2462598799, 'lat': 12.1080059, 'lon': -86.2467327, 'tags': {'amenity': 'pharmacy', 'name': 'Farmacia Lomas del Valle', 'source': 'survey'}}"
"{'type': 'node', 'id': 2462598801, 'lat': 12.1079382, 'lon': -86.2467282, 'tags': {'amenity': 'dentist', 'description': 'centro de especialidades dentales', 'healthcare': 'dentist', 'name': 'Policlínica dental Lomas de Valle', 'source': 'survey'}}"
"{'type': 'node', 'id': 2463260434, 'lat': 12.1040123, 'lon': -86.2492269, 'tags': {'amenity': 'pharmacy', 'healthcare': 'pharmacy', 'level': '1', 'name': 'Medco', 'opening_hours': 'Mo-Sa 09:00-21:00; Su 09:00-20:00', 'phone': '2276-5218', 'source': 'survey'}}"
"{'type': 'node', 'id': 2463606109, 'lat': 12.0950468, 'lon': -86.2397228, 'tags': {'amenity': 'pharmacy', 'healthcare': 'pharmacy', 'name': 'Medco', 'opening_hours': 'Mo-Sa 08:00-21:00; Su 09:00-20:00', 'source': 'survey'}}"
"{'type': 'node', 'id': 2464901045, 'lat': 12.0549266, 'lon': -86.2008564, 'tags': {'addr:street': 'Carretera a Veracruz', 'amenity': 'pharmacy', 'check_date': '2022-11-28', 'name': 'Medco', 'source': 'KG Ground Survey 2016'}}"
"{'type': 'node', 'id': 2472921530, 'lat': 12.1288318, 'lon': -86.2649732, 'tags': {'amenity': 'pharmacy', 'level': '0', 'name': 'Medco', 'source': 'KG Ground Survey 2016'}}"
"{'type': 'node', 'id': 2476043554, 'lat': 12.1523108, 'lon': -86.2105183, 'tags': {'addr:city': 'Managua', 'addr:housename': 'Casa de Gregoria', 'addr:postcode': '11024', 'addr:street': '73a Avenida N.E.', 'amenity': 'pharmacy', 'healthcare': 'pharmacy', 'name': ""Tonita's Farmacia"", 'nohousenumber': 'yes', 'note': 'Rapibac', 'opening_hours': 'Mo-Su 08:00-22:00', 'operator': 'Gregoria Tapia'}}"
"{'type': 'node', 'id': 2476049196, 'lat': 12.1391207, 'lon': -86.230735, 'tags': {'alt_name': 'Centro Médico Finlay', 'amenity': 'clinic', 'healthcare': 'clinic', 'name': 'Laboratorio Clínico C.J. Finlay'}}"
"{'type': 'node', 'id': 2476053959, 'lat': 12.1415695, 'lon': -86.2438897, 'tags': {'amenity': 'clinic', 'healthcare': 'clinic', 'healthcare:speciality': 'podiatry', 'name': 'Clínica Salud del Pie', 'opening_hours': 'Mo-Sa 08:30-17:00', 'phone': '+505 2250 7899 +505 8805 4307 +505 8868 1573'}}"
"{'type': 'node', 'id': 2476097609, 'lat': 12.1112079, 'lon': -86.2538981, 'tags': {'amenity': 'pharmacy', 'healthcare': 'pharmacy', 'name': 'Medco', 'old_name': 'Librería San Jerónimo', 'shop': 'stationery', 'source': 'survey'}}"
"{'type': 'node', 'id': 2476925026, 'lat': 12.1341277, 'lon': -86.2808275, 'tags': {'amenity': 'pharmacy', 'delivery': 'yes', 'name': 'Farmacia Kielsa Plaza España', 'name:es': 'Farmacia Kielsa Plaza España'}}"
"{'type': 'node', 'id': 2488653192, 'lat': 12.1403791, 'lon': -86.2755811, 'tags': {'amenity': 'pharmacy', 'name': 'Medco'}}"
"{'type': 'node', 'id': 2490642008, 'lat': 12.145555, 'lon': -86.2313112, 'tags': {'amenity': 'pharmacy', 'delivery': 'yes', 'healthcare': 'pharmacy', 'name': 'Farmacias Samaria', 'phone': '+505 1800 3070'}}"
"{'type': 'node', 'id': 2491505142, 'lat': 12.1383102, 'lon': -86.2385345, 'tags': {'amenity': 'hospital', 'name': 'Puesto de Salud Mártires de Julio'}}"
"{'type': 'node', 'id': 2498030319, 'lat': 12.1024696, 'lon': -86.2570632, 'tags': {'amenity': 'pharmacy', 'name': 'Farmacia Familiar'}}"
"{'type': 'node', 'id': 2498063333, 'lat': 12.0549741, 'lon': -86.203053, 'tags': {'amenity': 'pharmacy', 'name': 'Farmacia Oriente'}}"
"{'type': 'node', 'id': 2498063340, 'lat': 12.0557846, 'lon': -86.2005195, 'tags': {'amenity': 'pharmacy', 'name': 'Farmacia Concepcion de María', 'source': 'KG Ground Survey 2016'}}"
"{'type': 'node', 'id': 2498063346, 'lat': 12.091591, 'lon': -86.2343526, 'tags': {'amenity': 'pharmacy', 'healthcare': 'pharmacy', 'name': 'Farma Descuento', 'source': 'KG Ground Survey 2016'}}"
"{'type': 'node', 'id': 2498938343, 'lat': 12.1376625, 'lon': -86.2816751, 'tags': {'amenity': 'pharmacy', 'name': 'Farma Descuento'}}"
"{'type': 'node', 'id': 2498972182, 'lat': 12.1353434, 'lon': -86.2780394, 'tags': {'amenity': 'pharmacy', 'name': 'Xolotlán Farmacia'}}"
"{'type': 'node', 'id': 2498973387, 'lat': 12.1024629, 'lon': -86.2578789, 'tags': {'amenity': 'pharmacy', 'name': 'Farmacias Xolotlán'}}"
"{'type': 'node', 'id': 2505154027, 'lat': 12.1451306, 'lon': -86.2779093, 'tags': {'amenity': 'pharmacy', 'name': 'Farmacia del INSS ""Simón Bolívar""', 'name:es': 'Farmacia del INSS ""Simón Bolívar""'}}"
"{'type': 'node', 'id': 2507312720, 'lat': 12.135382, 'lon': -86.2824177, 'tags': {'amenity': 'pharmacy', 'name': 'Farmacia Value'}}"
"{'type': 'node', 'id': 2517590278, 'lat': 12.1044505, 'lon': -86.2655114, 'tags': {'amenity': 'pharmacy', 'level': '1', 'name': 'Farmacia Super Porta'}}"
"{'type': 'node', 'id': 2526473111, 'lat': 12.1094374, 'lon': -86.3155761, 'tags': {'amenity': 'pharmacy', 'name': 'Medco'}}"
"{'type': 'node', 'id': 2526479755, 'lat': 12.1073482, 'lon': -86.2963421, 'tags': {'amenity': 'pharmacy', 'name': 'Farma-Stop'}}"
"{'type': 'node', 'id': 2529529717, 'lat': 12.1396811, 'lon': -86.2288985, 'tags': {'amenity': 'pharmacy', 'healthcare': 'pharmacy', 'level': '0', 'name': 'Medco'}}"
"{'type': 'node', 'id': 2539247357, 'lat': 12.0483628, 'lon': -86.2024104, 'tags': {'amenity': 'pharmacy', 'name': 'Xolotlán'}}"
"{'type': 'node', 'id': 2539247388, 'lat': 11.9110056, 'lon': -86.1450621, 'tags': {'amenity': 'pharmacy'}}"
"{'type': 'node', 'id': 2539247394, 'lat': 11.9151976, 'lon': -86.1434597, 'tags': {'amenity': 'hospital', 'name': 'Hospital Cruz Azul'}}"
"{'type': 'node', 'id': 2539247459, 'lat': 12.1349914, 'lon': -86.2582605, 'tags': {'amenity': 'pharmacy', 'name': 'Farmacia El Peruano'}}"
"{'type': 'node', 'id': 2546429221, 'lat': 12.1269199, 'lon': -86.254062, 'tags': {'amenity': 'pharmacy', 'healthcare': 'pharmacy', 'name': 'Farmacia Verapaz'}}"
"{'type': 'node', 'id': 2559124531, 'lat': 12.0932217, 'lon': -86.2387069, 'tags': {'amenity': 'dentist', 'healthcare': 'dentist', 'name': 'Dental Care Center'}}"
"{'type': 'node', 'id': 2560859511, 'lat': 11.4916488, 'lon': -85.8520629, 'tags': {'amenity': 'hospital', 'name': 'Centro de Salud Guadelupe'}}"
"{'type': 'node', 'id': 2563863021, 'lat': 11.9659675, 'lon': -86.083178, 'tags': {'amenity': 'pharmacy', 'name': 'Farmacia Julita'}}"
"{'type': 'node', 'id': 2609916991, 'lat': 12.1237957, 'lon': -86.2121415, 'tags': {'amenity': 'doctors', 'healthcare': 'doctor', 'name': 'Puesto de Salud Villa Venezuela'}}"
"{'type': 'node', 'id': 2609917095, 'lat': 12.1416785, 'lon': -86.2142015, 'tags': {'amenity': 'doctors', 'healthcare': 'doctor', 'name': 'Puesto Médico Comunal', 'opening_hours': 'Mo-Fr 06:00-12:00', 'operator': 'Ministerio de Salud'}}"
"{'type': 'node', 'id': 2611202339, 'lat': 12.1164809, 'lon': -86.2543834, 'tags': {'amenity': 'doctors', 'emergency': 'no', 'healthcare': 'doctor', 'name': 'Centro de Salud de la Centroamérica', 'operator': 'MINSA'}}"
"{'type': 'node', 'id': 2612971815, 'lat': 12.1146792, 'lon': -86.254587, 'tags': {'amenity': 'pharmacy', 'healthcare': 'pharmacy', 'name': 'Farmacia del INSS Centroamérica', 'source': 'survey'}}"
"{'type': 'node', 'id': 2622496041, 'lat': 12.1215773, 'lon': -86.2501069, 'tags': {'amenity': 'dentist', 'healthcare': 'dentist', 'name': 'Clínica Dentista Cuba'}}"
"{'type': 'node', 'id': 2627443519, 'lat': 12.118474, 'lon': -86.2583, 'tags': {'amenity': 'clinic', 'healthcare': 'clinic', 'name': 'Clínica Tiscapa'}}"
"{'type': 'node', 'id': 2633057081, 'lat': 12.1433371, 'lon': -86.232672, 'tags': {'amenity': 'hospital', 'building': 'yes', 'name': 'Médicos Unidos', 'note': 'CERRADO'}}"
"{'type': 'node', 'id': 2633240015, 'lat': 12.1524363, 'lon': -86.1828287, 'tags': {'amenity': 'pharmacy', 'name': 'La Purísima'}}"
"{'type': 'node', 'id': 2640204504, 'lat': 12.1196661, 'lon': -86.2553327, 'tags': {'amenity': 'pharmacy', 'name': 'Respifarma'}}"
"{'type': 'node', 'id': 2640204505, 'lat': 12.1197257, 'lon': -86.2533617, 'tags': {'amenity': 'pharmacy', 'healthcare': 'pharmacy', 'name': 'Farmacia Nicaragua', 'phone': '2277-0025'}}"
"{'type': 'node', 'id': 2642235168, 'lat': 12.1212609, 'lon': -86.2306246, 'tags': {'addr:city': 'Bluefields', 'addr:street': '52a Avenida S.E.', 'amenity': 'pharmacy', 'healthcare': 'pharmacy', 'name': 'Farmacia San Agustín'}}"
"{'type': 'node', 'id': 2642235169, 'lat': 12.1230317, 'lon': -86.2287444, 'tags': {'addr:city': 'Bluefields', 'addr:street': '53a Avenida S.E.', 'amenity': 'pharmacy', 'healthcare': 'pharmacy', 'name': 'Farmacia Óptima'}}"
"{'type': 'node', 'id': 2642235179, 'lat': 12.1190567, 'lon': -86.2245632, 'tags': {'amenity': 'pharmacy', 'healthcare': 'pharmacy', 'name': 'Farmacia Abraham'}}"
"{'type': 'node', 'id': 2644876743, 'lat': 12.1051999, 'lon': -86.2631244, 'tags': {'amenity': 'pharmacy', 'name': 'Farma Descuento'}}"
"{'type': 'node', 'id': 2644876768, 'lat': 12.137957, 'lon': -86.254757, 'tags': {'amenity': 'pharmacy', 'healthcare': 'pharmacy', 'name': 'Farmacia Logo'}}"
"{'type': 'node', 'id': 2658731039, 'lat': 12.1346028, 'lon': -86.2169338, 'tags': {'amenity': 'pharmacy', 'healthcare': 'pharmacy', 'name': 'Farmacia Scarleth', 'source': 'survey'}}"
"{'type': 'node', 'id': 2658731041, 'lat': 12.1311789, 'lon': -86.2125662, 'tags': {'amenity': 'pharmacy', 'healthcare': 'pharmacy', 'name': 'Santa Lucía Pharmacy', 'source': 'survey'}}"
"{'type': 'node', 'id': 2666173937, 'lat': 12.1346345, 'lon': -86.2383412, 'tags': {'amenity': 'clinic', 'name': 'Clínica Don Bosco', 'source': 'knowledge'}}"
"{'type': 'node', 'id': 2666366754, 'lat': 12.1162311, 'lon': -86.2512677, 'tags': {'amenity': 'pharmacy', 'dispensing': 'yes', 'healthcare': 'pharmacy', 'name': 'Farmacia Hospital Central Managua de César Amador Kuhl', 'opening_hours': '24/7', 'source': 'survey'}}"
"{'type': 'node', 'id': 2666735829, 'lat': 12.1278804, 'lon': -86.2671093, 'tags': {'amenity': 'dentist', 'healthcare': 'dentist', 'name': 'Dr. Mario Sánchez'}}"
"{'type': 'node', 'id': 2681328947, 'lat': 12.1162867, 'lon': -86.1968127, 'tags': {'amenity': 'pharmacy', 'healthcare': 'pharmacy', 'name': 'Farmacia Laureles Sur', 'source': 'survey'}}"
"{'type': 'node', 'id': 2681328999, 'lat': 12.1146547, 'lon': -86.1997114, 'tags': {'amenity': 'pharmacy', 'healthcare': 'pharmacy', 'name': 'Lainez Hurtado', 'source': 'survey'}}"
"{'type': 'node', 'id': 2690538198, 'lat': 11.9530239, 'lon': -86.1858013, 'tags': {'amenity': 'pharmacy', 'name': 'Farmacia San Juan'}}"
"{'type': 'node', 'id': 2690538200, 'lat': 11.9527174, 'lon': -86.188303, 'tags': {'amenity': 'pharmacy', 'name': 'Farmacia La Virgen'}}"
"{'type': 'node', 'id': 2699059583, 'lat': 12.0724759, 'lon': -86.2186003, 'tags': {'amenity': 'pharmacy', 'name': 'Farmacia Fátima'}}"
"{'type': 'node', 'id': 2702189755, 'lat': 11.569505, 'lon': -85.5783309, 'tags': {'amenity': 'clinic', 'healthcare': 'clinic', 'name': 'Centro de Salud “Altagracia”', 'name:en': 'Centro de Salud (Health Center) “Altagracia”', 'opening_hours': '24/7'}}"
"{'type': 'node', 'id': 2706133711, 'lat': 12.0224551, 'lon': -86.2103545, 'tags': {'amenity': 'pharmacy', 'name': 'Farmacia Castillo'}}"
"{'type': 'node', 'id': 2706133712, 'lat': 12.0233432, 'lon': -86.2072689, 'tags': {'amenity': 'pharmacy', 'name': 'Farmacia Ticuantepe'}}"
"{'type': 'node', 'id': 2706133717, 'lat': 12.0094711, 'lon': -86.2159214, 'tags': {'amenity': 'pharmacy', 'name': 'Farmacia Marbela'}}"
"{'type': 'node', 'id': 2706207033, 'lat': 11.9520849, 'lon': -86.187677, 'tags': {'amenity': 'clinic', 'name': 'Centro de Salud San Juan'}}"
"{'type': 'node', 'id': 2712574246, 'lat': 12.1290147, 'lon': -86.202495, 'tags': {'amenity': 'pharmacy', 'healthcare': 'pharmacy', 'name': 'Farmacia Brandon', 'source': 'map note by xamanu'}}"
"{'type': 'node', 'id': 2713189974, 'lat': 12.1346978, 'lon': -86.2383428, 'tags': {'amenity': 'pharmacy', 'name': 'Farmacia Don Bosco'}}"
"{'type': 'node', 'id': 2714691562, 'lat': 12.0241264, 'lon': -86.2060093, 'tags': {'amenity': 'clinic', 'healthcare': 'clinic', 'name': 'Clínica Médico Quirúrgica'}}"
"{'type': 'node', 'id': 2714942010, 'lat': 12.15239, 'lon': -86.1889392, 'tags': {'amenity': 'pharmacy', 'name': 'Farmacia del Norte'}}"
"{'type': 'node', 'id': 2714943510, 'lat': 12.1535975, 'lon': -86.1830732, 'tags': {'amenity': 'pharmacy', 'name': 'Farmacia Alejandra'}}"
"{'type': 'node', 'id': 2717656080, 'lat': 12.1209672, 'lon': -86.2732693, 'tags': {'amenity': 'pharmacy', 'name': 'Farmacia Carusso #2', 'opening_hours': 'Mo-Su 06:00-21:00'}}"
"{'type': 'node', 'id': 2735685697, 'lat': 12.1482208, 'lon': -86.1757356, 'tags': {'amenity': 'pharmacy', 'dispensing': 'yes', 'name': 'Farmacia Allisa', 'phone': '(505)22337245'}}"
"{'type': 'node', 'id': 2740963654, 'lat': 12.1461157, 'lon': -86.1759513, 'tags': {'amenity': 'pharmacy', 'name': 'Centeno'}}"
"{'type': 'node', 'id': 2746409809, 'lat': 12.1258172, 'lon': -86.2579326, 'tags': {'amenity': 'doctors', 'healthcare': 'doctor', 'name': 'Centro Médico MDM', 'source': 'survey'}}"
"{'type': 'node', 'id': 2746409888, 'lat': 12.1356142, 'lon': -86.2658548, 'tags': {'amenity': 'pharmacy', 'name': 'Farmacia Hospital Cruz Azul filial Tiscapa'}}"
"{'type': 'node', 'id': 2746410192, 'lat': 12.1418374, 'lon': -86.2826002, 'tags': {'amenity': 'pharmacy', 'name': 'Farmacia Econo+Max'}}"
"{'type': 'node', 'id': 2748603044, 'lat': 12.1479861, 'lon': -86.1932923, 'tags': {'amenity': 'pharmacy', 'building': 'yes', 'name': 'Farmacia La Subasta'}}"
"{'type': 'node', 'id': 2757171686, 'lat': 12.1443103, 'lon': -86.2327437, 'tags': {'amenity': 'pharmacy', 'name': 'Farmacia Diana'}}"
"{'type': 'node', 'id': 2759980136, 'lat': 12.1518287, 'lon': -86.2773375, 'tags': {'amenity': 'pharmacy', 'name': 'Farmacia Amor Celestial'}}"
"{'type': 'node', 'id': 2759980137, 'lat': 12.1518895, 'lon': -86.277891, 'tags': {'amenity': 'pharmacy', 'name': 'Farmacia María Belén'}}"
"{'type': 'node', 'id': 2766028668, 'lat': 12.146557, 'lon': -86.1885381, 'tags': {'amenity': 'pharmacy', 'contact:phone': '1800-2224', 'name': 'Farmacia Xolotlán'}}"
"{'type': 'node', 'id': 2766036949, 'lat': 12.1601841, 'lon': -86.1883248, 'tags': {'amenity': 'doctors', 'healthcare': 'centre', 'name': 'Centro de Salud Roger Osorio', 'operator': 'MINSA'}}"
"{'type': 'node', 'id': 2766522220, 'lat': 12.0922747, 'lon': -86.3241546, 'tags': {'amenity': 'pharmacy', 'name': 'Medco'}}"
"{'type': 'node', 'id': 2778783142, 'lat': 11.9108417, 'lon': -86.2050759, 'tags': {'amenity': 'pharmacy', 'name': 'Farmacia San Marcos', 'source': 'survey'}}"
"{'type': 'node', 'id': 2782561554, 'lat': 12.1247968, 'lon': -86.3107371, 'tags': {'amenity': 'hospital', 'name': 'Cruz Roja'}}"
"{'type': 'node', 'id': 2782561950, 'lat': 12.1386075, 'lon': -86.3089043, 'tags': {'amenity': 'hospital', 'name': 'Hospital Psiquiátrico Nacional', 'operator': 'Ministerio de Salud'}}"
"{'type': 'node', 'id': 2782574038, 'lat': 12.105608, 'lon': -86.2225437, 'tags': {'amenity': 'hospital', 'healthcare': 'hospital', 'name': 'Centro de Salud Salomón Moreno'}}"
"{'type': 'node', 'id': 2896368612, 'lat': 12.1623395, 'lon': -86.1864974, 'tags': {'amenity': 'pharmacy', 'name': 'Farmacia Divino Niño'}}"
"{'type': 'node', 'id': 2921996039, 'lat': 12.1241314, 'lon': -86.3066143, 'tags': {'amenity': 'pharmacy', 'name': 'Medco - Xolotlán', 'operator': 'Medco - Xolotlán', 'zoom_level': '80%'}}"
"{'type': 'node', 'id': 2926551381, 'lat': 12.1474869, 'lon': -86.1935818, 'tags': {'amenity': 'pharmacy', 'building': 'yes', 'name': 'Farmacia Allisa'}}"
"{'type': 'node', 'id': 2930979017, 'lat': 12.1255274, 'lon': -86.2040464, 'tags': {'amenity': 'pharmacy', 'building': 'yes', 'healthcare': 'pharmacy'}}"
"{'type': 'node', 'id': 2930979052, 'lat': 12.1451795, 'lon': -86.237402, 'tags': {'amenity': 'pharmacy', 'building': 'yes', 'name': 'Farmacia Sor María'}}"
"{'type': 'node', 'id': 2946469847, 'lat': 12.1024172, 'lon': -86.2570596, 'tags': {'craft': 'laboratory', 'healthcare': 'laboratory', 'name': 'BioAnálisis laboratorio clínico', 'opening_hours': 'Mo-Fr 07:00-17:00', 'phone': '+505 2255 0550'}}"
"{'type': 'node', 'id': 3054548665, 'lat': 12.1550254, 'lon': -86.1843902, 'tags': {'amenity': 'pharmacy', 'building': 'yes', 'name': 'Farmacia Unidad de Proposito'}}"
"{'type': 'node', 'id': 3077654268, 'lat': 12.1490896, 'lon': -86.1993634, 'tags': {'amenity': 'pharmacy', 'name': 'Kielsa'}}"
"{'type': 'node', 'id': 3090658701, 'lat': 12.1443318, 'lon': -86.1706082, 'tags': {'addr:city': 'Managua', 'addr:full': 'Aeropuerto Internacional Augusto Cesar Sandino', 'addr:housename': 'Aeropuerto Internacional Augusto Cesar Sandino', 'addr:postcode': '11059', 'addr:street': 'Carretera Norte', 'amenity': 'pharmacy', 'description': '2nd floor (for departing passengers only)', 'name': 'Medco'}}"
"{'type': 'node', 'id': 3108205492, 'lat': 12.1322869, 'lon': -86.2940775, 'tags': {'amenity': 'pharmacy', 'name': 'Farmacia Moncada', 'source': 'Map Note by Crisvann'}}"
"{'type': 'node', 'id': 3108655960, 'lat': 11.450855, 'lon': -86.0648738, 'tags': {'amenity': 'clinic', 'source': 'survey'}}"
"{'type': 'node', 'id': 3108656894, 'lat': 11.842517, 'lon': -86.2009729, 'tags': {'amenity': 'hospital', 'name': 'HOSPITAL SANTIAGO', 'source': 'Map Note by anonymous'}}"
"{'type': 'node', 'id': 3119230670, 'lat': 12.1453507, 'lon': -86.2335677, 'tags': {'addr:street': 'Rotonda Bello Horizonte', 'amenity': 'pharmacy', 'name': 'Medco Bello Horizonte', 'phone': '18002224'}}"
"{'type': 'node', 'id': 3211795279, 'lat': 11.8464485, 'lon': -86.1993494, 'tags': {'amenity': 'pharmacy', 'name': 'Divino Niño Jesús'}}"
"{'type': 'node', 'id': 3216632566, 'lat': 12.1474989, 'lon': -86.1937307, 'tags': {'amenity': 'pharmacy', 'name': 'Farmacia Tri-mar'}}"
"{'type': 'node', 'id': 3306721226, 'lat': 12.1398098, 'lon': -86.2334445, 'tags': {'amenity': 'pharmacy', 'healthcare': 'pharmacy', 'name': 'Farmacia Rosario'}}"
"{'type': 'node', 'id': 3323910267, 'lat': 12.1489916, 'lon': -86.2022733, 'tags': {'amenity': 'pharmacy', 'name': 'Farmacia Ingrid', 'source': 'Mapillary'}}"
"{'type': 'node', 'id': 3383759670, 'lat': 12.1237873, 'lon': -86.1973857, 'tags': {'amenity': 'pharmacy'}}"
"{'type': 'node', 'id': 3392106693, 'lat': 12.1424245, 'lon': -86.2551216, 'tags': {'healthcare': 'laboratory', 'name': 'Laboratorio Bioánalisis'}}"
"{'type': 'node', 'id': 3404447764, 'lat': 12.1613126, 'lon': -86.1854665, 'tags': {'amenity': 'pharmacy', 'name': 'Farmacia Marbelli'}}"
"{'type': 'node', 'id': 3451339123, 'lat': 12.1306459, 'lon': -86.2889231, 'tags': {'amenity': 'pharmacy', 'name': 'Farmacia Yave Jirey'}}"
"{'type': 'node', 'id': 3454308687, 'lat': 12.0857585, 'lon': -86.2403653, 'tags': {'amenity': 'pharmacy', 'name': 'Medco', 'opening_hours': 'Mo-Su 07:00-21:00'}}"
"{'type': 'node', 'id': 3460570840, 'lat': 12.0983956, 'lon': -86.2400065, 'tags': {'amenity': 'dentist', 'healthcare': 'dentist', 'name': 'Dr. Mauricio A. Molina R. Ortodoncista'}}"
"{'type': 'node', 'id': 3460570841, 'lat': 12.0918012, 'lon': -86.2340451, 'tags': {'amenity': 'pharmacy', 'healthcare': 'pharmacy', 'name': 'Medco', 'source': 'KG Ground Survey 2016'}}"
"{'type': 'node', 'id': 3463488602, 'lat': 12.1048077, 'lon': -86.2630242, 'tags': {'amenity': 'pharmacy', 'name': 'Medco', 'opening_hours': 'Mo-Sa 07:00-21:00; Su 09:00-20:00'}}"
"{'type': 'node', 'id': 3491805109, 'lat': 12.1191951, 'lon': -86.2834574, 'tags': {'amenity': 'pharmacy', 'name': 'Farmacia El Valle'}}"
"{'type': 'node', 'id': 3493273267, 'lat': 12.1153946, 'lon': -86.2474373, 'tags': {'amenity': 'pharmacy', 'healthcare': 'pharmacy', 'name': 'Farmacia Managua'}}"
"{'type': 'node', 'id': 3493344093, 'lat': 12.0864495, 'lon': -86.2313984, 'tags': {'addr:full': 'Carretera a Masaya, entrada al Hosp. Vivian Pellas, Km 9.7', 'amenity': 'pharmacy', 'name': 'Farmacia Saba', 'phone': '+505 2255 1125'}}"
"{'type': 'node', 'id': 3500273568, 'lat': 12.1131123, 'lon': -86.2700299, 'tags': {'amenity': 'pharmacy', 'name': 'Farmacia Unión'}}"
"{'type': 'node', 'id': 3503501880, 'lat': 12.1272103, 'lon': -86.2569542, 'tags': {'addr:city': 'Managua', 'addr:street': 'Radial Santo Domingo', 'amenity': 'pharmacy', 'healthcare': 'pharmacy', 'mapillary': '474481767211133', 'name': 'Farmacia La Luz', 'operator': 'Orlando Rizo', 'source': 'survey', 'survey:date': '2017-08-18'}}"
"{'type': 'node', 'id': 3505766527, 'lat': 12.1205257, 'lon': -86.266588, 'tags': {'amenity': 'pharmacy', 'name': 'DermaFarma', 'opening_hours': 'Mo-Fr 08:00-19:00; Sa 08:00-14:00; Su off'}}"
"{'type': 'node', 'id': 3507806124, 'lat': 12.1207754, 'lon': -86.2692746, 'tags': {'amenity': 'dentist', 'healthcare': 'dentist', 'name': 'Proactive'}}"
"{'type': 'node', 'id': 3511456493, 'lat': 12.0980281, 'lon': -86.2404816, 'tags': {'amenity': 'pharmacy', 'healthcare': 'pharmacy', 'name': 'Xolotlán'}}"
"{'type': 'node', 'id': 3512832999, 'lat': 12.1384395, 'lon': -86.2118755, 'tags': {'amenity': 'clinic', 'healthcare': 'clinic', 'name': 'Centro Salud San Jacinto'}}"
"{'type': 'node', 'id': 3527225215, 'lat': 12.1008795, 'lon': -86.2503039, 'tags': {'healthcare': 'physiotherapist', 'name': 'Clínica Tanaj'}}"
"{'type': 'node', 'id': 3551762296, 'lat': 12.1073994, 'lon': -86.246388, 'tags': {'amenity': 'clinic', 'healthcare': 'clinic', 'healthcare:speciality': 'cardiology', 'name': 'Clínica cardiologica del Valle'}}"
"{'type': 'node', 'id': 3562260740, 'lat': 12.1195442, 'lon': -86.2705285, 'tags': {'amenity': 'pharmacy', 'name': 'Farmacia Motastepe'}}"
"{'type': 'node', 'id': 3597251173, 'lat': 11.2785059, 'lon': -85.8415457, 'tags': {'addr:full': 'Km. 136 Carretera San Juan del Sur, Nicaragua', 'amenity': 'clinic', 'name': 'Finca Las Nubes Centro de Nutrición Comunitaria', 'name:en': 'FLN Clinic', 'website': 'http://fincalasnubes.com/?page_id=876'}}"
"{'type': 'node', 'id': 3618114800, 'lat': 12.0662473, 'lon': -86.2130234, 'tags': {'amenity': 'pharmacy', 'name': 'FarmaVida', 'phone': '2268-4351 / 8888-8880'}}"
"{'type': 'node', 'id': 3620536952, 'lat': 12.1425984, 'lon': -86.2772414, 'tags': {'amenity': 'clinic', 'name': 'Clínica médica Pasteur'}}"
"{'type': 'node', 'id': 3674149626, 'lat': 12.1078236, 'lon': -86.2467639, 'tags': {'amenity': 'clinic', 'healthcare': 'clinic', 'name': 'Policlínica Lomas del Valle'}}"
"{'type': 'node', 'id': 3674149729, 'lat': 12.1189264, 'lon': -86.2527371, 'tags': {'amenity': 'pharmacy', 'healthcare': 'pharmacy', 'name': 'Farmacia Báez', 'phone': '1800 1112', 'source': 'KG Ground Survey 2016'}}"
"{'type': 'node', 'id': 3700505219, 'lat': 12.1364617, 'lon': -86.2658021, 'tags': {'amenity': 'clinic', 'name': 'Clínica de Asma y Alergia', 'source': 'survey'}}"
"{'type': 'node', 'id': 3753624372, 'lat': 12.1432988, 'lon': -86.295546, 'tags': {'addr:city': 'Las Palmas', 'addr:housename': 'Pharmainn', 'addr:street': 'Carretera Sur', 'amenity': 'pharmacy', 'designation': 'Pharmacy', 'name': 'PharmaInn', 'source': 'Pharmacy'}}"
"{'type': 'node', 'id': 3754783797, 'lat': 12.0346417, 'lon': -86.2034687, 'tags': {'addr:city': 'Ticuantepe, Managua', 'addr:housename': 'DISMEDICAL', 'addr:street': 'Carretera a Ticuantepe', 'amenity': 'pharmacy', 'designation': 'Medicina', 'name': 'DISMEDICAL'}}"
"{'type': 'node', 'id': 3788167799, 'lat': 12.0552525, 'lon': -86.2014101, 'tags': {'amenity': 'pharmacy', 'name': 'La Estrella Roja', 'source': 'KG Ground Survey 2016'}}"
"{'type': 'node', 'id': 3858912957, 'lat': 12.1372333, 'lon': -86.2352759, 'tags': {'amenity': 'pharmacy', 'healthcare': 'pharmacy', 'name': 'Farmacia Basílica'}}"
"{'type': 'node', 'id': 3888086356, 'lat': 11.9827219, 'lon': -86.0789187, 'tags': {'amenity': 'hospital', 'name': 'Puesto de salud de La Villa'}}"
"{'type': 'node', 'id': 3894000893, 'lat': 12.1529997, 'lon': -86.208129, 'tags': {'amenity': 'pharmacy', 'name': 'Farmacia Paz y Amor'}}"
"{'type': 'node', 'id': 3897053470, 'lat': 12.1524853, 'lon': -86.2093479, 'tags': {'amenity': 'pharmacy', 'name': 'Farmacia Sara Luz', 'phone': '+505 2293 6482'}}"
"{'type': 'node', 'id': 3897396068, 'lat': 12.1542868, 'lon': -86.2125852, 'tags': {'addr:city': 'Managua', 'amenity': 'clinic', 'healthcare': 'clinic', 'name': 'Puesto Médico José Dolores Estrada'}}"
"{'type': 'node', 'id': 3899243900, 'lat': 12.1365086, 'lon': -86.2506144, 'tags': {'amenity': 'pharmacy', 'name': 'Farmacity', 'phone': '1800 2121', 'source': 'KG Ground Survey 2016', 'source_1': 'Map Note by anonymous'}}"
"{'type': 'node', 'id': 3899261048, 'lat': 12.0985559, 'lon': -86.2481904, 'tags': {'amenity': 'pharmacy', 'healthcare': 'pharmacy', 'name': 'Farma Descuento', 'source': 'survey'}}"
"{'type': 'node', 'id': 3913374540, 'lat': 12.1541975, 'lon': -86.2078636, 'tags': {'amenity': 'pharmacy', 'name': 'Farmacia Josefina'}}"
"{'type': 'node', 'id': 3913510595, 'lat': 12.2093008, 'lon': -86.3156961, 'tags': {'amenity': 'clinic', 'name': 'Centro de Salud Xiloa'}}"
"{'type': 'node', 'id': 3931659198, 'lat': 12.1080513, 'lon': -86.2966928, 'tags': {'amenity': 'pharmacy', 'name': 'Farmacia El Ahorro', 'opening_hours': 'Mo-Sa 08:00-18:00', 'source': 'KG Ground Survey 2016'}}"
"{'type': 'node', 'id': 3946901766, 'lat': 12.0927816, 'lon': -86.2390292, 'tags': {'amenity': 'pharmacy', 'healthcare': 'pharmacy', 'name': 'Farmacias Saba', 'phone': '2224-4195'}}"
"{'type': 'node', 'id': 3949436136, 'lat': 12.1697281, 'lon': -86.3426452, 'tags': {'amenity': 'pharmacy', 'name': 'Farmacia Ronald', 'phone': '8785-4812', 'source': 'Anonymous map note'}}"
"{'type': 'node', 'id': 3967039697, 'lat': 12.1013757, 'lon': -86.2588576, 'tags': {'addr:street': 'Edificio Escala', 'amenity': 'pharmacy', 'description': 'Edificio corporativo Escala, detrás edificio Procredit, Boulevard Jean Paul Genie, Managua, Nicaragua', 'name': 'Farmacia Santa Mónica', 'opening_hours': 'Mo-Fr 09:00-19:00; Sa 09:00-13:00', 'phone': '2252-4268'}}"
"{'type': 'node', 'id': 3982989893, 'lat': 12.1243634, 'lon': -86.3056643, 'tags': {'amenity': 'pharmacy', 'name': 'Farmacia Kielsa'}}"
"{'type': 'node', 'id': 3982989894, 'lat': 12.1253074, 'lon': -86.3017349, 'tags': {'amenity': 'pharmacy', 'name': 'Farmacia Xolotlán'}}"
"{'type': 'node', 'id': 3983107357, 'lat': 12.1298973, 'lon': -86.2268132, 'tags': {'amenity': 'pharmacy', 'healthcare': 'pharmacy', 'name': 'Farmacia Rubenia'}}"
"{'type': 'node', 'id': 3983107358, 'lat': 12.1302273, 'lon': -86.2279346, 'tags': {'amenity': 'pharmacy', 'healthcare': 'pharmacy', 'name': 'Farmacia Sáenz'}}"
"{'type': 'node', 'id': 3996005457, 'lat': 12.1442821, 'lon': -86.2742197, 'tags': {'amenity': 'pharmacy', 'level': '0', 'name': 'Medco'}}"
"{'type': 'node', 'id': 4011655892, 'lat': 12.1124972, 'lon': -86.2980366, 'tags': {'amenity': 'pharmacy', 'name': 'Farmacia Divino Niño'}}"
"{'type': 'node', 'id': 4018069519, 'lat': 12.1485882, 'lon': -86.2246719, 'tags': {'amenity': 'pharmacy', 'healthcare': 'pharmacy', 'name': 'Carusso'}}"
"{'type': 'node', 'id': 4066156514, 'lat': 12.1302391, 'lon': -86.2529069, 'tags': {'amenity': 'pharmacy', 'name': 'Farmacia y Pulpería Mariela'}}"
"{'type': 'node', 'id': 4072781648, 'lat': 12.0745332, 'lon': -86.218359, 'tags': {'amenity': 'pharmacy', 'name': 'Farmacias Xolotlán'}}"
"{'type': 'node', 'id': 4117899589, 'lat': 12.1670414, 'lon': -86.3529955, 'tags': {'amenity': 'pharmacy', 'name': 'Farmacia Guegüense'}}"
"{'type': 'node', 'id': 4125162291, 'lat': 11.4533923, 'lon': -85.7976014, 'tags': {'amenity': 'clinic', 'healthcare': 'clinic', 'name': 'C/S Danelia Muñoz', 'opening_hours': 'Mo-Fr 08:00-17:00'}}"
"{'type': 'node', 'id': 4144720289, 'lat': 11.9024526, 'lon': -86.2574321, 'tags': {'amenity': 'hospital', 'name': 'Puesto de Salud Marvin Corrales', 'opening_hours': 'Mo-Fr'}}"
"{'type': 'node', 'id': 4167588394, 'lat': 12.1133806, 'lon': -86.2368658, 'tags': {'addr:city': 'Bluefields', 'addr:street': '42a Avenida S.E.', 'amenity': 'clinic', 'healthcare': 'clinic', 'name': 'Centro de Salud Carlos Rugama'}}"
"{'type': 'node', 'id': 4170124008, 'lat': 12.1475549, 'lon': -86.3045822, 'tags': {'amenity': 'pharmacy', 'name': 'Farmacia Matagalpa', 'source': 'KG Ground Survey 2016'}}"
"{'type': 'node', 'id': 4177267330, 'lat': 12.1383569, 'lon': -86.2928497, 'tags': {'amenity': 'pharmacy', 'name': 'FarmaVida', 'source': 'KG Ground Survey 2016'}}"
"{'type': 'node', 'id': 4183951799, 'lat': 11.9740933, 'lon': -86.0982816, 'tags': {'amenity': 'pharmacy', 'name': 'Farmacia Francesca', 'source': 'KG Ground Survey 2016'}}"
"{'type': 'node', 'id': 4190176100, 'lat': 11.9304732, 'lon': -85.9552644, 'tags': {'addr:city': 'Granada', 'addr:street': 'Calle Centroamérica', 'amenity': 'dentist', 'healthcare': 'dentist', 'source': 'KG Ground Survey 2016'}}"
"{'type': 'node', 'id': 4190487945, 'lat': 12.1389422, 'lon': -86.2465642, 'tags': {'amenity': 'pharmacy', 'name': 'Esther Cristina'}}"
"{'type': 'node', 'id': 4191885284, 'lat': 11.9275347, 'lon': -85.9553185, 'tags': {'addr:city': 'Granada', 'addr:street': 'Calle Centroamérica', 'amenity': 'dentist', 'healthcare': 'dentist', 'name': 'Clínica Dental', 'source': 'KG Ground Survey 2016'}}"
"{'type': 'node', 'id': 4193745976, 'lat': 12.1529147, 'lon': -86.2462777, 'tags': {'amenity': 'pharmacy', 'name': 'FarmaSi', 'source': 'KG Ground Survey 2016'}}"
"{'type': 'node', 'id': 4193810499, 'lat': 11.8431492, 'lon': -86.1973653, 'tags': {'addr:street': 'Calle Central', 'amenity': 'hospital', 'name': 'Servicios Médicos Especializados Hospital Carazo'}}"
"{'type': 'node', 'id': 4194009003, 'lat': 12.1378065, 'lon': -86.2499323, 'tags': {'amenity': 'pharmacy', 'name': 'Farmacia Librería', 'source': 'KG Ground Survey 2016'}}"
"{'type': 'node', 'id': 4194253562, 'lat': 12.0879938, 'lon': -86.2320012, 'tags': {'addr:street': 'NIC-4', 'healthcare': 'laboratory', 'healthcare:speciality': 'clinical_pathology', 'name': 'BioAnalisis', 'source': 'KG Ground Survey 2016'}}"
"{'type': 'node', 'id': 4194374356, 'lat': 12.1452476, 'lon': -86.2319274, 'tags': {'amenity': 'pharmacy', 'healthcare': 'pharmacy', 'name': 'Kielsa'}}"
"{'type': 'node', 'id': 4195537469, 'lat': 12.1187587, 'lon': -86.2523373, 'tags': {'addr:street': 'Avenida Principal de Altamira', 'amenity': 'dentist', 'healthcare': 'dentist', 'source': 'KG Ground Survey 2016'}}"
"{'type': 'node', 'id': 4195574839, 'lat': 12.1209846, 'lon': -86.252396, 'tags': {'addr:city': 'Managua', 'addr:street': 'Avenida Principal de Altamira', 'amenity': 'pharmacy', 'healthcare': 'pharmacy', 'name': 'Farma Cura', 'phone': '2252 5916', 'source': 'KG Ground Survey 2016'}}"
"{'type': 'node', 'id': 4195677870, 'lat': 12.1455472, 'lon': -86.2304872, 'tags': {'amenity': 'pharmacy', 'healthcare': 'pharmacy', 'name': 'Centroamericana', 'note': 'Whatsapp: +505 7553 2423', 'phone': '+505 2222 2423'}}"
"{'type': 'node', 'id': 4195677873, 'lat': 12.1454793, 'lon': -86.2307125, 'tags': {'amenity': 'pharmacy', 'healthcare': 'pharmacy', 'name': 'Farmacia MAS'}}"
"{'type': 'node', 'id': 4196195269, 'lat': 12.1451792, 'lon': -86.2307414, 'tags': {'amenity': 'pharmacy', 'name': 'Farmacia Samaria-Bello Horizonte', 'source': 'KG Ground Survey 2016'}}"
"{'type': 'node', 'id': 4196195271, 'lat': 12.1451922, 'lon': -86.2308375, 'tags': {'amenity': 'dentist', 'healthcare': 'dentist', 'name': 'Dental Care', 'opening_hours': 'Mo-Fr 09:00-18:00; Sa 09:00-13:00', 'phone': '+505 8696 9199'}}"
"{'type': 'node', 'id': 4197493736, 'lat': 12.0916657, 'lon': -86.2345209, 'tags': {'amenity': 'dentist', 'healthcare': 'dentist', 'source': 'KG Ground Survey 2016'}}"
"{'type': 'node', 'id': 4197560922, 'lat': 12.1346021, 'lon': -86.2806969, 'tags': {'amenity': 'pharmacy', 'name': 'Farmacias Medco', 'source': 'KG Ground Survey 2016'}}"
"{'type': 'node', 'id': 4202918205, 'lat': 12.1421589, 'lon': -86.2860952, 'tags': {'amenity': 'pharmacy', 'healthcare': 'pharmacy', 'source': 'KG Ground Survey 2016'}}"
"{'type': 'node', 'id': 4203241135, 'lat': 12.1179956, 'lon': -86.2591412, 'tags': {'amenity': 'pharmacy', 'healthcare': 'pharmacy', 'name': 'Farmacias Praga', 'source': 'KG Ground Survey 2016'}}"
"{'type': 'node', 'id': 4203326616, 'lat': 12.1397408, 'lon': -86.2596196, 'tags': {'amenity': 'pharmacy', 'fixme': 'name', 'name': 'Farmacia Lycy', 'source': 'KG Ground Survey 2016'}}"
"{'type': 'node', 'id': 4220137090, 'lat': 11.7858962, 'lon': -86.5124421, 'tags': {'amenity': 'pharmacy', 'mapillary': '458342801936215', 'name': 'Farmacia Masachapa', 'source': 'survey;Mapillary'}}"
"{'type': 'node', 'id': 4220232489, 'lat': 12.1364491, 'lon': -86.2672096, 'tags': {'amenity': 'hospital', 'name': 'Centro De Salud Roberto Herrera Rios', 'opening_hours': '24/7', 'operator': 'MINSA'}}"
"{'type': 'node', 'id': 4227537166, 'lat': 12.1272136, 'lon': -86.2303757, 'tags': {'amenity': 'pharmacy', 'healthcare': 'pharmacy', 'name': 'Farmacia Elayne'}}"
"{'type': 'node', 'id': 4234802194, 'lat': 12.0859817, 'lon': -86.2317824, 'tags': {'amenity': 'pharmacy', 'drive_through': 'yes', 'name': 'Farma Descuento'}}"
"{'type': 'node', 'id': 4270381164, 'lat': 11.5114226, 'lon': -85.5543834, 'tags': {'amenity': 'hospital', 'name': 'Centro de Salud', 'operator': 'Ometepe-Projekt Nicaragua', 'website': 'https://ometepe-projekt-nicaragua.de/'}}"
"{'type': 'node', 'id': 4297087391, 'lat': 12.0233496, 'lon': -86.2077521, 'tags': {'amenity': 'pharmacy', 'name': 'Farmacia Santa Martha'}}"
"{'type': 'node', 'id': 4297087489, 'lat': 12.0277719, 'lon': -86.2027986, 'tags': {'amenity': 'hospital', 'name': 'Hospital amistad México Nicaragua'}}"
"{'type': 'node', 'id': 4324716689, 'lat': 11.9794762, 'lon': -86.0983741, 'tags': {'addr:street': 'Avenida San Jerónimo', 'amenity': 'clinic', 'internet_access': 'wlan', 'name': 'Clínica Odontológica Plusdental', 'opening_hours': 'Mo-Sa 08:00-17:00', 'phone': '25220068'}}"
"{'type': 'node', 'id': 4477333491, 'lat': 11.4465368, 'lon': -85.8239413, 'tags': {'amenity': 'clinic', 'healthcare': 'clinic', 'internet_access': 'wlan', 'name': 'Clínica Médica Previsional Filial G.G.L', 'opening_hours': '24/7', 'phone': '2563 1072'}}"
"{'type': 'node', 'id': 4510326099, 'lat': 12.1124221, 'lon': -86.2962672, 'tags': {'addr:street': '45a Calle SO', 'amenity': 'pharmacy', 'name': 'La Palmera', 'name:es': 'La Palmera', 'opening_hours': 'Mo-Sa 8:00-12:00,14:00-20:00', 'operator': 'la palmera', 'phone': '22602882'}}"
"{'type': 'node', 'id': 4510370394, 'lat': 11.9100379, 'lon': -86.2046664, 'tags': {'amenity': 'pharmacy', 'name': 'Farmacia Santo Remedio', 'opening_hours': 'Mo-Su 08:00-22:00'}}"
"{'type': 'node', 'id': 4539823392, 'lat': 12.2652416, 'lon': -86.5655193, 'tags': {'amenity': 'clinic', 'name': 'Clínica Dental Valencia', 'name:es': 'Clínica Dental Valencia', 'opening_hours': 'Mo-Sa 08:30-19:00', 'phone': '(505)23130719'}}"
"{'type': 'node', 'id': 4541805791, 'lat': 12.1666709, 'lon': -86.3466544, 'tags': {'amenity': 'pharmacy', 'name': 'Farmacia San Benito'}}"
"{'type': 'node', 'id': 4545894395, 'lat': 12.1022893, 'lon': -86.2569013, 'tags': {'healthcare': 'centre', 'name': 'Centro Radiológico Imagen'}}"
"{'type': 'node', 'id': 4589146293, 'lat': 12.1052228, 'lon': -86.2979892, 'tags': {'addr:housenumber': '2254 0982', 'addr:street': 'Avenida Roberto Vargas', 'amenity': 'pharmacy', 'healthcare': 'pharmacy', 'name': 'Farmacia Allison', 'name:es': 'Farmacia Allison', 'opening_hours': 'Mo-Su 08:00-21:00'}}"
"{'type': 'node', 'id': 4592639393, 'lat': 12.130104, 'lon': -86.2801461, 'tags': {'amenity': 'pharmacy', 'name': 'Farmacia Hageo 2:19', 'name:es': 'Farmacia Hageo 2:19'}}"
"{'type': 'node', 'id': 4618694389, 'lat': 11.9049804, 'lon': -86.0927852, 'tags': {'addr:street': 'Calle Real, Niquinohomo', 'amenity': 'pharmacy', 'dispensing': 'no', 'name': 'Medalla Milagrosa', 'name:es': 'Medalla Milagrosa', 'opening_hours': 'Mo-Fr 08:30-20:00, Tu-Su 08:00-15:00; Sa 08:00-12:00', 'phone': '25580668'}}"
"{'type': 'node', 'id': 4635776489, 'lat': 12.107345, 'lon': -86.2654504, 'tags': {'addr:street': 'Pista Suburbana', 'amenity': 'clinic', 'healthcare:speciality': 'paediatrics', 'name': 'Clínica Pediátrica Fontana'}}"
"{'type': 'node', 'id': 4685641289, 'lat': 11.9061534, 'lon': -86.2013202, 'tags': {'amenity': 'pharmacy', 'name': 'Farmacia Fuentes', 'name:en': 'Fuentes Pharmacy', 'opening_hours': 'Mo-Sa 08:00-21:00'}}"
"{'type': 'node', 'id': 4694491389, 'lat': 11.9728376, 'lon': -86.1000045, 'tags': {'addr:country': 'NI', 'addr:street': 'Calle Simpson', 'amenity': 'clinic', 'name': 'Laboratotio Curie', 'name:es': 'Laboratotio Curie', 'opening_hours': 'Mo-Sa 08:00-17:00'}}"
"{'type': 'node', 'id': 4713744403, 'lat': 12.1239953, 'lon': -86.2710896, 'tags': {'amenity': 'pharmacy', 'name': 'Farmacia Herrera'}}"
"{'type': 'node', 'id': 4713876990, 'lat': 12.1377458, 'lon': -86.261451, 'tags': {'addr:street': 'Paseo José Martí', 'amenity': 'pharmacy', 'name': 'Farmacia Yahve', 'name:es': 'Farmacia Yahve'}}"
"{'type': 'node', 'id': 4715153491, 'lat': 12.1028401, 'lon': -86.2211011, 'tags': {'addr:city': 'Bluefields', 'addr:street': 'Camino a las Jaguitas', 'amenity': 'pharmacy', 'healthcare': 'pharmacy', 'name': 'Farmacia Fabiola', 'name:es': 'Farmacia Fabiola'}}"
"{'type': 'node', 'id': 4715192089, 'lat': 12.1053106, 'lon': -86.2234487, 'tags': {'addr:city': 'Bluefields', 'addr:street': 'Calle La Sabana', 'amenity': 'pharmacy', 'healthcare': 'pharmacy', 'name': 'Farmacia la Piedad', 'name:es': 'Farmacia la Piedad'}}"
"{'type': 'node', 'id': 4715780092, 'lat': 12.1180588, 'lon': -86.2505093, 'tags': {'addr:housenumber': '18', 'addr:street': 'Avenida Mayor', 'amenity': 'clinic', 'email': 'terapiasnaturalesni@gmail.com', 'healthcare': 'clinic', 'healthcare:speciality': 'general', 'name': 'Clínica de Medicina General y Terapias Alternativas', 'name:es': 'Clínica de Medicina General y Terapias Alternativas', 'opening_hours': 'Mo-Sa 09:00-17:00', 'phone': '22771080'}}"
"{'type': 'node', 'id': 4733215830, 'lat': 12.1079809, 'lon': -86.2646376, 'tags': {'addr:street': 'Carretera a Las Nubes', 'amenity': 'clinic', 'healthcare': 'clinic', 'healthcare:speciality': 'orthodontics;dentist', 'name': 'Dr. Esteban Bendaña', 'name:es': 'Dr. Esteban Bendaña'}}"
"{'type': 'node', 'id': 4734787825, 'lat': 12.1250373, 'lon': -86.2637665, 'tags': {'addr:street': 'Contralle Paseo Naciones Unides', 'amenity': 'clinic', 'healthcare': 'clinic', 'name': 'Clínica Vida Saludable', 'name:es': 'Clínica Vida Saludable'}}"
"{'type': 'node', 'id': 4758969222, 'lat': 11.8971192, 'lon': -86.123159, 'tags': {'amenity': 'pharmacy', 'name': 'Getsemani', 'name:es': 'Getsemani'}}"
"{'type': 'node', 'id': 4766785624, 'lat': 11.888828, 'lon': -86.1195056, 'tags': {'amenity': 'pharmacy', 'name': 'Farmacia', 'name:es': 'Farmacia'}}"
"{'type': 'node', 'id': 4799817821, 'lat': 12.1362995, 'lon': -86.2926318, 'tags': {'addr:street': '19a Calle S.O.', 'amenity': 'pharmacy', 'name': 'Farmacia Vitanova', 'name:es': 'Farmacia Vitanova'}}"
"{'type': 'node', 'id': 4799980524, 'lat': 11.9774814, 'lon': -86.0980206, 'tags': {'addr:street': 'Calle El Pochotillo', 'amenity': 'clinic', 'name': 'Medi Plaza CEUS - ID', 'name:es': 'Medi Plaza CEUS - ID'}}"
"{'type': 'node', 'id': 4800089321, 'lat': 12.1337553, 'lon': -86.293116, 'tags': {'addr:street': '22a Calle S.O.', 'amenity': 'pharmacy', 'name': 'Mi Redentor', 'name:es': 'Mi Redentor'}}"
"{'type': 'node', 'id': 4810238921, 'lat': 12.1147897, 'lon': -86.2695582, 'tags': {'addr:street': 'Calle Siloé', 'amenity': 'clinic', 'name': 'Oftalmolaser', 'name:es': 'Oftalmolaser'}}"
"{'type': 'node', 'id': 4832005927, 'lat': 12.148178, 'lon': -86.2923979, 'tags': {'addr:street': '21a Avenida S.O.', 'amenity': 'clinic', 'healthcare': 'clinic', 'name': 'Centro Clínico Santa Isabel.', 'name:en': 'Dr. Lester Espinoza', 'name:es': 'Centro Clínico Santa Isabel.', 'phone': '+505 2268 4813'}}"
"{'type': 'node', 'id': 4837113222, 'lat': 12.0776133, 'lon': -86.2278995, 'tags': {'amenity': 'pharmacy', 'name': 'Nicafar, S.A. Menarini', 'name:es': 'Nicafar, S.A. Menarini'}}"
"{'type': 'node', 'id': 4837802331, 'lat': 12.1386473, 'lon': -86.2073668, 'tags': {'addr:housenumber': '88790110', 'amenity': 'clinic', 'email': 'clinicamiranda@yahoo.es', 'healthcare': 'clinic', 'phone': '83553301'}}"
"{'type': 'node', 'id': 4860358723, 'lat': 12.1287387, 'lon': -86.2746703, 'tags': {'amenity': 'clinic', 'name': 'Audinic', 'name:es': 'Audinic'}}"
"{'type': 'node', 'id': 4865444121, 'lat': 12.147976, 'lon': -86.3046184, 'tags': {'addr:street': '35a Avenida S.O.', 'amenity': 'pharmacy', 'name': 'Farma Value Linda Vista', 'name:es': 'Farma Value Linda Vista'}}"
"{'type': 'node', 'id': 4890469421, 'lat': 12.1293725, 'lon': -86.2628056, 'tags': {'amenity': 'clinic', 'healthcare': 'clinic', 'name': 'Centro de Columna y Ortopedia', 'name:es': 'Centro de Columna y Ortopedia'}}"
"{'type': 'node', 'id': 4902717822, 'lat': 11.9733882, 'lon': -86.0953571, 'tags': {'amenity': 'pharmacy', 'name': 'Farma Value Masaya Calle San Miguel.', 'name:es': 'Farma Value Masaya Calle San Miguel.'}}"
"{'type': 'node', 'id': 4903052223, 'lat': 12.1521045, 'lon': -86.3077862, 'tags': {'addr:street': 'Cuesta de Los Martires (o del Plomo)', 'amenity': 'pharmacy', 'name': 'Farmacia Espíritu Santo Linda Vista.', 'name:es': 'Farmacia Espíritu Santo Linda Vista.'}}"
"{'type': 'node', 'id': 4908952722, 'lat': 11.9098426, 'lon': -86.2043384, 'tags': {'addr:street': 'San Marcos, Carazo', 'amenity': 'pharmacy', 'email': 'farmaciafamilar2017@gmail.com', 'name': 'Farmacia Familiar', 'opening_hours': 'Mo-Sa 08:00-21:00; Su 08:00-20:00', 'phone': '25353433'}}"
"{'type': 'node', 'id': 4926960421, 'lat': 12.1460579, 'lon': -86.2357865, 'tags': {'amenity': 'pharmacy', 'healthcare': 'pharmacy', 'name': 'Medical Center', 'old_name': 'Resurrección'}}"
"{'type': 'node', 'id': 4931617722, 'lat': 12.1492712, 'lon': -86.3105847, 'tags': {'amenity': 'pharmacy', 'name': 'Farmacia Extra', 'name:es': 'Farmacia Extra'}}"
"{'type': 'node', 'id': 4931617821, 'lat': 12.1455632, 'lon': -86.2974564, 'tags': {'amenity': 'pharmacy', 'name': 'Farmacia Pablo José', 'name:es': 'Farmacia Pablo José'}}"
"{'type': 'node', 'id': 4933255323, 'lat': 12.1523969, 'lon': -86.2898379, 'tags': {'amenity': 'pharmacy', 'name': 'Farmacia La Especialidad', 'name:es': 'Farmacia La Especialidad'}}"
"{'type': 'node', 'id': 4933255324, 'lat': 12.152496, 'lon': -86.2886507, 'tags': {'amenity': 'pharmacy', 'name': 'Farmacia Medal', 'name:es': 'Farmacia Medal'}}"
"{'type': 'node', 'id': 4937764022, 'lat': 12.0553849, 'lon': -86.2021469, 'tags': {'addr:street': 'Carretera a Veracruz', 'amenity': 'pharmacy', 'name': 'Farmacia Farma-City Veracruz.', 'name:es': 'Farmacia Farma-City Veracruz.'}}"
"{'type': 'node', 'id': 4947222523, 'lat': 12.1199208, 'lon': -86.2603406, 'tags': {'amenity': 'clinic', 'healthcare': 'clinic', 'name': ""Richard' Clínica"", 'name:es': ""Richard' Clínica""}}"
"{'type': 'node', 'id': 4962952723, 'lat': 12.0535362, 'lon': -86.2018894, 'tags': {'addr:street': 'NIC-4', 'amenity': 'pharmacy', 'name': 'KIELSA Farmacéutica', 'name:es': 'KIELSA Farmacéutica', 'opening_hours': 'Su-Fr 08:00-17:30; Sa 09:00-12:00'}}"
"{'type': 'node', 'id': 4979998321, 'lat': 12.1335031, 'lon': -86.2258065, 'tags': {'amenity': 'doctors', 'healthcare': 'doctor', 'name': 'Casa Comunal Puesto de Salud'}}"
"{'type': 'node', 'id': 4984087921, 'lat': 12.1593121, 'lon': -86.2043319, 'tags': {'addr:housenumber': 'G8', 'amenity': 'clinic', 'name': 'Clínica Pediátrica Génesis', 'name:en': 'Genesis Pediatric Clinic', 'phone': '+505 2293 6473'}}"
"{'type': 'node', 'id': 4998792524, 'lat': 11.5414463, 'lon': -85.697015, 'tags': {'amenity': 'pharmacy', 'healthcare': 'pharmacy', 'name:en': 'Farmacia Santa Ana'}}"
"{'type': 'node', 'id': 4998792525, 'lat': 11.5414899, 'lon': -85.6972511, 'tags': {'amenity': 'dentist', 'healthcare': 'dentist'}}"
"{'type': 'node', 'id': 5000635124, 'lat': 11.5393647, 'lon': -85.69669, 'tags': {'amenity': 'pharmacy', 'healthcare': 'pharmacy', 'name': 'Jany', 'name:es': 'Jany'}}"
"{'type': 'node', 'id': 5000842422, 'lat': 11.5358458, 'lon': -85.696399, 'tags': {'amenity': 'pharmacy', 'healthcare': 'pharmacy'}}"
"{'type': 'node', 'id': 5000842921, 'lat': 11.5408758, 'lon': -85.6975104, 'tags': {'amenity': 'pharmacy', 'healthcare': 'pharmacy'}}"
"{'type': 'node', 'id': 5000842922, 'lat': 11.5361606, 'lon': -85.6964026, 'tags': {'amenity': 'clinic', 'healthcare': 'clinic'}}"
"{'type': 'node', 'id': 5001979575, 'lat': 12.1034943, 'lon': -86.2547729, 'tags': {'amenity': 'clinic', 'name': 'Clínica de Ortodoncia Dr. Alejandro Saldaña', 'phone': '+505 2270 1195'}}"
"{'type': 'node', 'id': 5002173736, 'lat': 12.1534309, 'lon': -86.3016237, 'tags': {'amenity': 'pharmacy', 'name': 'San Guillermo'}}"
"{'type': 'node', 'id': 5051824520, 'lat': 12.1756441, 'lon': -86.3661286, 'tags': {'amenity': 'pharmacy', 'name': 'Farmacia Steven'}}"
"{'type': 'node', 'id': 5051862432, 'lat': 12.1772982, 'lon': -86.3641994, 'tags': {'amenity': 'pharmacy', 'name': 'Farmacia', 'source': 'Conocido'}}"
"{'type': 'node', 'id': 5052125388, 'lat': 11.8720873, 'lon': -86.4610475, 'tags': {'amenity': 'clinic', 'name': 'Centro de Salud'}}"
"{'type': 'node', 'id': 5082751922, 'lat': 12.1386785, 'lon': -86.2285217, 'tags': {'amenity': 'pharmacy', 'healthcare': 'pharmacy', 'level': '0', 'name': 'Farma City', 'shop': 'clothes'}}"
"{'type': 'node', 'id': 5082753323, 'lat': 12.1399026, 'lon': -86.2293312, 'tags': {'amenity': 'pharmacy', 'healthcare': 'pharmacy', 'level': '0', 'name': 'Kielsa'}}"
"{'type': 'node', 'id': 5082753328, 'lat': 12.139705, 'lon': -86.228456, 'tags': {'amenity': 'pharmacy', 'healthcare': 'pharmacy', 'level': '0', 'name': 'Don Bosco'}}"
"{'type': 'node', 'id': 5086728399, 'lat': 12.0854085, 'lon': -86.2674703, 'tags': {'amenity': 'hospital', 'healthcare': 'hospital', 'name': 'Colegio Odontológico'}}"
"{'type': 'node', 'id': 5102374921, 'lat': 12.1398729, 'lon': -86.2808855, 'tags': {'amenity': 'clinic', 'name': 'Casa Nazareth'}}"
"{'type': 'node', 'id': 5102374922, 'lat': 12.1388442, 'lon': -86.2771585, 'tags': {'amenity': 'clinic', 'name': 'Medlab', 'name:en': 'Medlab', 'name:es': 'Medlab'}}"
"{'type': 'node', 'id': 5129402122, 'lat': 12.1411867, 'lon': -86.2139477, 'tags': {'amenity': 'pharmacy', 'healthcare': 'pharmacy', 'name': 'Farmacia Ugarte'}}"
"{'type': 'node', 'id': 5129410121, 'lat': 12.1471514, 'lon': -86.2177399, 'tags': {'amenity': 'pharmacy', 'healthcare': 'pharmacy', 'name': 'Los Remedios'}}"
"{'type': 'node', 'id': 5132015223, 'lat': 12.148606, 'lon': -86.2065981, 'tags': {'amenity': 'pharmacy', 'name': 'CNPEN'}}"
"{'type': 'node', 'id': 5132018321, 'lat': 12.1468583, 'lon': -86.2177726, 'tags': {'amenity': 'pharmacy', 'healthcare': 'pharmacy', 'name': 'Larri'}}"
"{'type': 'node', 'id': 5137862722, 'lat': 12.1288057, 'lon': -86.2149408, 'tags': {'amenity': 'pharmacy', 'healthcare': 'pharmacy', 'name': 'Farmanet'}}"
"{'type': 'node', 'id': 5137863421, 'lat': 12.1472048, 'lon': -86.2177316, 'tags': {'amenity': 'pharmacy', 'healthcare': 'pharmacy', 'name': 'Súper Farmacia Alemana'}}"
"{'type': 'node', 'id': 5137863422, 'lat': 12.1456422, 'lon': -86.2094903, 'tags': {'amenity': 'pharmacy', 'name': 'Farmacias Ebenezer'}}"
"{'type': 'node', 'id': 5137863521, 'lat': 12.1268814, 'lon': -86.189255, 'tags': {'amenity': 'pharmacy', 'name': 'Súper Farmacia Tania'}}"
"{'type': 'node', 'id': 5148626624, 'lat': 12.1032223, 'lon': -86.2231656, 'tags': {'addr:city': 'Bluefields', 'addr:street': '55a Avenida S.E.', 'amenity': 'pharmacy', 'healthcare': 'pharmacy', 'name': 'Farmacia Hebrón'}}"
"{'type': 'node', 'id': 5156245121, 'lat': 12.1491905, 'lon': -86.2939399, 'tags': {'amenity': 'clinic', 'name': 'Especialidades Medica'}}"
"{'type': 'node', 'id': 5166365527, 'lat': 12.1506552, 'lon': -86.3048408, 'tags': {'amenity': 'pharmacy', 'name': 'Kielsa Linda Vista', 'short_name': 'Kielsa'}}"
"{'type': 'node', 'id': 5166619523, 'lat': 12.1289533, 'lon': -86.1983033, 'tags': {'amenity': 'pharmacy', 'name': 'Natita'}}"
"{'type': 'node', 'id': 5166619524, 'lat': 12.1125997, 'lon': -86.2017527, 'tags': {'amenity': 'pharmacy', 'healthcare': 'pharmacy', 'name': 'Julvan'}}"
"{'type': 'node', 'id': 5166619525, 'lat': 12.1173376, 'lon': -86.2017814, 'tags': {'amenity': 'pharmacy', 'healthcare': 'pharmacy', 'name': 'Aurora'}}"
"{'type': 'node', 'id': 5171369678, 'lat': 11.9312217, 'lon': -85.964478, 'tags': {'amenity': 'hospital', 'name': 'pnc Granada'}}"
"{'type': 'node', 'id': 5218969322, 'lat': 11.9758608, 'lon': -86.1000309, 'tags': {'amenity': 'pharmacy', 'name': 'Natalia'}}"
"{'type': 'node', 'id': 5218969323, 'lat': 12.1171838, 'lon': -86.3002835, 'tags': {'amenity': 'pharmacy', 'name': 'Helena'}}"
"{'type': 'node', 'id': 5218969324, 'lat': 12.1368858, 'lon': -86.2138766, 'tags': {'amenity': 'pharmacy', 'healthcare': 'pharmacy', 'name': 'Lucía'}}"
"{'type': 'node', 'id': 5218969422, 'lat': 11.8425947, 'lon': -86.2003509, 'tags': {'amenity': 'pharmacy', 'name': 'La Merced'}}"
"{'type': 'node', 'id': 5218969423, 'lat': 12.0965569, 'lon': -86.3025111, 'tags': {'amenity': 'pharmacy', 'name': 'Sierra Maestra'}}"
"{'type': 'node', 'id': 5218969424, 'lat': 12.1385828, 'lon': -86.2538385, 'tags': {'amenity': 'pharmacy', 'name': 'Los Paisas'}}"
"{'type': 'node', 'id': 5218969426, 'lat': 12.1125984, 'lon': -86.2017314, 'tags': {'amenity': 'pharmacy', 'healthcare': 'pharmacy', 'name': 'Julián'}}"
"{'type': 'node', 'id': 5218982221, 'lat': 12.1240686, 'lon': -86.2956915, 'tags': {'amenity': 'pharmacy', 'name': 'Ideal'}}"
"{'type': 'node', 'id': 5218982222, 'lat': 12.1161915, 'lon': -86.2969308, 'tags': {'amenity': 'pharmacy', 'name': 'El Apóstol'}}"
"{'type': 'node', 'id': 5218982223, 'lat': 12.1521159, 'lon': -86.189084, 'tags': {'amenity': 'pharmacy', 'name': 'La Palmita'}}"
"{'type': 'node', 'id': 5218982224, 'lat': 12.1009592, 'lon': -86.2411502, 'tags': {'addr:city': 'Managua', 'addr:street': 'Pasaje Las Rosas', 'amenity': 'pharmacy', 'healthcare': 'pharmacy', 'name': 'Saba oficina'}}"
"{'type': 'node', 'id': 5231091422, 'lat': 12.194469, 'lon': -86.095964, 'tags': {'amenity': 'pharmacy', 'name': 'San Martín'}}"
"{'type': 'node', 'id': 5244720422, 'lat': 11.4938699, 'lon': -85.8573902, 'tags': {'amenity': 'pharmacy', 'name': 'Farmacia san miguel arcangel'}}"
"{'type': 'node', 'id': 5244866121, 'lat': 11.9099269, 'lon': -86.2046107, 'tags': {'amenity': 'pharmacy', 'name': 'Farmacia santo remedio'}}"
"{'type': 'node', 'id': 5244968323, 'lat': 11.968709, 'lon': -86.0952777, 'tags': {'amenity': 'clinic', 'name': 'DRA. IRMA ALVARADO'}}"
"{'type': 'node', 'id': 5250526723, 'lat': 11.4400053, 'lon': -85.8286258, 'tags': {'amenity': 'pharmacy', 'healthcare': 'pharmacy', 'name': 'Fmarcia La Inmaculada'}}"
"{'type': 'node', 'id': 5250526724, 'lat': 11.4396557, 'lon': -85.8289458, 'tags': {'amenity': 'pharmacy', 'healthcare': 'pharmacy', 'name': 'Farmacia El Ahorro'}}"
"{'type': 'node', 'id': 5266131921, 'lat': 12.096606, 'lon': -86.3416368, 'tags': {'amenity': 'pharmacy', 'name': 'Diracsa'}}"
"{'type': 'node', 'id': 5268820621, 'lat': 11.8501655, 'lon': -86.1989676, 'tags': {'amenity': 'pharmacy', 'name': 'Farmacia praga'}}"
"{'type': 'node', 'id': 5305096722, 'lat': 12.1240939, 'lon': -86.2596053, 'tags': {'amenity': 'clinic', 'name': 'Esbell (Cirugía Plástica)'}}"
"{'type': 'node', 'id': 5307945054, 'lat': 12.1003469, 'lon': -86.237577, 'tags': {'addr:street': 'Uniplaza Las Colinas', 'healthcare': 'counselling', 'name': 'Smart Choices'}}"
"{'type': 'node', 'id': 5308865639, 'lat': 11.5254783, 'lon': -85.5891276, 'tags': {'amenity': 'doctors', 'healthcare': 'doctor', 'healthcare:speciality': 'general', 'opening_hours': 'Mo-Fr 09:00-12:00,13:30-18:30;Sa 09:00-17:00;PH closed'}}"
"{'type': 'node', 'id': 5330085821, 'lat': 11.9123042, 'lon': -86.1451672, 'tags': {'amenity': 'clinic', 'name': 'Clínica El Maestro'}}"
"{'type': 'node', 'id': 5331466722, 'lat': 11.9198843, 'lon': -86.1438806, 'tags': {'amenity': 'clinic', 'name': 'Centro de Salud'}}"
"{'type': 'node', 'id': 5335255724, 'lat': 11.9143658, 'lon': -86.1458167, 'tags': {'amenity': 'pharmacy', 'healthcare': 'pharmacy', 'name': 'Farmaia Estrella Roja'}}"
"{'type': 'node', 'id': 5335255725, 'lat': 11.9155754, 'lon': -86.1458064, 'tags': {'amenity': 'pharmacy', 'name': 'Farmalivio'}}"
"{'type': 'node', 'id': 5335255726, 'lat': 11.9186506, 'lon': -86.1443583, 'tags': {'amenity': 'pharmacy', 'healthcare': 'pharmacy', 'name': 'Farmacia Veracruz'}}"
"{'type': 'node', 'id': 5335257723, 'lat': 11.9109551, 'lon': -86.1432598, 'tags': {'amenity': 'pharmacy', 'name': 'Farmacia Sinaí'}}"
"{'type': 'node', 'id': 5335257823, 'lat': 11.9090228, 'lon': -86.1451946, 'tags': {'amenity': 'pharmacy', 'name': 'Farmacia Gulmara'}}"
"{'type': 'node', 'id': 5335257824, 'lat': 11.9197397, 'lon': -86.1446698, 'tags': {'amenity': 'pharmacy', 'name': 'Farmacia Javiera'}}"
"{'type': 'node', 'id': 5335258321, 'lat': 11.9132621, 'lon': -86.146049, 'tags': {'amenity': 'pharmacy', 'name': 'Farmacia El Carmen'}}"
"{'type': 'node', 'id': 5342472522, 'lat': 11.8466915, 'lon': -86.2008405, 'tags': {'amenity': 'clinic', 'name': 'Enrique Brenes'}}"
"{'type': 'node', 'id': 5394999578, 'lat': 12.146417, 'lon': -86.2614768, 'tags': {'amenity': 'pharmacy', 'email': 'ventas@labbengoechea.com.ni', 'fax': '+505 2277 2144', 'healthcare': 'pharmacy', 'name': 'Farmacia Los Paisanos', 'phone': '+505 2277 2145'}}"
"{'type': 'node', 'id': 5398572325, 'lat': 12.3305937, 'lon': -85.9535696, 'tags': {'amenity': 'pharmacy', 'name': 'medicina virgen maria'}}"
"{'type': 'node', 'id': 5398611922, 'lat': 12.1249581, 'lon': -86.2634532, 'tags': {'amenity': 'clinic', 'healthcare': 'clinic', 'name': 'Clínica de Alta Especialidad Da Vinci'}}"
"{'type': 'node', 'id': 5398818521, 'lat': 12.3292824, 'lon': -85.9541273, 'tags': {'amenity': 'pharmacy', 'name': 'Nora'}}"
"{'type': 'node', 'id': 5398839021, 'lat': 12.200677, 'lon': -86.088818, 'tags': {'amenity': 'pharmacy', 'name': 'Levi'}}"
"{'type': 'node', 'id': 5398858022, 'lat': 12.2010606, 'lon': -86.0912077, 'tags': {'amenity': 'pharmacy', 'name': 'Royal'}}"
"{'type': 'node', 'id': 5398886923, 'lat': 12.1979852, 'lon': -86.0963411, 'tags': {'amenity': 'pharmacy', 'name': 'Farmavero'}}"
"{'type': 'node', 'id': 5398942921, 'lat': 12.1970592, 'lon': -86.0960435, 'tags': {'amenity': 'pharmacy', 'name': 'El Bálsamo'}}"
"{'type': 'node', 'id': 5399015321, 'lat': 12.1976863, 'lon': -86.0959231, 'tags': {'amenity': 'pharmacy', 'name': 'Misericordia'}}"
"{'type': 'node', 'id': 5399177021, 'lat': 12.1971021, 'lon': -86.0953812, 'tags': {'amenity': 'pharmacy', 'name': 'Sagrado Corazón de Jesús'}}"
"{'type': 'node', 'id': 5399428021, 'lat': 12.1929567, 'lon': -86.0961442, 'tags': {'amenity': 'pharmacy', 'name': 'San José'}}"
"{'type': 'node', 'id': 5399481121, 'lat': 12.17738, 'lon': -86.0956516, 'tags': {'amenity': 'pharmacy', 'name': 'La Fe'}}"
"{'type': 'node', 'id': 5399554321, 'lat': 12.2612545, 'lon': -85.38284, 'tags': {'amenity': 'doctors', 'healthcare': 'doctor', 'name': 'Clinica Privada'}}"
"{'type': 'node', 'id': 5399707622, 'lat': 12.1679057, 'lon': -86.1097275, 'tags': {'amenity': 'pharmacy', 'name': 'San Rafael'}}"
"{'type': 'node', 'id': 5401419521, 'lat': 12.1495348, 'lon': -86.2105389, 'tags': {'amenity': 'pharmacy', 'name': 'CNPEN'}}"
"{'type': 'node', 'id': 5405710295, 'lat': 12.1479705, 'lon': -86.2578792, 'tags': {'amenity': 'pharmacy', 'description': 'Distribuidor mayorista y al detalle de productos farmacéuticos', 'email': 'encajes@gmail.com', 'healthcare': 'pharmacy', 'name': 'Farmacia Los Paisanos', 'old_name': 'Casa de los encajes', 'phone': '+505 2264 8592;+505 7833 4601', 'reference_point': 'yes'}}"
"{'type': 'node', 'id': 5407588021, 'lat': 12.1191083, 'lon': -86.2401972, 'tags': {'amenity': 'pharmacy', 'healthcare': 'pharmacy', 'name': 'El Socorro'}}"
"{'type': 'node', 'id': 5407932822, 'lat': 12.1180928, 'lon': -86.2209452, 'tags': {'amenity': 'pharmacy', 'healthcare': 'pharmacy', 'name': 'Dalvita'}}"
"{'type': 'node', 'id': 5410290338, 'lat': 12.1126979, 'lon': -86.2082198, 'tags': {'amenity': 'pharmacy', 'name': 'Elizabeth'}}"
"{'type': 'node', 'id': 5410290340, 'lat': 12.1092974, 'lon': -86.1931985, 'tags': {'amenity': 'pharmacy', 'name': 'Sofia'}}"
"{'type': 'node', 'id': 5410322123, 'lat': 12.1121981, 'lon': -86.1971336, 'tags': {'amenity': 'pharmacy', 'healthcare': 'pharmacy', 'name': 'Las Lomas'}}"
"{'type': 'node', 'id': 5410422821, 'lat': 12.1185382, 'lon': -86.2033965, 'tags': {'amenity': 'pharmacy', 'healthcare': 'pharmacy', 'name': 'Carrión'}}"
"{'type': 'node', 'id': 5412455322, 'lat': 12.149922, 'lon': -86.2031842, 'tags': {'amenity': 'pharmacy', 'name': 'Elohin'}}"
"{'type': 'node', 'id': 5412458721, 'lat': 12.1517937, 'lon': -86.2029632, 'tags': {'amenity': 'pharmacy', 'name': 'Magaly'}}"
"{'type': 'node', 'id': 5412996721, 'lat': 12.1364211, 'lon': -86.2090474, 'tags': {'amenity': 'pharmacy', 'healthcare': 'pharmacy', 'name': 'Joare'}}"
"{'type': 'node', 'id': 5414820821, 'lat': 12.1966527, 'lon': -86.0952325, 'tags': {'amenity': 'pharmacy', 'name': 'Sagrado Corazón de Jesús'}}"
"{'type': 'node', 'id': 5414906121, 'lat': 12.1998378, 'lon': -86.0885579, 'tags': {'amenity': 'pharmacy', 'name': 'Jeshua'}}"
"{'type': 'node', 'id': 5414982621, 'lat': 12.1960653, 'lon': -86.0869524, 'tags': {'amenity': 'pharmacy', 'name': 'Hossana'}}"
"{'type': 'node', 'id': 5415021630, 'lat': 12.1790924, 'lon': -86.1009571, 'tags': {'amenity': 'pharmacy', 'name': 'Sama'}}"
"{'type': 'node', 'id': 5415044021, 'lat': 12.1872325, 'lon': -86.0966908, 'tags': {'amenity': 'pharmacy', 'name': 'Chavarría'}}"
"{'type': 'node', 'id': 5416832922, 'lat': 12.1384824, 'lon': -86.2113737, 'tags': {'amenity': 'pharmacy', 'healthcare': 'pharmacy', 'name': 'Jesus mi luz'}}"
"{'type': 'node', 'id': 5423608321, 'lat': 12.1320159, 'lon': -86.2213382, 'tags': {'amenity': 'pharmacy', 'healthcare': 'pharmacy', 'name': 'Farvent'}}"
"{'type': 'node', 'id': 5425151221, 'lat': 12.2013679, 'lon': -86.0915256, 'tags': {'amenity': 'pharmacy', 'name': 'Fuente de vida'}}"
"{'type': 'node', 'id': 5426778122, 'lat': 12.1534822, 'lon': -86.2181612, 'tags': {'amenity': 'pharmacy', 'name': 'Farmacia Amanda'}}"
"{'type': 'node', 'id': 5427006021, 'lat': 12.1504512, 'lon': -86.1998649, 'tags': {'amenity': 'clinic', 'name': 'Centro Quirúrgico Apolonio Berrios'}}"
"{'type': 'node', 'id': 5429410927, 'lat': 11.8439227, 'lon': -86.1955639, 'tags': {'amenity': 'hospital'}}"
"{'type': 'node', 'id': 5443069021, 'lat': 12.1200921, 'lon': -86.1652844, 'tags': {'amenity': 'pharmacy', 'name': 'Marbelly'}}"
"{'type': 'node', 'id': 5443719221, 'lat': 12.1524914, 'lon': -86.2163754, 'tags': {'amenity': 'pharmacy', 'name': 'Farmacia Crisles'}}"
"{'type': 'node', 'id': 5446701129, 'lat': 12.1185195, 'lon': -86.2565045, 'tags': {'amenity': 'clinic', 'healthcare': 'clinic', 'name': 'Orthoclinic #Puente'}}"
"{'type': 'node', 'id': 5446707321, 'lat': 12.1197963, 'lon': -86.2577279, 'tags': {'amenity': 'clinic', 'name': 'Omnilife #Puente'}}"
"{'type': 'node', 'id': 5459810121, 'lat': 12.1771532, 'lon': -86.0958908, 'tags': {'amenity': 'pharmacy', 'name': 'La Fe'}}"
"{'type': 'node', 'id': 5462654724, 'lat': 12.1182418, 'lon': -86.2164232, 'tags': {'amenity': 'pharmacy', 'healthcare': 'pharmacy', 'name': 'El Nazareno'}}"
"{'type': 'node', 'id': 5463235225, 'lat': 12.1534524, 'lon': -86.3060441, 'tags': {'addr:city': 'Managua, Nicaragua', 'amenity': 'pharmacy', 'dispensing': 'yes', 'drive_through': 'yes', 'healthcare': 'pharmacy', 'name': 'Farmacia Kielsa', 'note': 'Buena atención', 'opening_hours': '24/7', 'operator': 'KIELSA Farmacéutica S.A', 'payment:cash': 'yes', 'payment:credit_cards': 'yes', 'payment:debit_cards': 'yes', 'phone': '+505 2251-2323', 'website': 'https://www.kielsa.com.ni/'}}"
"{'type': 'node', 'id': 5463440925, 'lat': 12.1466449, 'lon': -86.2600995, 'tags': {'amenity': 'clinic', 'healthcare': 'clinic', 'name': 'Popolna'}}"
"{'type': 'node', 'id': 5467728293, 'lat': 12.1491118, 'lon': -86.1578684, 'tags': {'amenity': 'pharmacy', 'name': 'Rostrán'}}"
"{'type': 'node', 'id': 5467728762, 'lat': 12.1449326, 'lon': -86.2596734, 'tags': {'amenity': 'dentist', 'healthcare': 'dentist', 'name': 'Dentista'}}"
"{'type': 'node', 'id': 5467728765, 'lat': 12.1476675, 'lon': -86.2609796, 'tags': {'amenity': 'pharmacy', 'dispensing': 'yes', 'healthcare': 'pharmacy', 'name': 'Farmacia San Gabriel'}}"
"{'type': 'node', 'id': 5467729063, 'lat': 12.1477102, 'lon': -86.2609889, 'tags': {'amenity': 'pharmacy', 'dispensing': 'yes', 'healthcare': 'pharmacy', 'name': 'Farmacia El Doctor'}}"
"{'type': 'node', 'id': 5467729121, 'lat': 12.1477721, 'lon': -86.2609776, 'tags': {'amenity': 'pharmacy', 'dispensing': 'yes', 'healthcare': 'pharmacy'}}"
"{'type': 'node', 'id': 5473355324, 'lat': 12.1045534, 'lon': -86.2243582, 'tags': {'addr:city': 'Bluefields', 'addr:street': 'Camino La Mocuama', 'amenity': 'pharmacy', 'healthcare': 'pharmacy', 'name': 'Farmacia Dasha', 'name:es': 'Farmacia Dasha'}}"
"{'type': 'node', 'id': 5478323747, 'lat': 12.1491629, 'lon': -86.2594898, 'tags': {'amenity': 'pharmacy', 'name': 'Esquina de la pastilla'}}"
"{'type': 'node', 'id': 5478324542, 'lat': 12.1486345, 'lon': -86.2592231, 'tags': {'amenity': 'pharmacy', 'healthcare': 'pharmacy', 'name': 'Farmacia'}}"
"{'type': 'node', 'id': 5478324544, 'lat': 12.1490986, 'lon': -86.2581075, 'tags': {'amenity': 'pharmacy', 'healthcare': 'pharmacy', 'name': 'Puesto de Medicamentos Populares Luna'}}"
"{'type': 'node', 'id': 5478329279, 'lat': 12.1492771, 'lon': -86.2598515, 'tags': {'amenity': 'pharmacy', 'healthcare': 'pharmacy', 'mapillary': '153184913430704', 'name': 'Venta de medicamentos parsson', 'source': 'survey', 'survey:date': '2018-03-19'}}"
"{'type': 'node', 'id': 5480827221, 'lat': 12.1127281, 'lon': -86.2018622, 'tags': {'amenity': 'pharmacy', 'healthcare': 'pharmacy', 'name': 'Julvan'}}"
"{'type': 'node', 'id': 5481564745, 'lat': 12.1497195, 'lon': -86.2593572, 'tags': {'amenity': 'pharmacy', 'dispensing': 'yes', 'healthcare': 'pharmacy', 'name': 'Farmacia ""San Sebastián""'}}"
"{'type': 'node', 'id': 5481812997, 'lat': 12.1478124, 'lon': -86.2549958, 'tags': {'amenity': 'doctors', 'description': 'Cirugía general', 'healthcare': 'doctor', 'name': 'Consultorio médico-Dr. Davidnia Baez Estrada'}}"
"{'type': 'node', 'id': 5481853351, 'lat': 12.1500786, 'lon': -86.2550691, 'tags': {'amenity': 'social_facility', 'healthcare': 'rehabilitation', 'name': 'AA ""El buen camino""', 'social_facility': 'group_home'}}"
"{'type': 'node', 'id': 5483788540, 'lat': 12.1494288, 'lon': -86.3520465, 'tags': {'amenity': 'clinic', 'healthcare': 'clinic', 'healthcare:speciality': 'paediatrics', 'name': 'Clínica Pediátrica'}}"
"{'type': 'node', 'id': 5491691622, 'lat': 12.149769, 'lon': -86.3523956, 'tags': {'addr:city': 'Ciudad Sandino', 'addr:housenumber': 'E-14', 'addr:postcode': '15700', 'addr:street': 'de la Rotonda 1 c al norte;1c abajo;1c al norte;2 c arriba;casa E-14', 'amenity': 'pharmacy', 'dispensing': 'yes', 'healthcare': 'pharmacy', 'name': 'Farma Hermanos', 'opening_hours': 'Mo-Sa 08:00-22:00; Su 16:00-22:00', 'payment:cash': 'yes'}}"
"{'type': 'node', 'id': 5492409646, 'lat': 12.1447398, 'lon': -86.3521299, 'tags': {'addr:city': 'Ciudad Sandino', 'addr:housenumber': 'FS-12', 'addr:postcode': '15700', 'amenity': 'pharmacy', 'delivery': 'yes', 'dispensing': 'no', 'drive_through': 'no', 'healthcare': 'pharmacy', 'name': 'Farmacia El Farolito', 'opening_hours': 'Mo-Su 10:00-22:00', 'payment:cash': 'yes', 'payment:credit_cards': 'yes'}}"
"{'type': 'node', 'id': 5501743026, 'lat': 12.1224521, 'lon': -86.3146347, 'tags': {'amenity': 'clinic', 'email': 'info@clinicavilladelsur.com', 'name': 'Clínica Villa del Sur', 'phone': '22543537', 'website': 'http://clinicavilladelsur.com'}}"
"{'type': 'node', 'id': 5531324323, 'lat': 12.1419885, 'lon': -86.2854894, 'tags': {'addr:street': '12a Calle S.O.', 'amenity': 'clinic', 'name': 'Clínica dental Dra. Laura Vargas.'}}"
"{'type': 'node', 'id': 5541046522, 'lat': 12.1248624, 'lon': -86.2732182, 'tags': {'amenity': 'clinic', 'name': 'Dra. Jackeline Lawey'}}"
"{'type': 'node', 'id': 5563105222, 'lat': 12.1385025, 'lon': -86.2340775, 'tags': {'amenity': 'clinic', 'healthcare': 'clinic', 'name': 'Dr. Javier Cerpas'}}"
"{'type': 'node', 'id': 5563209421, 'lat': 12.1798599, 'lon': -86.0982738, 'tags': {'amenity': 'pharmacy', 'name': 'Camila'}}"
"{'type': 'node', 'id': 5563209521, 'lat': 12.1970471, 'lon': -86.0948451, 'tags': {'amenity': 'pharmacy', 'name': 'La Gran Vía'}}"
"{'type': 'node', 'id': 5564104690, 'lat': 11.2554602, 'lon': -85.8696544, 'tags': {'amenity': 'hospital', 'healthcare': 'hospital'}}"
"{'type': 'node', 'id': 5566832021, 'lat': 12.1521263, 'lon': -86.1970084, 'tags': {'amenity': 'pharmacy', 'name': 'Tommy'}}"
"{'type': 'node', 'id': 5572079906, 'lat': 12.1519133, 'lon': -86.2202347, 'tags': {'amenity': 'dentist', 'description': 'Restaurativa y cirugía oral', 'healthcare': 'dentist', 'healthcare:speciality': 'endodontics', 'name': 'Dr. Carlos Mayorga', 'note': 'Agenda tu cita', 'opening_hours': 'Mo-Fr 07:30-18:00; Sa 08:00-16:00; Su closed', 'phone': '+505 8785 7062'}}"
"{'type': 'node', 'id': 5588818734, 'lat': 12.1781362, 'lon': -86.0940544, 'tags': {'amenity': 'pharmacy', 'name': 'Mi Buen Jesus'}}"
"{'type': 'node', 'id': 5589057122, 'lat': 12.2022525, 'lon': -86.0954658, 'tags': {'amenity': 'pharmacy', 'name': 'Nazareno'}}"
"{'type': 'node', 'id': 5596687126, 'lat': 12.1613439, 'lon': -86.1895649, 'tags': {'amenity': 'pharmacy', 'name': 'NIN'}}"
"{'type': 'node', 'id': 5676832028, 'lat': 12.1513183, 'lon': -86.2359104, 'tags': {'amenity': 'pharmacy', 'name': 'Gosén'}}"
"{'type': 'node', 'id': 5736908124, 'lat': 12.1579934, 'lon': -86.2354012, 'tags': {'amenity': 'pharmacy', 'name': 'Selston'}}"
"{'type': 'node', 'id': 5773292155, 'lat': 12.1158577, 'lon': -86.280025, 'tags': {'amenity': 'pharmacy', 'name': 'Marwis'}}"
"{'type': 'node', 'id': 5790001553, 'lat': 12.1481881, 'lon': -86.2299679, 'tags': {'amenity': 'pharmacy', 'name': 'Clinilab'}}"
"{'type': 'node', 'id': 5825407453, 'lat': 12.1486798, 'lon': -86.2870553, 'tags': {'addr:street': 'Calle 4 de Noviembre', 'amenity': 'hospital', 'name': 'Clínica Abrahante Díaz', 'name:en': 'Abrahante Díaz Clinic', 'opening_hours': 'Mo-Sa 07:00-16:00'}}"
"{'type': 'node', 'id': 5834790885, 'lat': 12.1156809, 'lon': -86.2302315, 'tags': {'addr:city': 'Bluefields', 'addr:street': '52a Avenida S.E.', 'amenity': 'pharmacy', 'healthcare': 'pharmacy', 'name': 'Jonath Martínez'}}"
"{'type': 'node', 'id': 5915117187, 'lat': 12.0556637, 'lon': -86.1999558, 'tags': {'amenity': 'hospital', 'healthcare': 'hospital', 'name': 'Farmacia SABA'}}"
"{'type': 'node', 'id': 5945516286, 'lat': 11.9164063, 'lon': -86.1436049, 'tags': {'amenity': 'pharmacy', 'healthcare': 'pharmacy', 'name': 'Farmacia Santo Remedio'}}"
"{'type': 'node', 'id': 5955680487, 'lat': 12.0748245, 'lon': -86.2169578, 'tags': {'amenity': 'pharmacy', 'name': 'Natalie'}}"
"{'type': 'node', 'id': 5970759269, 'lat': 12.021466, 'lon': -86.2121967, 'tags': {'amenity': 'clinic', 'name': 'Clínica Vidal Ruiz'}}"
"{'type': 'node', 'id': 6095645488, 'lat': 12.1258393, 'lon': -86.2658592, 'tags': {'amenity': 'pharmacy', 'dispensing': 'yes', 'healthcare': 'pharmacy', 'name': 'Farmacia Xolotlán'}}"
"{'type': 'node', 'id': 6126918367, 'lat': 12.1216168, 'lon': -86.2518379, 'tags': {'addr:city': 'Managua', 'addr:housenumber': '514', 'addr:street': 'Calle Madroño', 'beauty': 'hair,nails,cosmetics,pedicure', 'healthcare': 'alternative', 'healthcare:speciality': 'reiki;shiatsu', 'name': 'Soe Belleza y Salud', 'opening_hours': 'Mo-Sa 08:00-18:00', 'payment:cash': 'yes', 'payment:credit_cards': 'yes', 'phone': '+50558339592', 'shop': 'beauty', 'sport': 'yoga', 'website': 'https://www.facebook.com/Soe.BellezaySalud/'}}"
"{'type': 'node', 'id': 6185115298, 'lat': 12.1501923, 'lon': -86.2178194, 'tags': {'amenity': 'pharmacy', 'name': 'Sirviendo a la Comunidad No 2'}}"
"{'type': 'node', 'id': 6186048181, 'lat': 12.1485522, 'lon': -86.2241352, 'tags': {'amenity': 'pharmacy', 'healthcare': 'pharmacy', 'name': 'Santamaría de Guadalupe', 'phone': '+505 2251 4734'}}"
"{'type': 'node', 'id': 6191189633, 'lat': 12.1494271, 'lon': -86.2184866, 'tags': {'healthcare': 'laboratory', 'name': 'Laboratorio de Vacunas Mechnicov', 'office': 'company'}}"
"{'type': 'node', 'id': 6191189637, 'lat': 12.1496196, 'lon': -86.2166211, 'tags': {'amenity': 'pharmacy', 'healthcare': 'pharmacy', 'name': 'Farma Center', 'note': 'Tigo Whatsapp', 'opening_hours': 'Mo-Su 07:00-21:00', 'phone': '+505 7792 2209'}}"
"{'type': 'node', 'id': 6195580767, 'lat': 12.1516993, 'lon': -86.2202379, 'tags': {'amenity': 'pharmacy', 'name': 'Farmacia Louis', 'phone': '+505 2225 0881 +505 8879 1505'}}"
"{'type': 'node', 'id': 6198767149, 'lat': 12.1523193, 'lon': -86.2202094, 'tags': {'amenity': 'pharmacy', 'name': 'Farmacia Cela'}}"
"{'type': 'node', 'id': 6218976637, 'lat': 12.1443941, 'lon': -86.2376814, 'tags': {'amenity': 'pharmacy', 'name': 'Farmacia Buena Esperanza'}}"
"{'type': 'node', 'id': 6221469651, 'lat': 12.1506113, 'lon': -86.2271534, 'tags': {'amenity': 'pharmacy', 'healthcare': 'pharmacy', 'name': 'Farmacia Del Pueblo'}}"
"{'type': 'node', 'id': 6221469652, 'lat': 12.1502714, 'lon': -86.2243469, 'tags': {'amenity': 'dentist', 'healthcare': 'dentist', 'office': 'company'}}"
"{'type': 'node', 'id': 6221543078, 'lat': 12.1519124, 'lon': -86.235494, 'tags': {'healthcare': 'laboratory', 'name': 'Laboratorios Ramos', 'office': 'company'}}"
"{'type': 'node', 'id': 6231047224, 'lat': 12.1438999, 'lon': -86.2263054, 'tags': {'amenity': 'dentist', 'healthcare': 'dentist', 'name': 'Centro Dental Pío X'}}"
"{'type': 'node', 'id': 6231047225, 'lat': 12.1444618, 'lon': -86.2268535, 'tags': {'healthcare': 'laboratory', 'name': 'Laboratorio Clínico Santa Julia', 'opening_hours': 'Mo-Fr 07:00-17:00; Sa 07:00-12:00'}}"
"{'type': 'node', 'id': 6231479688, 'lat': 12.1491359, 'lon': -86.2236784, 'tags': {'amenity': 'dentist', 'healthcare': 'dentist', 'name': 'Grace Dental'}}"
"{'type': 'node', 'id': 6233029587, 'lat': 12.1447281, 'lon': -86.2280129, 'tags': {'amenity': 'pharmacy'}}"
"{'type': 'node', 'id': 6236589014, 'lat': 12.1498364, 'lon': -86.2239648, 'tags': {'amenity': 'dentist', 'description': 'Odontología Integral', 'healthcare': 'dentist', 'name': 'Clínica Dental Dra. Dessireth Ráudez Reyes', 'note': 'Claro: +505 8661 1995 Tigo: +505 8787 3088', 'opening_hours': 'Mo-Fr 09:00-17:00; Sa 09:00-16:00; Su closed', 'phone': '+505 2240 1746'}}"
"{'type': 'node', 'id': 6236789810, 'lat': 12.0947079, 'lon': -86.3069038, 'tags': {'amenity': 'pharmacy', 'name': 'Farmacia Los Angeles', 'opening_hours': 'Mo-Fr 07:00-20:00; Sa 08:00-18:00'}}"
"{'type': 'node', 'id': 6237975776, 'lat': 12.1440209, 'lon': -86.2271894, 'tags': {'amenity': 'clinic', 'healthcare': 'clinic', 'name': 'Clínica Médica Universal'}}"
"{'type': 'node', 'id': 6240801591, 'lat': 12.130049, 'lon': -86.2995892, 'tags': {'amenity': 'hospital', 'healthcare': 'hospital', 'name': 'Centro de Salud Altagracia', 'operator': 'MINSA'}}"
"{'type': 'node', 'id': 6253707742, 'lat': 12.1452839, 'lon': -86.2283429, 'tags': {'healthcare': 'laboratory', 'name': 'Biolab'}}"
"{'type': 'node', 'id': 6257034421, 'lat': 12.1411343, 'lon': -86.2150257, 'tags': {'amenity': 'pharmacy', 'healthcare': 'pharmacy', 'name': 'Don Teo'}}"
"{'type': 'node', 'id': 6266881221, 'lat': 12.1432559, 'lon': -86.2375794, 'tags': {'amenity': 'dentist', 'healthcare': 'dentist'}}"
"{'type': 'node', 'id': 6266953485, 'lat': 12.1463793, 'lon': -86.2384089, 'tags': {'amenity': 'pharmacy', 'name': 'Farmacia Susan'}}"
"{'type': 'node', 'id': 6266953486, 'lat': 12.1462899, 'lon': -86.2378147, 'tags': {'amenity': 'pharmacy', 'name': 'Farmacia Sarita'}}"
"{'type': 'node', 'id': 6268074814, 'lat': 12.112946, 'lon': -86.3154303, 'tags': {'craft': 'laboratory', 'healthcare': 'laboratory', 'name': 'Jaime Román'}}"
"{'type': 'node', 'id': 6268384135, 'lat': 12.1129423, 'lon': -86.3155971, 'tags': {'amenity': 'pharmacy', 'name': 'Farmacias Kielsa', 'opening_hours': 'Mo-Sa 08:00-20:30; Su 08:00-20:00'}}"
"{'type': 'node', 'id': 6276690649, 'lat': 12.1182198, 'lon': -86.3807594, 'tags': {'amenity': 'hospital', 'healthcare': 'hospital', 'name': 'Centro de Salud Cuajachillo # 2'}}"
"{'type': 'node', 'id': 6281172843, 'lat': 12.1448779, 'lon': -86.2376702, 'tags': {'amenity': 'pharmacy', 'name': 'Farmacias Ebenezer'}}"
"{'type': 'node', 'id': 6289626985, 'lat': 12.4458308, 'lon': -86.0404828, 'tags': {'amenity': 'pharmacy', 'name': 'Los Olivos'}}"
"{'type': 'node', 'id': 6353357091, 'lat': 12.1552624, 'lon': -86.2381514, 'tags': {'amenity': 'pharmacy', 'healthcare': 'pharmacy', 'name': 'PharmaFe'}}"
"{'type': 'node', 'id': 6353357092, 'lat': 12.1536792, 'lon': -86.2374616, 'tags': {'amenity': 'dentist', 'healthcare': 'dentist', 'name': 'Arte Dental B&C', 'phone': '+505 8872 2543;+505 5763 9433'}}"
"{'type': 'node', 'id': 6371337385, 'lat': 12.1352006, 'lon': -86.284023, 'tags': {'amenity': 'clinic', 'healthcare': 'clinic', 'name': 'Clínica Plaza España'}}"
"{'type': 'node', 'id': 6474141395, 'lat': 12.147445, 'lon': -86.1758011, 'tags': {'amenity': 'doctors', 'healthcare': 'doctor', 'healthcare:speciality': 'orthopaedics;specialist_pediatrician'}}"
"{'type': 'node', 'id': 6474141396, 'lat': 12.1478299, 'lon': -86.1765565, 'tags': {'amenity': 'doctors', 'healthcare': 'doctor', 'healthcare:speciality': 'paediatrics;oncology'}}"
"{'type': 'node', 'id': 6533034126, 'lat': 12.1414309, 'lon': -86.237892, 'tags': {'amenity': 'pharmacy', 'name': 'Farmacia La Fe'}}"
"{'type': 'node', 'id': 6601431386, 'lat': 12.1107895, 'lon': -86.3161731, 'tags': {'amenity': 'pharmacy', 'name': 'Farmacia Samaria'}}"
"{'type': 'node', 'id': 6612009348, 'lat': 12.0944938, 'lon': -86.3091182, 'tags': {'amenity': 'pharmacy', 'dispensing': 'yes', 'healthcare': 'pharmacy', 'name': 'Farmacia Puerto'}}"
"{'type': 'node', 'id': 6612022099, 'lat': 12.1077343, 'lon': -86.1888862, 'tags': {'addr:street': '119a Avenida S.E.', 'amenity': 'clinic', 'healthcare': 'clinic', 'healthcare:speciality': 'general', 'name': 'Centro de Salud Che Guevara'}}"
"{'type': 'node', 'id': 6658346727, 'lat': 12.1190008, 'lon': -86.2053911, 'tags': {'amenity': 'pharmacy', 'dispensing': 'yes', 'healthcare': 'pharmacy'}}"
"{'type': 'node', 'id': 6677690851, 'lat': 12.1279712, 'lon': -86.2079496, 'tags': {'amenity': 'pharmacy', 'healthcare': 'pharmacy', 'name': 'Farmacia Xolotlán'}}"
"{'type': 'node', 'id': 6685626998, 'lat': 12.1451931, 'lon': -86.2184736, 'tags': {'amenity': 'pharmacy', 'healthcare': 'pharmacy', 'name': 'Farmacia Jazmín'}}"
"{'type': 'node', 'id': 6693575160, 'lat': 12.1415756, 'lon': -86.2185368, 'tags': {'amenity': 'pharmacy', 'healthcare': 'pharmacy', 'name': 'Farmacia Bermúdez'}}"
"{'type': 'node', 'id': 6699100090, 'lat': 12.0979711, 'lon': -86.2995213, 'tags': {'amenity': 'pharmacy', 'name': 'Farmacia Padilla'}}"
"{'type': 'node', 'id': 6699210748, 'lat': 12.1481668, 'lon': -86.2176069, 'tags': {'amenity': 'pharmacy', 'healthcare': 'pharmacy', 'name': 'Farma Costo'}}"
"{'type': 'node', 'id': 6699210755, 'lat': 12.1474181, 'lon': -86.217678, 'tags': {'amenity': 'pharmacy', 'healthcare': 'pharmacy', 'name': 'Farmacia Ebenezer'}}"
"{'type': 'node', 'id': 6699210763, 'lat': 12.1381266, 'lon': -86.2163741, 'tags': {'amenity': 'pharmacy', 'healthcare': 'pharmacy', 'name': 'Farmacias Ebenezer'}}"
"{'type': 'node', 'id': 6699210764, 'lat': 12.1399735, 'lon': -86.2153593, 'tags': {'amenity': 'doctors', 'healthcare': 'doctor', 'name': 'Centro Clínico Médico ""El Buen Pastor""'}}"
"{'type': 'node', 'id': 6699210780, 'lat': 12.1381027, 'lon': -86.2185629, 'tags': {'amenity': 'pharmacy', 'healthcare': 'pharmacy', 'name': 'Farmacia Farmatec'}}"
"{'type': 'node', 'id': 6699210782, 'lat': 12.1379107, 'lon': -86.2182944, 'tags': {'amenity': 'dentist', 'healthcare': 'dentist', 'name': 'Clínica Dental Integral'}}"
"{'type': 'node', 'id': 6699239488, 'lat': 12.1458879, 'lon': -86.2179312, 'tags': {'amenity': 'doctors', 'healthcare': 'doctor', 'name': 'Clínica médica Xolotlán'}}"
"{'type': 'node', 'id': 6699239493, 'lat': 12.1467813, 'lon': -86.2177821, 'tags': {'healthcare': 'laboratory', 'name': 'Laboratorio de Análisis Clínico Bio-Stat'}}"
"{'type': 'node', 'id': 6699239506, 'lat': 12.1479313, 'lon': -86.2176084, 'tags': {'amenity': 'doctors', 'healthcare': 'doctor', 'name': 'Policlínica Alemana'}}"
"{'type': 'node', 'id': 6699239514, 'lat': 12.1462865, 'lon': -86.2178352, 'tags': {'amenity': 'pharmacy', 'healthcare': 'pharmacy', 'name': 'Farma Estrella'}}"
"{'type': 'node', 'id': 6699239518, 'lat': 12.1373414, 'lon': -86.217279, 'tags': {'amenity': 'dentist', 'healthcare': 'dentist', 'name': 'Clínica Dental Mendiola'}}"
"{'type': 'node', 'id': 6699239529, 'lat': 12.1379151, 'lon': -86.2165127, 'tags': {'amenity': 'pharmacy', 'healthcare': 'pharmacy', 'name': 'Farmacia Brandon', 'opening_hours': '24/7'}}"
"{'type': 'node', 'id': 6699524987, 'lat': 12.1453727, 'lon': -86.2290932, 'tags': {'amenity': 'dentist', 'healthcare': 'dentist', 'name': 'Centro Dental Dra. Sagrario Murillo'}}"
"{'type': 'node', 'id': 6699524998, 'lat': 12.1383704, 'lon': -86.2262125, 'tags': {'amenity': 'pharmacy', 'healthcare': 'pharmacy', 'name': 'Farmacia La Vid'}}"
"{'type': 'node', 'id': 6699525002, 'lat': 12.144331, 'lon': -86.2291296, 'tags': {'amenity': 'dentist', 'healthcare': 'dentist', 'name': 'Gales Dental Especialistas'}}"
"{'type': 'node', 'id': 6699525008, 'lat': 12.1454883, 'lon': -86.2794763, 'tags': {'amenity': 'pharmacy', 'healthcare': 'pharmacy', 'name': 'Farmacia Dolores'}}"
"{'type': 'node', 'id': 6699525016, 'lat': 12.1410813, 'lon': -86.2285164, 'tags': {'amenity': 'dentist', 'healthcare': 'dentist', 'name': 'Clínica y Ortodoncia Dental Caridad del cobre'}}"
"{'type': 'node', 'id': 6699525017, 'lat': 12.1382066, 'lon': -86.2261288, 'tags': {'healthcare': 'laboratory', 'name': 'Laboratorio Clínico Integral'}}"
"{'type': 'node', 'id': 6699525038, 'lat': 12.1384863, 'lon': -86.2204351, 'tags': {'amenity': 'pharmacy', 'healthcare': 'pharmacy', 'name': 'Farmacia Clínica Naturista Selva Verde', 'shop': 'nutrition_supplements'}}"
"{'type': 'node', 'id': 6699525064, 'lat': 12.1415048, 'lon': -86.2287943, 'tags': {'amenity': 'clinic', 'healthcare': 'clinic', 'name': 'Clínica del Pie Foot Life'}}"
"{'type': 'node', 'id': 6699525068, 'lat': 12.1432105, 'lon': -86.2289823, 'tags': {'amenity': 'clinic', 'healthcare': 'clinic', 'healthcare:speciality': 'podiatry', 'name': 'Clínica del Pie Bello Horizonte'}}"
"{'type': 'node', 'id': 6699525072, 'lat': 12.1447468, 'lon': -86.227184, 'tags': {'amenity': 'doctors', 'healthcare': 'doctor', 'name': 'Consultorio Médico Especializado Bello Horizonte'}}"
"{'type': 'node', 'id': 6699525073, 'lat': 12.1439086, 'lon': -86.2289519, 'tags': {'amenity': 'dentist', 'healthcare': 'dentist', 'name': 'Imagen Radiología Dental Avanzada'}}"
"{'type': 'node', 'id': 6699525074, 'lat': 12.1445617, 'lon': -86.2609911, 'tags': {'amenity': 'pharmacy', 'name': 'Farmacia Saba'}}"
"{'type': 'node', 'id': 6791501627, 'lat': 12.1452985, 'lon': -86.2992415, 'tags': {'addr:city': 'Managua', 'addr:street': 'Avenida del Seminario Cardenal Miguel Obando y Bravo', 'amenity': 'pharmacy', 'check_date:opening_hours': '2021-09-19', 'drive_through': 'no', 'healthcare': 'pharmacy', 'name': 'Farmacia Majey', 'opening_hours': 'Mo-Su 09:00-21:00'}}"
"{'type': 'node', 'id': 6791501628, 'lat': 12.146224, 'lon': -86.2996654, 'tags': {'amenity': 'pharmacy', 'dispensing': 'yes', 'healthcare': 'pharmacy'}}"
"{'type': 'node', 'id': 6791905488, 'lat': 12.1369809, 'lon': -86.2770482, 'tags': {'amenity': 'clinic', 'name': 'Policlinica nicaragüense'}}"
"{'type': 'node', 'id': 6791905492, 'lat': 12.1355247, 'lon': -86.2797935, 'tags': {'amenity': 'clinic', 'name': 'centro radiologico calderon Dr.Marlon Jiménez agirre'}}"
"{'type': 'node', 'id': 6791905493, 'lat': 12.1478192, 'lon': -86.2191967, 'tags': {'amenity': 'clinic', 'healthcare': 'clinic', 'name': 'Lic. Nubia Flores'}}"
"{'type': 'node', 'id': 6791915886, 'lat': 11.923074, 'lon': -85.9552015, 'tags': {'amenity': 'clinic', 'name': 'Clínica Dental Dra. Fariña', 'name:es': 'Clínica Dental Dra. Fariña'}}"
"{'type': 'node', 'id': 6791915887, 'lat': 12.1380092, 'lon': -86.2793443, 'tags': {'amenity': 'clinic', 'name': 'Operación Sonrisa'}}"
"{'type': 'node', 'id': 6791915891, 'lat': 12.102416, 'lon': -86.2694461, 'tags': {'amenity': 'clinic', 'name': 'Clínica del Hígado'}}"
"{'type': 'node', 'id': 6791915892, 'lat': 12.147443, 'lon': -86.2893327, 'tags': {'amenity': 'hospital', 'name': 'Bodega Salud Integral'}}"
"{'type': 'node', 'id': 6791915894, 'lat': 12.1217014, 'lon': -86.2841338, 'tags': {'amenity': 'clinic', 'name': 'Centro diagnóstico por imágenes para la mujer (cim)'}}"
"{'type': 'node', 'id': 6791915895, 'lat': 12.1390693, 'lon': -86.2821327, 'tags': {'amenity': 'hospital', 'name': 'Hospital Bolonia'}}"
"{'type': 'node', 'id': 6791915986, 'lat': 12.131346, 'lon': -86.3136476, 'tags': {'amenity': 'hospital', 'name': 'Caja (Walquiria)', 'note': 'Caja (Walquiria) Administración (Meyling barquero)'}}"
"{'type': 'node', 'id': 6791915989, 'lat': 12.1220205, 'lon': -86.3059958, 'tags': {'amenity': 'hospital', 'name': 'Hospital Fernando Vélez Paiz'}}"
"{'type': 'node', 'id': 6791915990, 'lat': 12.1486049, 'lon': -86.2885629, 'tags': {'amenity': 'hospital', 'name': 'meyboll salas (caja)'}}"
"{'type': 'node', 'id': 6791915991, 'lat': 12.1498158, 'lon': -86.249785, 'tags': {'amenity': 'hospital', 'name': 'Hospital Solidaridad (Consulta Externa)'}}"
"{'type': 'node', 'id': 6791915992, 'lat': 12.1342169, 'lon': -86.2843948, 'tags': {'amenity': 'clinic', 'healthcare': 'clinic', 'name': 'Cipro clínica de imagenes(dr. Salazar)'}}"
"{'type': 'node', 'id': 6791916089, 'lat': 12.1200223, 'lon': -86.3064983, 'tags': {'amenity': 'hospital', 'name': 'vamex'}}"
"{'type': 'node', 'id': 6791916092, 'lat': 12.1534175, 'lon': -86.306705, 'tags': {'amenity': 'clinic', 'name': 'centro de imágenes y diagnósticos neurocirugia'}}"
"{'type': 'node', 'id': 6791916186, 'lat': 12.1225264, 'lon': -86.2258489, 'tags': {'amenity': 'hospital', 'healthcare': 'hospital', 'name': 'Hospital Conchita Palacios'}}"
"{'type': 'node', 'id': 6791916187, 'lat': 12.1278377, 'lon': -86.2249279, 'tags': {'amenity': 'hospital', 'healthcare': 'hospital', 'name': 'MINSA'}}"
"{'type': 'node', 'id': 6791916285, 'lat': 12.1256969, 'lon': -86.2256104, 'tags': {'amenity': 'hospital', 'healthcare': 'hospital', 'name': 'MINSA - Adquisición', 'name:es': 'MINSA - Adquisición'}}"
"{'type': 'node', 'id': 6791916385, 'lat': 12.1246383, 'lon': -86.2986303, 'tags': {'amenity': 'hospital', 'name': 'Administración Doña Luisa'}}"
"{'type': 'node', 'id': 6791916389, 'lat': 12.087413, 'lon': -86.2342526, 'tags': {'amenity': 'hospital', 'name': 'bodega'}}"
"{'type': 'node', 'id': 6791916390, 'lat': 12.1538039, 'lon': -86.3043826, 'tags': {'amenity': 'clinic', 'name': 'clínica Santa Fe (Dra. Guido)'}}"
"{'type': 'node', 'id': 6791917485, 'lat': 12.1294195, 'lon': -86.2615305, 'tags': {'amenity': 'clinic', 'healthcare': 'clinic', 'name': 'Firense'}}"
"{'type': 'node', 'id': 6791917487, 'lat': 12.1139288, 'lon': -86.265225, 'tags': {'amenity': 'hospital', 'name': 'Bodega de hospital Monte España'}}"
"{'type': 'node', 'id': 6791917488, 'lat': 11.8461543, 'lon': -86.2000258, 'tags': {'amenity': 'clinic', 'name': 'laboratorio clínico Briceño'}}"
"{'type': 'node', 'id': 6791917489, 'lat': 12.1196159, 'lon': -86.3057177, 'tags': {'amenity': 'hospital', 'name': 'vamex'}}"
"{'type': 'node', 'id': 6791917491, 'lat': 12.1249302, 'lon': -86.2634642, 'tags': {'amenity': 'clinic', 'name': 'clínica DavinChi'}}"
"{'type': 'node', 'id': 6791917492, 'lat': 12.126284, 'lon': -86.2256782, 'tags': {'amenity': 'hospital', 'healthcare': 'hospital', 'name': 'Regulación de Salud'}}"
"{'type': 'node', 'id': 6791917496, 'lat': 12.1368566, 'lon': -86.2289095, 'tags': {'amenity': 'clinic', 'healthcare': 'clinic', 'name': 'Clínica Dr. Chester Medal'}}"
"{'type': 'node', 'id': 6907000385, 'lat': 11.2625682, 'lon': -85.8624049, 'tags': {'amenity': 'hospital', 'healthcare': 'hospital', 'name': 'Hospital Primario Gaspar Garcia Laviana', 'operator': 'MINSA', 'operator:type': 'government'}}"
"{'type': 'node', 'id': 6954499400, 'lat': 12.1528342, 'lon': -86.2540333, 'tags': {'amenity': 'pharmacy', 'healthcare': 'pharmacy', 'name': 'Farma Elizabeth'}}"
"{'type': 'node', 'id': 6964218786, 'lat': 12.1256584, 'lon': -86.288095, 'tags': {'amenity': 'dentist', 'healthcare': 'dentist', 'name': 'Clínica Dental Matus'}}"
"{'type': 'node', 'id': 6975077072, 'lat': 12.1452479, 'lon': -86.2321143, 'tags': {'amenity': 'clinic', 'healthcare': 'clinic', 'name': 'Clínica Del Pie-Bello Horizonte'}}"
"{'type': 'node', 'id': 6980277341, 'lat': 12.1521578, 'lon': -86.2434947, 'tags': {'amenity': 'pharmacy', 'name': 'El Sol'}}"
"{'type': 'node', 'id': 6981767376, 'lat': 12.1227676, 'lon': -86.2971601, 'tags': {'amenity': 'pharmacy', 'name': 'Espinoza Lara'}}"
"{'type': 'node', 'id': 6981768284, 'lat': 12.095453, 'lon': -86.3067519, 'tags': {'amenity': 'dentist', 'healthcare': 'dentist', 'name': 'Clínica Dental Dra. Jeanine Valle'}}"
"{'type': 'node', 'id': 6981769763, 'lat': 12.0993284, 'lon': -86.2984818, 'tags': {'amenity': 'pharmacy', 'name': 'Vida Eterna'}}"
"{'type': 'node', 'id': 6981769764, 'lat': 12.0992121, 'lon': -86.2985057, 'tags': {'amenity': 'pharmacy', 'name': 'El Maestro #2'}}"
"{'type': 'node', 'id': 6981772489, 'lat': 12.1082852, 'lon': -86.3113154, 'tags': {'amenity': 'dentist', 'healthcare': 'dentist', 'name': 'Clínica de Salud Dental Dr. Óscar Inestroza'}}"
"{'type': 'node', 'id': 6983623608, 'lat': 12.1294627, 'lon': -86.2970681, 'tags': {'amenity': 'clinic', 'healthcare': 'clinic', 'healthcare:speciality': 'gynaecology', 'name': 'Consultorio Médico Siloe Dr. María Auxiliadora González', 'services': 'Ultrasonidos'}}"
"{'type': 'node', 'id': 7141980099, 'lat': 12.1523594, 'lon': -86.246469, 'tags': {'amenity': 'pharmacy', 'healthcare': 'pharmacy', 'name': 'El Jubileo de el Rey Jesús'}}"
"{'type': 'node', 'id': 7141980101, 'lat': 12.1243253, 'lon': -86.2969354, 'tags': {'amenity': 'dentist', 'healthcare': 'dentist', 'name': 'Clínica Dental'}}"
"{'type': 'node', 'id': 7141980107, 'lat': 12.1391029, 'lon': -86.2050682, 'tags': {'amenity': 'pharmacy', 'healthcare': 'pharmacy', 'name': 'Duarte'}}"
"{'type': 'node', 'id': 7141980115, 'lat': 12.1378787, 'lon': -86.2182448, 'tags': {'amenity': 'pharmacy', 'healthcare': 'pharmacy', 'name': 'La Gracia'}}"
"{'type': 'node', 'id': 7141980117, 'lat': 12.199592, 'lon': -86.0974702, 'tags': {'amenity': 'pharmacy', 'name': 'Dolores'}}"
"{'type': 'node', 'id': 7141980118, 'lat': 12.200665, 'lon': -86.0965803, 'tags': {'amenity': 'pharmacy', 'name': 'La Provincia'}}"
"{'type': 'node', 'id': 7180000687, 'lat': 12.1188088, 'lon': -86.2845592, 'tags': {'addr:street': 'Calle Los Cedros', 'amenity': 'clinic', 'name': 'Clínica de Cardioprotección del Dr Noel Lorío Juárez.', 'phone': '22547888'}}"
"{'type': 'node', 'id': 7180000692, 'lat': 12.1459674, 'lon': -86.2896417, 'tags': {'addr:street': 'Paseo República de Chile (Carretera Sur)', 'amenity': 'pharmacy', 'name': 'Farmacia Farma Value Montoya'}}"
"{'type': 'node', 'id': 7180000700, 'lat': 12.1405176, 'lon': -86.2653144, 'tags': {'addr:street': 'Del portón del Hosp.Bautista, 2c abajo y 2 1/2 c al Sur, c/izq., fte. a Iglesia Luz a las Naciones.', 'amenity': 'clinic', 'name': 'Clínica Dr. Christian Sánchez Castrillo (Neumólogo)', 'phone': '88887318'}}"
"{'type': 'node', 'id': 7180000792, 'lat': 12.0276514, 'lon': -86.2028356, 'tags': {'amenity': 'hospital', 'name': 'Centro de Salud Ticuantepe.'}}"
"{'type': 'node', 'id': 7180000794, 'lat': 12.1033785, 'lon': -86.2697256, 'tags': {'addr:full': 'Del portón trasero ( Polisal ) de la UNAN, 25 V al Sur.', 'amenity': 'clinic', 'name': 'Clínica de la Audición', 'name:es': 'Clínica de la Audición', 'phone': '+505 2278 7438'}}"
"{'type': 'node', 'id': 7180000986, 'lat': 12.1508866, 'lon': -86.3126653, 'tags': {'addr:street': 'Cuesta de Los Martires (o del Plomo)', 'amenity': 'pharmacy', 'name': 'Farmacia Saba Las Brisas.'}}"
"{'type': 'node', 'id': 7180001089, 'lat': 12.0233255, 'lon': -86.2060104, 'tags': {'addr:street': 'Avenida Central', 'amenity': 'pharmacy', 'name': 'Farmacia Mayorga Ticuantepe', 'phone': '81121452'}}"
"{'type': 'node', 'id': 7180001101, 'lat': 12.1437467, 'lon': -86.2577928, 'tags': {'amenity': 'clinic', 'name': 'Centro Oftalmológico Dr Oscar Acevedo. (Dr Héctor Morales, Otorrinolaring.)', 'phone': '22444013'}}"
"{'type': 'node', 'id': 7180001105, 'lat': 12.0736311, 'lon': -86.2197864, 'tags': {'addr:street': 'Km 11.8 carretera Mga.-Masaya, c/d, Plaza las 3 Reynas.', 'amenity': 'pharmacy', 'name': 'Farmacia FarmaValue (contiguo a PriceSmart)', 'phone': '82058986'}}"
"{'type': 'node', 'id': 7194517889, 'lat': 12.0986873, 'lon': -86.3021328, 'tags': {'amenity': 'pharmacy', 'name': 'El Maestro'}}"
"{'type': 'node', 'id': 7202266312, 'lat': 12.1484025, 'lon': -86.1930417, 'tags': {'addr:city': 'Managua', 'addr:postcode': '11035', 'addr:street': '2a Calle N.E.', 'amenity': 'dentist', 'description': 'Graduada de la Universidad Católica (UNICA). Atendemos fuera de horario con cita previa.', 'email': 'margaritame@hotmail.com', 'healthcare': 'dentist', 'healthcare:speciality': 'Endodontics', 'name': 'Clínica Dental Dra. Gloria Madriz Esquível', 'note': 'Cualquier duda o inquietud llamar al Whatsapp: +505 7877 2700', 'opening_hours': 'Mo-Fr 08:00-12:00,14:00-16:00; Sa 08:00-12:00', 'payment:american_express': 'yes', 'payment:cash': 'yes', 'payment:mastercard': 'yes', 'payment:visa': 'yes', 'phone': '+505 2233 1572'}}"
"{'type': 'node', 'id': 7214571468, 'lat': 11.985238, 'lon': -86.0997613, 'tags': {'addr:city': 'Masaya', 'amenity': 'hospital', 'healthcare': 'hospital', 'name': 'Centro de Salud Alejandro Dávila Bolaños'}}"
"{'type': 'node', 'id': 7214765442, 'lat': 12.1214113, 'lon': -86.2523837, 'tags': {'addr:city': 'Managua', 'amenity': 'pharmacy', 'healthcare': 'pharmacy', 'name': 'Ebenezer'}}"
"{'type': 'node', 'id': 7214775158, 'lat': 12.1254264, 'lon': -86.2857686, 'tags': {'amenity': 'clinic', 'name': 'Zmedical Clínica Especializada'}}"
"{'type': 'node', 'id': 7214792338, 'lat': 12.1999381, 'lon': -86.0953601, 'tags': {'amenity': 'clinic', 'name': 'Puesto Médico'}}"
"{'type': 'node', 'id': 7214792339, 'lat': 12.1384618, 'lon': -86.2283671, 'tags': {'amenity': 'pharmacy', 'healthcare': 'pharmacy', 'name': 'Salvador'}}"
"{'type': 'node', 'id': 7214793114, 'lat': 12.1550768, 'lon': -86.2197661, 'tags': {'amenity': 'pharmacy', 'name': 'Julay'}}"
"{'type': 'node', 'id': 7215071349, 'lat': 12.1443623, 'lon': -86.304827, 'tags': {'amenity': 'pharmacy', 'name': 'Farmacia Saba'}}"
"{'type': 'node', 'id': 7215097922, 'lat': 12.1502891, 'lon': -86.2490396, 'tags': {'amenity': 'pharmacy', 'name': 'Farmacia Dominique'}}"
"{'type': 'node', 'id': 7236113629, 'lat': 12.1508206, 'lon': -86.3132708, 'tags': {'addr:street': '47a Avenida N.O.', 'amenity': 'clinic', 'healthcare': 'clinic', 'name': 'Centro de Imagen y Diagnóstico Bethel Las Brisas.'}}"
"{'type': 'node', 'id': 7241085785, 'lat': 12.1196616, 'lon': -86.2523416, 'tags': {'addr:street': 'Radial Santo Domingo', 'amenity': 'pharmacy', 'healthcare': 'pharmacy', 'name': 'Farmacia Kielsa Altamira'}}"
"{'type': 'node', 'id': 7246432345, 'lat': 12.1516161, 'lon': -86.3094552, 'tags': {'healthcare': 'laboratory', 'name': 'Laboratorio Clínico Santa Julia'}}"
"{'type': 'node', 'id': 7246432356, 'lat': 12.1391715, 'lon': -86.2417636, 'tags': {'amenity': 'dentist', 'email': 'dr.lopez.castro@gmail.com', 'healthcare': 'dentist', 'name': 'Clínica Dental López Castro', 'phone': '+505 2248 5672 +505 8465 5314 +505 8983 5480'}}"
"{'type': 'node', 'id': 7252073622, 'lat': 12.1511073, 'lon': -86.2327352, 'tags': {'amenity': 'pharmacy', 'name': 'Farmacia Geleynie', 'opening_hours': 'Mo-Sa 09:00-21:00; Su 08:00-12:00'}}"
"{'type': 'node', 'id': 7252820260, 'lat': 12.1382829, 'lon': -86.2920169, 'tags': {'amenity': 'pharmacy', 'name': 'Farmacia Saba'}}"
"{'type': 'node', 'id': 7276017186, 'lat': 12.127423, 'lon': -86.2088981, 'tags': {'amenity': 'pharmacy', 'dispensing': 'no', 'drive_through': 'no', 'healthcare': 'pharmacy'}}"
"{'type': 'node', 'id': 7276067887, 'lat': 12.1279179, 'lon': -86.2117395, 'tags': {'amenity': 'clinic', 'emergency': 'no', 'healthcare': 'clinic', 'name': 'Clínica Las Américas'}}"
"{'type': 'node', 'id': 7550011668, 'lat': 12.1504259, 'lon': -86.2629338, 'tags': {'amenity': 'pharmacy', 'healthcare': 'pharmacy', 'name': 'Espinoza'}}"
