OSM_Data
"{'type': 'node', 'id': 439239039, 'lat': -29.1674979, 'lon': -51.5144969, 'tags': {'amenity': 'hospital', 'name': '24h Pronto Atendimento - Hospital Tacchini'}}"
"{'type': 'node', 'id': 506712047, 'lat': -29.1798171, 'lon': -51.514564, 'tags': {'amenity': 'clinic', 'healthcare': 'clinic'}}"
"{'type': 'node', 'id': 506716307, 'lat': -29.1678232, 'lon': -51.5213218, 'tags': {'amenity': 'pharmacy'}}"
"{'type': 'node', 'id': 506716335, 'lat': -29.168355, 'lon': -51.521726, 'tags': {'amenity': 'pharmacy', 'name': 'Mina'}}"
"{'type': 'node', 'id': 506716765, 'lat': -29.1718267, 'lon': -51.5208289, 'tags': {'amenity': 'pharmacy', 'brand': 'São João', 'brand:wikidata': 'Q62663306', 'healthcare': 'pharmacy', 'name': 'São João'}}"
"{'type': 'node', 'id': 1005547499, 'lat': -28.9269748, 'lon': -51.548573, 'tags': {'addr:city': 'Veranópolis', 'addr:housenumber': '160', 'addr:postcode': '95330-000', 'addr:street': 'Rua Saul Irineu Farina', 'addr:suburb': 'Sao Peregrino', 'amenity': 'hospital', 'email': 'hcspl@hcspl.com.br', 'healthcare': 'hospital', 'name': 'Hospital Comunitário São Peregrino Lazziozi', 'operator:ref:vatin': 'BR87873279000104', 'phone': '+55 54 3441 3700', 'ref:CNES': '2707977', 'ref:vatin': 'BR87873279000368', 'website': 'https://hcspl.com.br'}}"
"{'type': 'node', 'id': 1526228667, 'lat': -28.2731586, 'lon': -52.4127159, 'tags': {'addr:housenumber': '303', 'alt_name': 'CAIS Gervásió', 'amenity': 'hospital', 'name': 'CAIS-Centro de Atendimento Integrado à Saúde Luiza'}}"
"{'type': 'node', 'id': 1637809654, 'lat': -29.4685737, 'lon': -51.8122158, 'tags': {'addr:city': 'Teutônua', 'addr:housenumber': '179', 'addr:postcode': '95890-000', 'addr:street': 'Rua Arthur Pilz', 'addr:suburb': 'Languirú', 'amenity': 'pharmacy', 'dispensing': 'yes', 'healthcare': 'pharmacy', 'name': 'Farmácia Sanar Binafarma', 'opening_hours': 'Mo-Sa 08:00-18:00', 'phone': '+55 51 3762-2047', 'website': 'https://www.binafarma.com.br/'}}"
"{'type': 'node', 'id': 1687825658, 'lat': -29.4642812, 'lon': -51.9644908, 'tags': {'amenity': 'pharmacy', 'healthcare': 'pharmacy', 'name': 'Farmácia Panvel'}}"
"{'type': 'node', 'id': 1694982889, 'lat': -28.4481269, 'lon': -52.1941367, 'tags': {'amenity': 'hospital', 'emergency': 'yes', 'healthcare': 'hospital', 'name': 'Hospital Cristo Redentor'}}"
"{'type': 'node', 'id': 1721362648, 'lat': -28.7846619, 'lon': -51.6100573, 'tags': {'amenity': 'pharmacy', 'name': 'Farmácia Vivafarma'}}"
"{'type': 'node', 'id': 1721362656, 'lat': -28.7846959, 'lon': -51.6087882, 'tags': {'amenity': 'pharmacy', 'name': 'Farmácia São João'}}"
"{'type': 'node', 'id': 1780338973, 'lat': -28.2269117, 'lon': -52.4374168, 'tags': {'amenity': 'clinic', 'healthcare': 'clinic', 'name': 'Cais Záchia'}}"
"{'type': 'node', 'id': 2324964254, 'lat': -28.2099507, 'lon': -51.5213193, 'tags': {'amenity': 'hospital', 'name': 'Hospital São Paulo'}}"
"{'type': 'node', 'id': 2368078733, 'lat': -28.8571078, 'lon': -51.280128, 'tags': {'addr:city': 'Antônio Prado', 'addr:housename': 'Shopping Paradiso', 'addr:housenumber': '955', 'addr:postcode': '95250-000', 'addr:street': 'Avenida Valdomiro Bocchese', 'amenity': 'pharmacy', 'brand': 'Farmácia São João', 'brand:wikidata': 'Q65164556', 'healthcare': 'pharmacy', 'name': 'Farmácia São João', 'operator': 'Farmácias São João', 'phone': '+55 54 3293-2406', 'website': 'http://www.saojoaofarmacias.com.br/', 'wheelchair': 'yes'}}"
"{'type': 'node', 'id': 2383439502, 'lat': -29.3895262, 'lon': -51.8692132, 'tags': {'amenity': 'hospital', 'emergency': 'no'}}"
"{'type': 'node', 'id': 2383458317, 'lat': -29.3238792, 'lon': -51.7449799, 'tags': {'amenity': 'hospital'}}"
"{'type': 'node', 'id': 2383850490, 'lat': -29.4210614, 'lon': -51.5084934, 'tags': {'addr:city': 'São Pedro da Serra', 'addr:postcode': '95758-000', 'addr:street': 'Avenida Pedro Chies', 'amenity': 'pharmacy', 'name': 'Farmácia Agafarma'}}"
"{'type': 'node', 'id': 2383850492, 'lat': -29.4219492, 'lon': -51.5149146, 'tags': {'addr:city': 'São Pedro da Serra', 'addr:postcode': '95758-000', 'addr:street': 'Avenida Duque de Caxias', 'amenity': 'hospital'}}"
"{'type': 'node', 'id': 2384396907, 'lat': -29.3544788, 'lon': -51.779283, 'tags': {'amenity': 'pharmacy', 'healthcare': 'pharmacy', 'name': 'Drogaria Isafarma'}}"
"{'type': 'node', 'id': 2387686696, 'lat': -29.468513, 'lon': -51.809483, 'tags': {'amenity': 'pharmacy', 'name': 'Farmácia Languiru'}}"
"{'type': 'node', 'id': 2387688289, 'lat': -29.505159, 'lon': -51.8068285, 'tags': {'amenity': 'pharmacy', 'healthcare': 'pharmacy', 'name': 'Farmácia 24hrs Canabarro'}}"
"{'type': 'node', 'id': 2396894954, 'lat': -29.4643547, 'lon': -51.9646665, 'tags': {'amenity': 'pharmacy', 'healthcare': 'pharmacy', 'name': 'Farmácia Mais Econômica'}}"
"{'type': 'node', 'id': 2401562098, 'lat': -29.5003962, 'lon': -51.9654444, 'tags': {'amenity': 'pharmacy', 'dispensing': 'yes', 'healthcare': 'pharmacy', 'name': 'Maxxi Econômica'}}"
"{'type': 'node', 'id': 2402695882, 'lat': -29.5041506, 'lon': -51.9645006, 'tags': {'amenity': 'pharmacy', 'brand': 'São João', 'brand:wikidata': 'Q62663306', 'healthcare': 'pharmacy', 'name': 'São João'}}"
"{'type': 'node', 'id': 2601121821, 'lat': -28.788656, 'lon': -51.607847, 'tags': {'healthcare': 'physiotherapist', 'name': 'Revitali Clinica de Fisioterapia e Estudio de Pilates', 'phone': '+55 54 3242-1208', 'wheelchair': 'yes'}}"
"{'type': 'node', 'id': 2916658668, 'lat': -28.59357, 'lon': -51.7868564, 'tags': {'addr:city': 'Paraí', 'addr:housenumber': '15', 'addr:postcode': '95360-000', 'addr:street': 'Rua Henrique Lenzi', 'addr:suburb': 'Centro', 'amenity': 'hospital', 'emergency': 'yes', 'healthcare': 'hospital', 'name': 'Hospital Beneficente Nossa Senhora Aparecida', 'operator': 'HOSPITAL BENEFICENTE NOSSA SENHORA APARECIDA', 'operator:type': 'community', 'ref:CNES': '2241218', 'ref:vatin': 'BR91617407000118'}}"
"{'type': 'node', 'id': 3402733896, 'lat': -29.490354, 'lon': -51.3561184, 'tags': {'amenity': 'hospital', 'healthcare': 'hospital', 'name': 'Hospital São Pedro Canísio'}}"
"{'type': 'node', 'id': 3449305123, 'lat': -29.2539683, 'lon': -51.5338548, 'tags': {'addr:city': 'Garibaldi', 'addr:housenumber': '7', 'addr:postcode': '95720-000', 'addr:street': 'Travessa 31 de Outubro', 'addr:suburb': 'Centro', 'amenity': 'hospital', 'email': 'hbsp@hbsp.com.br', 'fax': '+55 54 3464 9700', 'healthcare': 'hospital', 'name': 'Hospital São Pedro', 'phone': '+55 54 3464 9700', 'ref:CNES': '2257645', 'ref:vatin': 'BR90052804000127', 'website': 'https://hbsp.com.br/'}}"
"{'type': 'node', 'id': 3649621234, 'lat': -28.8815005, 'lon': -51.6977402, 'tags': {'amenity': 'hospital', 'name': 'Hospital Santo Antônio'}}"
"{'type': 'node', 'id': 3649750258, 'lat': -29.1106221, 'lon': -52.0697181, 'tags': {'addr:city': 'Relvado', 'amenity': 'hospital', 'name': 'Hospital Beneficiente Santo Antônio de Relvado', 'source': 'Bing;IBGE'}}"
"{'type': 'node', 'id': 3655101736, 'lat': -29.04536, 'lon': -52.2928685, 'tags': {'addr:city': 'São José do Herval', 'amenity': 'clinic', 'emergency': 'no', 'name': 'Posto de Saúde', 'source': 'Bing;IBGE'}}"
"{'type': 'node', 'id': 4247312298, 'lat': -29.2724624, 'lon': -51.6850903, 'tags': {'addr:city': 'Coronel Pilar', 'amenity': 'clinic', 'emergency': 'no', 'healthcare': 'clinic', 'name': 'Posto de Saúde'}}"
"{'type': 'node', 'id': 4293747895, 'lat': -29.4019388, 'lon': -51.9418697, 'tags': {'amenity': 'pharmacy', 'healthcare': 'pharmacy', 'name': 'Farmácia Carisfarma'}}"
"{'type': 'node', 'id': 4293747896, 'lat': -29.404607, 'lon': -51.94372, 'tags': {'amenity': 'pharmacy', 'healthcare': 'pharmacy', 'name': 'Farmácia Drogativa'}}"
"{'type': 'node', 'id': 4293747897, 'lat': -29.3999611, 'lon': -51.9459614, 'tags': {'amenity': 'pharmacy', 'healthcare': 'pharmacy', 'name': 'Farmácia Francibel'}}"
"{'type': 'node', 'id': 4293747898, 'lat': -29.4022168, 'lon': -51.9464339, 'tags': {'addr:postcode': '95940-000', 'addr:street': 'Rua Júlio de Castilhos', 'amenity': 'pharmacy', 'healthcare': 'pharmacy', 'name': 'Farmácia Agafarma'}}"
"{'type': 'node', 'id': 4293747899, 'lat': -29.4005128, 'lon': -51.9453522, 'tags': {'amenity': 'pharmacy', 'healthcare': 'pharmacy', 'name': 'Farmácia Noite e Dia'}}"
"{'type': 'node', 'id': 4293747900, 'lat': -29.3996499, 'lon': -51.9466477, 'tags': {'amenity': 'pharmacy', 'healthcare': 'pharmacy', 'name': 'Farmácia Petternina'}}"
"{'type': 'node', 'id': 4293747901, 'lat': -29.399136, 'lon': -51.9469154, 'tags': {'amenity': 'pharmacy', 'brand': 'Farmácia São João', 'brand:wikidata': 'Q65164556', 'healthcare': 'pharmacy', 'name': 'Farmácia São João'}}"
"{'type': 'node', 'id': 4293747905, 'lat': -29.3907749, 'lon': -51.9512568, 'tags': {'amenity': 'pharmacy', 'healthcare': 'pharmacy'}}"
"{'type': 'node', 'id': 4293747906, 'lat': -29.3908867, 'lon': -51.9404879, 'tags': {'amenity': 'pharmacy'}}"
"{'type': 'node', 'id': 4293770363, 'lat': -29.3867572, 'lon': -51.8701682, 'tags': {'amenity': 'pharmacy'}}"
"{'type': 'node', 'id': 4296801887, 'lat': -29.3903366, 'lon': -51.9532955, 'tags': {'amenity': 'clinic', 'healthcare': 'clinic', 'name': 'Clínica Belas Águas'}}"
"{'type': 'node', 'id': 4297209306, 'lat': -29.4020053, 'lon': -51.947098, 'tags': {'addr:city': 'Arroio do Meio', 'addr:housenumber': '388', 'addr:postcode': '95940-000', 'addr:street': 'Rua Júlio de Castilhos', 'addr:suburb': 'Centro', 'amenity': 'clinic', 'healthcare': 'clinic', 'name': 'Centro Clínico São José', 'source': 'IBGE'}}"
"{'type': 'node', 'id': 4318188091, 'lat': -29.2374116, 'lon': -51.8718314, 'tags': {'amenity': 'pharmacy', 'brand': 'São João', 'brand:wikidata': 'Q62663306', 'healthcare': 'pharmacy', 'name': 'São João'}}"
"{'type': 'node', 'id': 4318196194, 'lat': -29.241138, 'lon': -51.8642004, 'tags': {'amenity': 'clinic', 'healthcare': 'clinic', 'name': 'Posto Navegantes'}}"
"{'type': 'node', 'id': 4346707509, 'lat': -29.4491613, 'lon': -51.9635027, 'tags': {'addr:city': 'Lajeado', 'addr:housenumber': '93', 'addr:street': 'Rua Sidonia Prediger', 'amenity': 'dentist', 'healthcare': 'dentist', 'name': 'Dillon Bohrer', 'phone': '+55 51 3748-1740'}}"
"{'type': 'node', 'id': 4428266143, 'lat': -29.2836746, 'lon': -51.8695619, 'tags': {'addr:city': 'Roca Sales', 'addr:housenumber': '70', 'addr:postcode': '95735-000', 'addr:street': 'Rua General Osório', 'addr:suburb': 'Centro', 'amenity': 'hospital', 'healthcare': 'hospital', 'name': 'Hospital Roque Gonzales', 'ref:CNES': '2252147', 'ref:vatin': 'BR95196044000145'}}"
"{'type': 'node', 'id': 4581528893, 'lat': -29.3843053, 'lon': -51.9522514, 'tags': {'addr:postcode': '95940-000', 'addr:street': 'Rua Machado de Assis', 'amenity': 'clinic', 'name': 'Massagista João Feil', 'opening_hours': 'Mo-Tu, Th-Fr 08:00-20:30; We 13:00-20:30; Sa 08:00-12:00; Su 19:00-20:00', 'phone': '+55 51 99618-3317'}}"
"{'type': 'node', 'id': 4633900759, 'lat': -29.2281764, 'lon': -51.3471299, 'tags': {'amenity': 'pharmacy', 'healthcare': 'pharmacy', 'name': 'Mais Econômica'}}"
"{'type': 'node', 'id': 4633900760, 'lat': -29.2279377, 'lon': -51.3470548, 'tags': {'amenity': 'pharmacy', 'healthcare': 'pharmacy', 'name': 'Farmácia do Círculo'}}"
"{'type': 'node', 'id': 4633900765, 'lat': -29.2268129, 'lon': -51.3490615, 'tags': {'addr:city': 'Farroupilha', 'addr:housenumber': '51', 'addr:postcode': '95170-476', 'addr:street': 'Rua da República', 'addr:suburb': 'Centro', 'amenity': 'hospital', 'email': 'hbsc@hbsc.com.br', 'fax': '+55 54 3261 8700', 'healthcare': 'hospital', 'name': 'Hospital Beneficente São Carlos', 'phone': '+55 54 3261 8700', 'ref:CNES': '2240335', 'ref:vatin': 'BR89847370000172'}}"
"{'type': 'node', 'id': 4655059281, 'lat': -28.754643, 'lon': -52.0143221, 'tags': {'amenity': 'hospital', 'name': 'Posto de Saúde'}}"
"{'type': 'node', 'id': 4688820989, 'lat': -29.402759, 'lon': -51.9447385, 'tags': {'amenity': 'clinic', 'healthcare': 'clinic', 'name': 'Clínica Kerbes'}}"
"{'type': 'node', 'id': 4826167970, 'lat': -28.269783, 'lon': -51.6880342, 'tags': {'amenity': 'clinic', 'source': 'IBGE'}}"
"{'type': 'node', 'id': 4873182021, 'lat': -28.3693648, 'lon': -51.635692, 'tags': {'amenity': 'pharmacy', 'name': 'Agafarma'}}"
"{'type': 'node', 'id': 4977499121, 'lat': -29.1803, 'lon': -51.2170459, 'tags': {'amenity': 'pharmacy', 'brand': 'Farmácia São João', 'brand:wikidata': 'Q65164556', 'dispensing': 'yes', 'healthcare': 'pharmacy', 'name': 'Farmácia São João'}}"
"{'type': 'node', 'id': 5039623953, 'lat': -28.7823775, 'lon': -52.1717061, 'tags': {'amenity': 'hospital', 'name': 'Posto de Saúde'}}"
"{'type': 'node', 'id': 5058824245, 'lat': -28.5665686, 'lon': -51.9761232, 'tags': {'addr:city': 'Casca', 'addr:housenumber': '755', 'addr:postcode': '99260-000', 'addr:street': 'Rua Doutor Vitorino Monteiro', 'addr:suburb': 'Centro', 'amenity': 'hospital', 'healthcare': 'hospital', 'name': 'Hospital Santa Lúcia', 'phone': '+55 54 3347-1150', 'ref:CNES': '2246872', 'ref:vatin': 'BR88590369000142'}}"
"{'type': 'node', 'id': 5077732425, 'lat': -29.382627, 'lon': -52.0970247, 'tags': {'addr:housenumber': '1304', 'addr:street': 'Rua Phillip Nied', 'amenity': 'clinic', 'check_date': '2024-03-22', 'contact:phone': '+55 51 3840-0247', 'contact:whatsapp': '+55 51 3613-2387', 'level': '1', 'name': 'Unidade Sanitária de Forquetinha', 'opening_hours': 'Mo-Fr 07:30-17:00; Sa-Su off', 'operator:type': 'public', 'source': 'IBGE', 'wheelchair': 'yes'}}"
"{'type': 'node', 'id': 5215152621, 'lat': -28.2680294, 'lon': -52.3924957, 'tags': {'amenity': 'pharmacy', 'name': 'Panvel', 'opening_hours': 'Mo-Su 08:00-21:00'}}"
"{'type': 'node', 'id': 5237590059, 'lat': -29.2693721, 'lon': -51.3009787, 'tags': {'amenity': 'clinic', 'name': 'Comunidade Terapêutica Fazenda Esperança de Farroupilha', 'social_facility': 'healthcare', 'social_facility:for': 'drug_addicted'}}"
"{'type': 'node', 'id': 5286600916, 'lat': -28.8801542, 'lon': -51.6994852, 'tags': {'amenity': 'clinic', 'healthcare': 'clinic'}}"
"{'type': 'node', 'id': 5304943388, 'lat': -29.1021239, 'lon': -51.5406237, 'tags': {'amenity': 'hospital', 'healthcare': 'hospital', 'name': 'Posto de saúde de São Valentim'}}"
"{'type': 'node', 'id': 5315680171, 'lat': -29.1841323, 'lon': -51.2331389, 'tags': {'amenity': 'pharmacy', 'brand': 'Farmácia São João', 'brand:wikidata': 'Q65164556', 'brand:wikipedia': 'pt:Farmácias São João', 'healthcare': 'pharmacy', 'name': 'Farmácia São João'}}"
"{'type': 'node', 'id': 5323072138, 'lat': -29.1916703, 'lon': -51.2349857, 'tags': {'amenity': 'pharmacy', 'brand': 'Farmácia São João', 'brand:wikidata': 'Q65164556', 'healthcare': 'pharmacy', 'name': 'Farmácia São João'}}"
"{'type': 'node', 'id': 5333438770, 'lat': -29.16744, 'lon': -51.5048263, 'tags': {'amenity': 'pharmacy', 'brand': 'São João', 'brand:wikidata': 'Q62663306', 'healthcare': 'pharmacy', 'name': 'São João'}}"
"{'type': 'node', 'id': 5368792298, 'lat': -29.3883095, 'lon': -52.268204, 'tags': {'amenity': 'dentist', 'check_date': '2023-06-01', 'healthcare': 'dentist', 'name': 'Marina Marchi Cirurgiã Dentista', 'phone': '+55 51 3751-2590; +55 51 99101-3381', 'wheelchair': 'limited'}}"
"{'type': 'node', 'id': 5598972750, 'lat': -28.6598941, 'lon': -51.7449986, 'tags': {'amenity': 'pharmacy', 'dispensing': 'yes', 'healthcare': 'pharmacy', 'name': 'Farmácias Associadas'}}"
"{'type': 'node', 'id': 5599036449, 'lat': -28.6605719, 'lon': -51.7444975, 'tags': {'amenity': 'pharmacy', 'dispensing': 'yes', 'healthcare': 'pharmacy', 'name': 'Agafarma'}}"
"{'type': 'node', 'id': 5612147687, 'lat': -28.6629512, 'lon': -51.7519587, 'tags': {'amenity': 'hospital', 'name': 'Centro de saúde'}}"
"{'type': 'node', 'id': 5628576619, 'lat': -28.6629185, 'lon': -51.7518413, 'tags': {'amenity': 'hospital', 'healthcare': 'hospital', 'name': 'Centro de Saúde'}}"
"{'type': 'node', 'id': 5697078752, 'lat': -29.2344372, 'lon': -51.8937966, 'tags': {'amenity': 'clinic', 'healthcare': 'clinic', 'source': 'IBGE'}}"
"{'type': 'node', 'id': 5716254094, 'lat': -29.2923174, 'lon': -51.5001002, 'tags': {'amenity': 'clinic', 'source': 'IBGE'}}"
"{'type': 'node', 'id': 5716347997, 'lat': -29.1922635, 'lon': -51.2325773, 'tags': {'amenity': 'clinic', 'healthcare': 'clinic', 'name': 'UBS Desvio Rizzo', 'website': 'https://caxias.rs.gov.br/'}}"
"{'type': 'node', 'id': 5728476833, 'lat': -29.0285847, 'lon': -51.3079975, 'tags': {'amenity': 'pharmacy', 'dispensing': 'yes', 'healthcare': 'pharmacy', 'name': 'Farmácia Santo Antônio'}}"
"{'type': 'node', 'id': 5734044664, 'lat': -29.0600819, 'lon': -51.2622291, 'tags': {'amenity': 'clinic', 'healthcare': 'clinic', 'name': 'UBS Unidade Básica de Saúde de Otávio Rocha'}}"
"{'type': 'node', 'id': 5750420349, 'lat': -29.2574122, 'lon': -51.5287462, 'tags': {'amenity': 'clinic', 'source': 'IBGE'}}"
"{'type': 'node', 'id': 5750420389, 'lat': -29.2535978, 'lon': -51.5343466, 'tags': {'amenity': 'clinic', 'name': 'Centro Médico', 'source': 'IBGE'}}"
"{'type': 'node', 'id': 5759352251, 'lat': -29.4823916, 'lon': -51.4177424, 'tags': {'amenity': 'hospital', 'emergency': 'yes', 'healthcare': 'hospital', 'healthcare:speciality': 'general', 'name': 'Posto de Saúde Tupandi - 24h'}}"
"{'type': 'node', 'id': 5799993202, 'lat': -28.6785235, 'lon': -52.1650976, 'tags': {'amenity': 'hospital', 'healthcare': 'hospital'}}"
"{'type': 'node', 'id': 5835213506, 'lat': -29.2122921, 'lon': -51.2798605, 'tags': {'amenity': 'clinic', 'healthcare': 'clinic', 'name': 'UBS Forqueta'}}"
"{'type': 'node', 'id': 5838930794, 'lat': -28.2637386, 'lon': -52.3971518, 'tags': {'amenity': 'pharmacy', 'dispensing': 'yes', 'healthcare': 'pharmacy', 'name': 'Farmácia'}}"
"{'type': 'node', 'id': 5856351885, 'lat': -28.8719994, 'lon': -52.1803881, 'tags': {'addr:city': 'Arvorezinha', 'addr:housenumber': '321', 'addr:postcode': '95995-000', 'addr:street': 'Rua Daltro Filho', 'addr:suburb': 'Centro', 'amenity': 'hospital', 'fax': '+55 51 3772 2240', 'healthcare': 'hospital', 'name': 'Hospital São João', 'ref:CNES': '2252163', 'ref:vatin': 'BR87382867000137'}}"
"{'type': 'node', 'id': 5872533139, 'lat': -28.3691395, 'lon': -51.6366688, 'tags': {'amenity': 'pharmacy', 'dispensing': 'yes', 'healthcare': 'pharmacy'}}"
"{'type': 'node', 'id': 5872533156, 'lat': -28.3734544, 'lon': -51.635403, 'tags': {'amenity': 'clinic', 'healthcare': 'clinic'}}"
"{'type': 'node', 'id': 5876602287, 'lat': -29.1840826, 'lon': -51.2246189, 'tags': {'amenity': 'pharmacy', 'dispensing': 'yes', 'healthcare': 'pharmacy', 'name': 'Farmácia Sanar'}}"
"{'type': 'node', 'id': 5891925899, 'lat': -28.9894995, 'lon': -51.4088541, 'tags': {'amenity': 'hospital', 'source': 'IBGE'}}"
"{'type': 'node', 'id': 5895146183, 'lat': -29.1683556, 'lon': -51.2256626, 'tags': {'amenity': 'clinic', 'healthcare': 'clinic', 'name': 'UBS Mariani'}}"
"{'type': 'node', 'id': 6004910741, 'lat': -28.8611341, 'lon': -51.5485929, 'tags': {'amenity': 'clinic', 'healthcare': 'clinic', 'name': 'Unidade Básica de Saúde'}}"
"{'type': 'node', 'id': 6099682458, 'lat': -28.8375667, 'lon': -51.8897125, 'tags': {'amenity': 'clinic', 'healthcare': 'clinic', 'name': 'Unidade Básica de Saúde São José'}}"
"{'type': 'node', 'id': 6110187648, 'lat': -29.1615343, 'lon': -51.2236516, 'tags': {'amenity': 'clinic', 'healthcare': 'clinic', 'name': 'UBS Reolon'}}"
"{'type': 'node', 'id': 6114212084, 'lat': -29.0027755, 'lon': -52.1543795, 'tags': {'amenity': 'clinic', 'source': 'IBGE'}}"
"{'type': 'node', 'id': 6170770526, 'lat': -28.5354027, 'lon': -52.1536338, 'tags': {'addr:housenumber': '398', 'addr:postcode': '99155-000', 'addr:street': 'Rua General Flores da Cunha', 'addr:suburb': 'Centro', 'amenity': 'hospital', 'email': 'saude@pmvilamaria.com.br', 'fax': '+55 54 3359 1672', 'healthcare': 'hospital', 'name': 'Hospital Municipal Vila Maria', 'operator:ref:vatin': 'BR92406115000107', 'phone': '+55 54 3359 1122', 'ref:CNES': '2246899', 'source': 'IBGE;DATASUS'}}"
"{'type': 'node', 'id': 6219768616, 'lat': -28.3696818, 'lon': -51.6372433, 'tags': {'healthcare': 'laboratory', 'name': 'Laboratório Vazoler'}}"
"{'type': 'node', 'id': 6219768617, 'lat': -28.3712667, 'lon': -51.6379282, 'tags': {'healthcare': 'laboratory', 'name': 'BIOLAB'}}"
"{'type': 'node', 'id': 6261008117, 'lat': -29.2662474, 'lon': -51.519419, 'tags': {'amenity': 'clinic', 'healthcare': 'clinic', 'name': 'Posto de Saúde São Francisco'}}"
"{'type': 'node', 'id': 6261021043, 'lat': -29.2574768, 'lon': -51.5152839, 'tags': {'amenity': 'pharmacy', 'dispensing': 'yes', 'healthcare': 'pharmacy'}}"
"{'type': 'node', 'id': 6366714323, 'lat': -28.3424562, 'lon': -51.8809391, 'tags': {'addr:city': 'Ciríaco', 'addr:housenumber': '139', 'addr:postcode': '99970-000', 'addr:street': 'Rua Osvaldo Cruz', 'addr:suburb': 'Centro', 'amenity': 'hospital', 'email': 'saude@pmciriaco.com.br', 'healthcare': 'hospital', 'name': 'Hospital Santa Teresinha', 'ref:CNES': '6179029', 'ref:vatin': 'BR08473435000165'}}"
"{'type': 'node', 'id': 6418682049, 'lat': -28.848337, 'lon': -51.8857838, 'tags': {'amenity': 'hospital', 'healthcare': 'hospital', 'name': 'Hospital Manuel Francisco Guerreiro'}}"
"{'type': 'node', 'id': 6479642886, 'lat': -29.1638472, 'lon': -51.5075123, 'tags': {'amenity': 'clinic', 'healthcare': 'clinic', 'internet_access': 'wlan', 'name': 'Clínica de Psicologia e Hipnose Rodrigo Meazzi', 'opening_hours': '24/7', 'phone': '+55 54 99167-9727'}}"
"{'type': 'node', 'id': 6574906755, 'lat': -29.1768185, 'lon': -51.219072, 'tags': {'amenity': 'pharmacy', 'brand': 'Panvel', 'brand:wikidata': 'Q10344254', 'brand:wikipedia': 'pt:Panvel', 'dispensing': 'yes', 'healthcare': 'pharmacy', 'name': 'Panvel', 'operator': 'Banco24Horas'}}"
"{'type': 'node', 'id': 6606100028, 'lat': -29.1653961, 'lon': -51.5171804, 'tags': {'amenity': 'pharmacy', 'healthcare': 'pharmacy', 'name': 'Maxxi Econômica', 'website': 'http://www.shoppingbento.com.br/'}}"
"{'type': 'node', 'id': 6659169332, 'lat': -28.2354401, 'lon': -52.3686806, 'tags': {'addr:housenumber': '548', 'addr:street': 'Avenida Padre Antônio Vieira', 'amenity': 'pharmacy', 'name': 'Farmácias Cesarfarma'}}"
"{'type': 'node', 'id': 6715584286, 'lat': -28.9927715, 'lon': -51.6957016, 'tags': {'addr:city': 'Cotiporã', 'addr:housenumber': '275', 'addr:postcode': '95335-000', 'addr:street': 'Rua Pedro Breda', 'addr:suburb': 'Centro', 'amenity': 'doctors', 'healthcare': 'doctor', 'healthcare:speciality': 'reeducação_alimentar;r', 'name': 'Nutricionista Aline Cenci', 'opening_hours': 'Mediante agendamento', 'operator': 'Nutricionista'}}"
"{'type': 'node', 'id': 6715699039, 'lat': -28.995922, 'lon': -51.6966607, 'tags': {'addr:city': 'Cotiporã', 'addr:housenumber': '120', 'addr:postcode': '95335-000', 'addr:street': 'Praça Maurício Cardoso', 'addr:suburb': 'Centro', 'healthcare': 'laboratory', 'name': 'Laboratório N Sra de Lourdes', 'operator': 'Associação Beneficente São José'}}"
"{'type': 'node', 'id': 6716163765, 'lat': -28.9959297, 'lon': -51.6967401, 'tags': {'addr:city': 'Cotiporã', 'addr:housenumber': '120', 'addr:postcode': '95335-000', 'addr:street': 'Praça Maurício Cardoso', 'addr:suburb': 'Centro', 'healthcare': 'psychotherapist', 'healthcare:speciality': 'psicologia', 'name': 'Bruna Farenzena', 'operator': 'Psicologa'}}"
"{'type': 'node', 'id': 6716261346, 'lat': -28.9951386, 'lon': -51.6969532, 'tags': {'addr:city': 'Cotiporã', 'addr:housenumber': '46 Sala 01', 'addr:postcode': '95335-000', 'addr:street': 'Praça Maurício Cardoso', 'addr:suburb': 'Centro', 'amenity': 'dentist', 'healthcare': 'dentist', 'healthcare:speciality': 'Ortodontia', 'name': 'Carla de Matos', 'operator': 'Carla de Matos'}}"
"{'type': 'node', 'id': 6716409732, 'lat': -28.9959631, 'lon': -51.6967767, 'tags': {'addr:city': 'Cotiporã', 'addr:housenumber': '120 Sala 01', 'addr:postcode': '95335-000', 'addr:street': 'Praça Maurício Cardoso', 'addr:suburb': 'Centro', 'amenity': 'pharmacy', 'dispensing': 'yes', 'healthcare': 'pharmacy', 'name': 'Farmácia N Sra da Saúde', 'operator': 'Cleber e Gabriel'}}"
"{'type': 'node', 'id': 6716436290, 'lat': -28.9958362, 'lon': -51.6971412, 'tags': {'addr:city': 'Cotiporã', 'addr:housenumber': '28', 'addr:postcode': '95335-000', 'addr:street': 'Rua Andrea Argenta', 'addr:suburb': 'Centro', 'amenity': 'dentist', 'healthcare': 'dentist', 'healthcare:speciality': 'Odontologia', 'name': 'Clínica Odontológica Tres Guindani', 'operator': 'Juliano e Eliza Tres Guindani'}}"
"{'type': 'node', 'id': 6723664920, 'lat': -28.9945701, 'lon': -51.696292, 'tags': {'addr:city': 'Cotiporã', 'addr:housenumber': '478 Sala 01', 'addr:postcode': '95335-000', 'addr:street': 'Avenida Independência', 'addr:suburb': 'Centro', 'amenity': 'pharmacy', 'dispensing': 'yes', 'healthcare': 'pharmacy', 'name': 'Drogaria La Flores'}}"
"{'type': 'node', 'id': 6724582693, 'lat': -28.995982, 'lon': -51.696717, 'tags': {'addr:city': 'Cotiporã', 'addr:housenumber': '120', 'addr:postcode': '95335-000', 'addr:street': 'Praça Maurício Cardoso', 'addr:suburb': 'Centro', 'amenity': 'dentist', 'healthcare': 'dentist', 'name': 'Fabrício Vettori'}}"
"{'type': 'node', 'id': 6724721018, 'lat': -28.9959282, 'lon': -51.6967011, 'tags': {'addr:city': 'Cotiporã', 'addr:housenumber': '120', 'addr:postcode': '95335-000', 'addr:street': 'Praça Maurício Cardoso', 'addr:suburb': 'Centro', 'amenity': 'dentist', 'healthcare': 'dentist', 'healthcare:speciality': 'Odontologia;psicologia;fisioterapia;laboratório_de_análises_clínicas', 'name': 'Harmonizza Clínica Odontológica'}}"
"{'type': 'node', 'id': 6724772116, 'lat': -28.9930801, 'lon': -51.6965268, 'tags': {'addr:city': 'Cotiporã', 'addr:housenumber': '141', 'addr:postcode': '95335-000', 'addr:street': 'Rua Silveira Martins', 'addr:suburb': 'Centro', 'amenity': 'dentist', 'healthcare': 'dentist', 'name': 'Helio da Silveira'}}"
"{'type': 'node', 'id': 6724909638, 'lat': -28.9934471, 'lon': -51.6962203, 'tags': {'addr:city': 'Cotiporã', 'addr:housenumber': '118 Sala 02', 'addr:postcode': '95335-000', 'addr:street': 'Rua Silveira Martins', 'addr:suburb': 'Centro', 'healthcare': 'alternative', 'healthcare:speciality': 'chiropractic', 'name': 'Jéssica Sonda'}}"
"{'type': 'node', 'id': 6731918513, 'lat': -28.9934502, 'lon': -51.6966858, 'tags': {'addr:city': 'Cotiporã', 'addr:housenumber': '123', 'addr:postcode': '95335-000', 'addr:street': 'Rua Silveira Martins', 'addr:suburb': 'Centro', 'healthcare': 'laboratory', 'name': 'Laboratório Veranense'}}"
"{'type': 'node', 'id': 6732109839, 'lat': -28.9959469, 'lon': -51.6966733, 'tags': {'addr:city': 'Cotiporã', 'addr:housenumber': '120', 'addr:postcode': '95335-000', 'addr:street': 'Praça Maurício Cardoso', 'addr:suburb': 'Centro', 'amenity': 'dentist', 'healthcare': 'dentist', 'name': 'Leticia Wyzykowski'}}"
"{'type': 'node', 'id': 6732128304, 'lat': -28.9929707, 'lon': -51.702854, 'tags': {'addr:city': 'Cotiporã', 'addr:housenumber': '926', 'addr:postcode': '95335-000', 'addr:street': 'Rua João Bergamin', 'addr:suburb': 'Centro', 'amenity': 'doctors', 'healthcare': 'doctor', 'healthcare:speciality': 'Nutricionista', 'name': 'Luana Zaffari'}}"
"{'type': 'node', 'id': 6732669215, 'lat': -29.2959994, 'lon': -51.497789, 'tags': {'addr:city': 'Carlos Barbosa', 'addr:housenumber': '343', 'addr:postcode': '95185-000', 'addr:street': 'Avenida Presidente Kennedy', 'addr:suburb': 'Aurora', 'amenity': 'hospital', 'email': 'hospitalsaoroque@tacchini.com.br', 'healthcare': 'hospital', 'name': 'Hospital Beneficente Sao Roque', 'ref:CNES': '2241137', 'ref:vatin': 'BR87547444001444'}}"
"{'type': 'node', 'id': 6732669216, 'lat': -29.2970527, 'lon': -51.4976904, 'tags': {'amenity': 'hospital', 'healthcare': 'hospital', 'name': 'Casa de Idosos'}}"
"{'type': 'node', 'id': 6735152454, 'lat': -28.9953341, 'lon': -51.6952696, 'tags': {'addr:city': 'Cotiporã', 'addr:housenumber': '136 Sala 02', 'addr:postcode': '95335-000', 'addr:street': 'Rua 10 de Novembro', 'addr:suburb': 'Centro', 'healthcare': 'physiotherapist', 'name': 'Fisio Vida', 'operator': 'Priscila L Simioni'}}"
"{'type': 'node', 'id': 6735275980, 'lat': -28.9957692, 'lon': -51.6971312, 'tags': {'addr:city': 'Cotiporã', 'addr:housenumber': '28', 'addr:postcode': '95335-000', 'addr:street': 'Rua Andrea Argenta', 'addr:suburb': 'Centro', 'healthcare': 'psychotherapist', 'name': 'Sania Maria Tres Guindani'}}"
"{'type': 'node', 'id': 6738780198, 'lat': -28.9943333, 'lon': -51.6954399, 'tags': {'addr:city': 'Cotiporã', 'addr:housenumber': '97', 'addr:postcode': '95335-000', 'addr:street': 'Rua Nilo Leonardo Tonial', 'addr:suburb': 'Centro', 'healthcare': 'physiotherapist', 'name': 'Tatiana Fellini'}}"
"{'type': 'node', 'id': 6738792940, 'lat': -28.9959956, 'lon': -51.6966892, 'tags': {'addr:city': 'Cotiporã', 'addr:housenumber': '120', 'addr:postcode': '95335-000', 'addr:street': 'Praça Maurício Cardoso', 'addr:suburb': 'Centro', 'healthcare': 'physiotherapist', 'name': 'Tiago Luza'}}"
"{'type': 'node', 'id': 6769516676, 'lat': -28.261387, 'lon': -52.416428, 'tags': {'addr:city': 'Passo Fundo', 'addr:housenumber': '1898', 'addr:postcode': '99025-120', 'addr:street': 'Rua Lava Pés', 'addr:suburb': 'Centro', 'amenity': 'hospital', 'emergency': 'yes', 'healthcare': 'hospital', 'healthcare:speciality': 'general', 'name': 'Unimed Planalto Médio Cooperativa de Serviços Médicos Ltda', 'operator': 'Unimed', 'operator:wikidata': 'Q7865295', 'ref:CNES': '5039029', 'ref:vatin': 'BR87607149000626'}}"
"{'type': 'node', 'id': 6856271953, 'lat': -28.7114813, 'lon': -51.9357613, 'tags': {'addr:city': 'Serafina Corrêa', 'addr:housenumber': '260', 'addr:postcode': '99250-000', 'addr:street': 'Rua Monsenhor Scalabrini', 'addr:suburb': 'Centro', 'amenity': 'hospital', 'healthcare': 'hospital', 'name': 'Hospital Nossa Senhora do Rosário', 'ref:CNES': '2260050', 'ref:vatin': 'BR90397167000120'}}"
"{'type': 'node', 'id': 6907018356, 'lat': -29.4932718, 'lon': -51.9613619, 'tags': {'addr:street': 'Avenida Rio Branco', 'amenity': 'pharmacy', 'dispensing': 'yes', 'healthcare': 'pharmacy', 'name': 'Farmácias São João'}}"
"{'type': 'node', 'id': 6989031050, 'lat': -28.986334, 'lon': -51.8370095, 'tags': {'addr:city': 'Dois Lajeados', 'addr:housenumber': '10', 'addr:postcode': '99220-000', 'addr:street': 'Rua João Ribeiro', 'addr:suburb': 'Centro', 'amenity': 'hospital', 'email': 'hcsr@mastertek.com.br', 'fax': '+55 54 3471 1302', 'healthcare': 'hospital', 'name': 'Hospital de Caridade São Roque', 'phone': '+55 54 3471 1212', 'ref:CNES': '2241013', 'ref:vatin': 'BR90396409000161'}}"
"{'type': 'node', 'id': 7447914790, 'lat': -29.1778851, 'lon': -51.2357597, 'tags': {'amenity': 'pharmacy', 'brand': 'São João', 'brand:wikidata': 'Q62663306', 'dispensing': 'yes', 'healthcare': 'pharmacy', 'name': 'São João'}}"
"{'type': 'node', 'id': 7475844425, 'lat': -28.6267366, 'lon': -52.5150155, 'tags': {'amenity': 'hospital', 'healthcare': 'hospital', 'name': 'Posto Central de Saúde'}}"
"{'type': 'node', 'id': 7498809385, 'lat': -29.2308153, 'lon': -51.345117, 'tags': {'healthcare': 'laboratory', 'name': 'Unimed'}}"
"{'type': 'node', 'id': 7573380879, 'lat': -29.2274998, 'lon': -51.3487315, 'tags': {'amenity': 'pharmacy', 'dispensing': 'yes', 'healthcare': 'pharmacy', 'name': 'Farmácia Marlene'}}"
"{'type': 'node', 'id': 7618741192, 'lat': -29.1920597, 'lon': -51.235936, 'tags': {'amenity': 'pharmacy', 'dispensing': 'yes', 'healthcare': 'pharmacy', 'name': 'Preço Popular'}}"
"{'type': 'node', 'id': 7776373977, 'lat': -29.2142463, 'lon': -51.2831792, 'tags': {'amenity': 'pharmacy', 'dispensing': 'yes', 'healthcare': 'pharmacy', 'name': 'Sanar'}}"
"{'type': 'node', 'id': 7802187679, 'lat': -29.2342327, 'lon': -51.3243794, 'tags': {'amenity': 'clinic', 'healthcare': 'clinic', 'name': 'UBS América'}}"
"{'type': 'node', 'id': 7844126719, 'lat': -28.719763, 'lon': -51.9284101, 'tags': {'addr:city': 'Serafina Correa', 'addr:housenumber': '2617', 'addr:postcode': '99250-000', 'addr:street': 'Avenida Arthur Oscar', 'addr:suburb': 'Gramadinho', 'amenity': 'pharmacy', 'dispensing': 'yes', 'healthcare': 'pharmacy', 'name': 'Farmácias Associadas'}}"
"{'type': 'node', 'id': 8001544881, 'lat': -28.2101042, 'lon': -51.5228204, 'tags': {'amenity': 'pharmacy', 'brand': 'São João', 'brand:wikidata': 'Q62663306', 'dispensing': 'yes', 'healthcare': 'pharmacy', 'name': 'São João'}}"
"{'type': 'node', 'id': 8075792100, 'lat': -29.2083845, 'lon': -51.348348, 'tags': {'amenity': 'clinic', 'healthcare': 'clinic', 'name': 'UBS Cinquentenário'}}"
"{'type': 'node', 'id': 8152408547, 'lat': -29.1797383, 'lon': -51.2845788, 'tags': {'addr:city': 'Farroupilha', 'addr:street': 'Rua Esperança', 'amenity': 'clinic', 'healthcare': 'clinic', 'name': 'UBS Vila Esperança'}}"
"{'type': 'node', 'id': 8164032676, 'lat': -29.1728997, 'lon': -51.2333658, 'tags': {'amenity': 'pharmacy', 'brand': 'São João', 'brand:wikidata': 'Q62663306', 'dispensing': 'yes', 'healthcare': 'pharmacy', 'name': 'São João'}}"
"{'type': 'node', 'id': 8164415871, 'lat': -29.1721102, 'lon': -51.2333806, 'tags': {'amenity': 'pharmacy', 'dispensing': 'yes', 'healthcare': 'pharmacy', 'name': 'Farmácia do Trabalhador'}}"
"{'type': 'node', 'id': 8195422385, 'lat': -29.2290964, 'lon': -51.3209283, 'tags': {'healthcare': 'psychotherapist', 'name': 'CRAS'}}"
"{'type': 'node', 'id': 8282087259, 'lat': -29.0290786, 'lon': -51.3106947, 'tags': {'amenity': 'clinic', 'healthcare': 'clinic', 'name': 'Unidade Básica de Saúde Dom Henrique Gelain'}}"
"{'type': 'node', 'id': 8385626232, 'lat': -29.1575139, 'lon': -51.2186366, 'tags': {'healthcare': 'psychotherapist', 'name': 'Clínica de Repouso'}}"
"{'type': 'node', 'id': 8441055695, 'lat': -29.1847259, 'lon': -51.2189515, 'tags': {'amenity': 'pharmacy', 'brand': 'São João', 'brand:wikidata': 'Q62663306', 'dispensing': 'yes', 'healthcare': 'pharmacy', 'name': 'São João'}}"
"{'type': 'node', 'id': 8455123216, 'lat': -29.1777751, 'lon': -51.2165129, 'tags': {'healthcare': 'physiotherapist', 'name': 'Paula Parenti Fisioterapia e Pilates'}}"
"{'type': 'node', 'id': 8653798041, 'lat': -29.4947809, 'lon': -51.3594311, 'tags': {'amenity': 'hospital', 'healthcare': 'hospital', 'name': 'UPA 24 Horas'}}"
"{'type': 'node', 'id': 8734814972, 'lat': -29.1784648, 'lon': -51.2163687, 'tags': {'amenity': 'pharmacy', 'brand': 'Droga Raia', 'brand:wikidata': 'Q10357101', 'brand:wikipedia': 'pt:RaiaDrogasil', 'dispensing': 'yes', 'healthcare': 'pharmacy', 'name': 'Droga Raia', 'note': 'Antiga loja de móveis ""Vila Rica"".'}}"
"{'type': 'node', 'id': 8735005532, 'lat': -29.1770112, 'lon': -51.219246, 'tags': {'amenity': 'pharmacy', 'brand': 'São João', 'brand:wikidata': 'Q62663306', 'dispensing': 'yes', 'healthcare': 'pharmacy', 'name': 'São João'}}"
"{'type': 'node', 'id': 8804794608, 'lat': -29.2557648, 'lon': -51.5275274, 'tags': {'addr:city': 'Garibaldi', 'addr:housenumber': '203, Sala 304', 'addr:postcode': '95720-000', 'addr:street': 'Avenida Rio Branco', 'addr:suburb': 'Centro', 'amenity': 'hospital', 'healthcare': 'hospital', 'healthcare:speciality': 'ophthalmology', 'name': 'Oftalmologista - Dra. Camila Eccker'}}"
"{'type': 'node', 'id': 8824692964, 'lat': -29.2467087, 'lon': -51.5326713, 'tags': {'amenity': 'hospital', 'healthcare': 'hospital'}}"
"{'type': 'node', 'id': 8824692969, 'lat': -29.2467273, 'lon': -51.5326332, 'tags': {'amenity': 'hospital', 'healthcare': 'hospital', 'name': 'SUS Garibaldi'}}"
"{'type': 'node', 'id': 8917842550, 'lat': -29.1785644, 'lon': -51.5108095, 'tags': {'amenity': 'pharmacy', 'dispensing': 'yes', 'healthcare': 'pharmacy', 'name': 'Farmácia Tacchimed'}}"
"{'type': 'node', 'id': 8917842551, 'lat': -29.1781596, 'lon': -51.511712, 'tags': {'amenity': 'pharmacy', 'brand': 'São João', 'brand:wikidata': 'Q62663306', 'dispensing': 'yes', 'healthcare': 'pharmacy', 'name': 'São João'}}"
"{'type': 'node', 'id': 9046361784, 'lat': -29.2958216, 'lon': -51.5026877, 'tags': {'addr:city': 'Carlos Barbosa', 'addr:housenumber': '116', 'addr:postcode': '95185000', 'addr:street': 'Rua Borges de Medeiros', 'addr:suburb': 'Centro', 'amenity': 'doctors', 'healthcare': 'doctor', 'healthcare:speciality': 'neurology;specialist_pediatrician', 'name': 'Clínica Desenvolver Neuropediatria e Pediatria - Dra Lais Merzoni', 'operator': 'Lais Merzoni'}}"
"{'type': 'node', 'id': 9573011317, 'lat': -29.2285887, 'lon': -51.3550232, 'tags': {'amenity': 'clinic', 'healthcare': 'clinic', 'name': 'UPA Farroupilha'}}"
"{'type': 'node', 'id': 9643291536, 'lat': -29.2392986, 'lon': -51.8684077, 'tags': {'addr:city': 'Encantado', 'addr:housenumber': '1676', 'addr:postcode': '95960-000', 'addr:street': 'Rua João Lucca', 'amenity': 'pharmacy', 'dispensing': 'yes', 'healthcare': 'pharmacy', 'name': 'Farmácia Municipal de Encantado'}}"
"{'type': 'node', 'id': 9789365517, 'lat': -28.2104303, 'lon': -51.5219949, 'tags': {'amenity': 'pharmacy', 'name': 'São João', 'opening_hours': '24/7', 'phone': '+55 54 99710-8374'}}"
"{'type': 'node', 'id': 9789365617, 'lat': -28.2101421, 'lon': -51.5243544, 'tags': {'amenity': 'pharmacy', 'name': 'Drogaria Central Farma'}}"
"{'type': 'node', 'id': 9847217066, 'lat': -29.4471355, 'lon': -51.3082475, 'tags': {'amenity': 'hospital', 'healthcare': 'hospital', 'name': 'Hospital Schlatter'}}"
"{'type': 'node', 'id': 9879797746, 'lat': -29.1898248, 'lon': -51.2343149, 'tags': {'amenity': 'pharmacy', 'brand': 'Agafarma', 'brand:wikidata': 'Q93735939', 'dispensing': 'yes', 'healthcare': 'pharmacy', 'name': 'MinhaFarma Desvio Rizzo'}}"
"{'type': 'node', 'id': 9966046813, 'lat': -29.2994144, 'lon': -52.4240863, 'tags': {'amenity': 'hospital', 'healthcare': 'hospital', 'name': 'Hospital Doutor Anuar Elias Aesse'}}"
"{'type': 'node', 'id': 9987089607, 'lat': -29.1718978, 'lon': -51.2334213, 'tags': {'amenity': 'pharmacy', 'dispensing': 'yes', 'healthcare': 'pharmacy', 'name': 'Preço Popular'}}"
"{'type': 'node', 'id': 9987136459, 'lat': -29.1710802, 'lon': -51.2349782, 'tags': {'amenity': 'pharmacy', 'dispensing': 'yes', 'healthcare': 'pharmacy', 'name': 'Farmácia Sonda - Total Farma'}}"
"{'type': 'node', 'id': 10014390372, 'lat': -29.4638448, 'lon': -51.362565, 'tags': {'amenity': 'clinic', 'healthcare': 'clinic', 'name': 'UBS Morro Tico Tico'}}"
"{'type': 'node', 'id': 10019762268, 'lat': -29.4530295, 'lon': -51.3063937, 'tags': {'amenity': 'clinic', 'healthcare': 'clinic', 'name': 'Unidade Básica de Saúde'}}"
"{'type': 'node', 'id': 10019765827, 'lat': -29.4529293, 'lon': -51.3068362, 'tags': {'amenity': 'pharmacy', 'brand': 'São João', 'brand:wikidata': 'Q62663306', 'dispensing': 'yes', 'healthcare': 'pharmacy', 'name': 'São João'}}"
"{'type': 'node', 'id': 10186984000, 'lat': -29.2547704, 'lon': -51.5318742, 'tags': {'amenity': 'pharmacy', 'healthcare': 'pharmacy', 'name': 'Total Farma'}}"
"{'type': 'node', 'id': 10571043906, 'lat': -29.385963, 'lon': -52.2674835, 'tags': {'addr:housenumber': '483', 'addr:street': 'Rua 30 de Novembro', 'healthcare': 'physiotherapist', 'name': 'Ariotti Fisioterapia'}}"
"{'type': 'node', 'id': 10571057911, 'lat': -29.3866326, 'lon': -52.2679764, 'tags': {'addr:city': 'Sério', 'addr:country': 'BR', 'addr:housename': 'Sala 01', 'addr:housenumber': '585', 'addr:postcode': '95918-000', 'addr:street': 'Rua 30 de Novembro', 'amenity': 'pharmacy', 'contact:phone': '+55 51 99869-6672', 'dispensing': 'yes', 'healthcare': 'pharmacy', 'name': 'Farmácia São José', 'opening_hours': 'Mo 08:30-18:00; Tu-Fr 08:30-18:30; Sa 08:30-12:00', 'operational_status': 'operational', 'operator': 'Fármacias Santa Helena'}}"
"{'type': 'node', 'id': 10671730538, 'lat': -29.4689563, 'lon': -52.0901996, 'tags': {'addr:city': 'Santa Clara do Sul', 'addr:country': 'BR', 'addr:housename': 'Sala 02', 'addr:housenumber': '1460', 'addr:postcode': '95915-000', 'addr:state': 'Rio Grande do Sul', 'addr:street': 'Avenida 28 de Maio', 'addr:suburb': 'Centro', 'amenity': 'pharmacy', 'brand': 'Agafarma', 'brand:wikidata': 'Q93735939', 'healthcare': 'pharmacy', 'name': 'Agafarma'}}"
"{'type': 'node', 'id': 10671730539, 'lat': -29.4690077, 'lon': -52.0872465, 'tags': {'addr:city': 'Santa Clara do Sul', 'addr:country': 'BR', 'addr:housenumber': '1158', 'addr:postcode': '95915-000', 'addr:street': 'Avenida 28 de Maio', 'addr:suburb': 'Centro', 'amenity': 'pharmacy', 'dispensing': 'yes', 'name': 'Fármacias Associadas Drogativa', 'phone': '+55 (51) 3782-1479'}}"
"{'type': 'node', 'id': 10671730556, 'lat': -29.4682266, 'lon': -52.0847815, 'tags': {'addr:city': 'Santa Clara do Sul', 'addr:country': 'BR', 'addr:housename': 'Sala 101', 'addr:housenumber': '997', 'addr:postcode': '95915-000', 'addr:street': 'Rua 9 de Fevereiro', 'addr:suburb': 'Centro', 'amenity': 'pharmacy', 'brand': 'Agafarma', 'brand:wikidata': 'Q93735939', 'healthcare': 'pharmacy', 'name': 'Agafarma', 'phone': '+55 51 3782-1066'}}"
"{'type': 'node', 'id': 10681445819, 'lat': -29.3815057, 'lon': -52.1042693, 'tags': {'addr:city': 'Forquetinha', 'addr:country': 'BR', 'addr:housenumber': '669', 'addr:postcode': '95937-000', 'addr:street': 'Avenida Martin Luther', 'addr:suburb': 'Centro', 'amenity': 'pharmacy', 'contact:whatsapp': '+55 (51) 99220-7342', 'healthcare': 'pharmacy', 'mobile': '+55 (51) 99220-7342', 'name': 'Asterfarma Forquetinha', 'phone': '+55 51 3613-2246', 'wheelchair': 'limited'}}"
"{'type': 'node', 'id': 10684109669, 'lat': -29.1787191, 'lon': -51.5111648, 'tags': {'amenity': 'pharmacy', 'brand': 'Panvel', 'brand:wikidata': 'Q10344254', 'healthcare': 'pharmacy', 'name': 'Panvel'}}"
"{'type': 'node', 'id': 10803314248, 'lat': -29.1613973, 'lon': -51.5220699, 'tags': {'amenity': 'pharmacy', 'healthcare': 'pharmacy', 'name': 'Farmácia União'}}"
"{'type': 'node', 'id': 10805274413, 'lat': -29.4491952, 'lon': -51.9684997, 'tags': {'amenity': 'pharmacy', 'brand': 'Farmácia São João', 'brand:wikidata': 'Q65164556', 'dispensing': 'yes', 'healthcare': 'pharmacy', 'level': '1', 'name': 'Farmácia São João'}}"
"{'type': 'node', 'id': 10829809942, 'lat': -29.2569395, 'lon': -51.527745, 'tags': {'amenity': 'pharmacy', 'brand': 'Panvel', 'brand:wikidata': 'Q10344254', 'healthcare': 'pharmacy', 'name': 'Panvel'}}"
"{'type': 'node', 'id': 10832126705, 'lat': -28.2636911, 'lon': -52.4048547, 'tags': {'addr:housenumber': '173', 'addr:street': 'Rua Bento Gonçalves', 'amenity': 'pharmacy', 'name': 'Farmácia São João'}}"
"{'type': 'node', 'id': 10863759275, 'lat': -28.9311453, 'lon': -52.1235806, 'tags': {'addr:city': 'Ilópolis', 'addr:housenumber': '495', 'addr:postcode': '95990-000', 'addr:street': 'Rua João Tomasini', 'addr:suburb': 'Centro', 'amenity': 'hospital', 'healthcare': 'hospital', 'name': 'Hospital Beneficente Leonilda Brunet', 'operator:ref:vatin': 'BR87263364000142', 'ref:CNES': '2252139', 'ref:vatin': 'BR87263364000223', 'source:geometry': 'IEDE/RS'}}"
"{'type': 'node', 'id': 10869903607, 'lat': -29.4561867, 'lon': -51.9869453, 'tags': {'addr:city': 'Lajeado', 'addr:country': 'BR', 'addr:housenumber': '1312', 'addr:postcode': '95905-028', 'addr:state': 'Rio Grande do Sul', 'addr:street': 'Rua João Sebastiany', 'addr:suburb': 'Montanha', 'amenity': 'clinic', 'contact:phone': '+55 (51) 3982-1138', 'name': 'ESF Montanha', 'official_name': 'Estratégia de Saúde da Família Montanha', 'ref:CNES': '2251353'}}"
"{'type': 'node', 'id': 10869903990, 'lat': -29.469177, 'lon': -52.0774343, 'tags': {'addr:city': 'Santa Clara do Sul', 'addr:country': 'BR', 'addr:housenumber': '197', 'addr:postcode': '95915-000', 'addr:state': 'Rio Grande do Sul', 'addr:street': 'Avenida 28 de Maio', 'addr:suburb': 'São Francisco', 'contact:phone': '+55 51 99751-7271', 'healthcare': 'laboratory', 'name': 'Santalab', 'opening_hours': 'Mo-Fr 06:45-17:00', 'ref:CNES': '9845917'}}"
"{'type': 'node', 'id': 10961827266, 'lat': -29.4695363, 'lon': -52.0834647, 'tags': {'amenity': 'pharmacy', 'check_date': '2023-06-06', 'healthcare': 'pharmacy'}}"
"{'type': 'node', 'id': 10961827268, 'lat': -29.4692341, 'lon': -52.0854222, 'tags': {'amenity': 'pharmacy', 'check_date': '2023-06-06', 'healthcare': 'pharmacy', 'name': 'Asterfarma'}}"
"{'type': 'node', 'id': 11108807381, 'lat': -28.2548664, 'lon': -52.4030677, 'tags': {'amenity': 'pharmacy', 'contact:facebook': 'https://www.facebook.com/FarmaciasAssocidasVidaFarma/', 'name': 'Farmácias Associadas', 'website': 'https://farmaciasassociadas.com.br'}}"
"{'type': 'node', 'id': 11148835408, 'lat': -28.1839218, 'lon': -52.0152895, 'tags': {'amenity': 'clinic', 'fixme': 'Corrigir localização', 'healthcare': 'clinic', 'name': 'Casa de Saúde Indígena de Água Santa', 'ref:CNES': '7520069', 'short_name': 'Casai'}}"
"{'type': 'node', 'id': 11175672773, 'lat': -29.1668364, 'lon': -51.8764559, 'tags': {'amenity': 'pharmacy', 'healthcare': 'pharmacy', 'name': 'Farmácia Lucca'}}"
"{'type': 'node', 'id': 11287113079, 'lat': -28.2617668, 'lon': -52.4061244, 'tags': {'amenity': 'pharmacy', 'brand': 'Panvel', 'brand:wikidata': 'Q10344254', 'healthcare': 'pharmacy', 'name': 'Panvel'}}"
"{'type': 'node', 'id': 11289542669, 'lat': -28.2589768, 'lon': -52.4097446, 'tags': {'amenity': 'pharmacy', 'name': 'São João'}}"
"{'type': 'node', 'id': 11310009162, 'lat': -29.4822654, 'lon': -51.3095364, 'tags': {'addr:street': 'Estrada Júlio de Castilhos', 'amenity': 'clinic', 'healthcare': 'clinic', 'name': 'Unidade básica de Escadinhas'}}"
"{'type': 'node', 'id': 11327690245, 'lat': -28.2605227, 'lon': -52.3961918, 'tags': {'amenity': 'pharmacy', 'healthcare': 'pharmacy', 'name': 'São João'}}"
"{'type': 'node', 'id': 11447407357, 'lat': -28.2712976, 'lon': -52.3856113, 'tags': {'amenity': 'pharmacy', 'brand': 'Panvel', 'brand:wikidata': 'Q10344254', 'healthcare': 'pharmacy', 'name': 'Panvel'}}"
"{'type': 'node', 'id': 11613657553, 'lat': -29.2947516, 'lon': -51.5005234, 'tags': {'addr:city': 'Carlos Barbosa', 'addr:housenumber': '64', 'addr:postcode': '95185-000', 'addr:street': 'Avenida Ivo Tramontina', 'addr:suburb': 'Centro', 'amenity': 'clinic', 'check_date': '2024-02-12', 'check_date:currency:XBT': '2024-02-12', 'contact:instagram': 'clinicaballotin', 'currency:XBT': 'yes', 'description': 'Atendimento médico presencial, telemedicina e a domicílio', 'email': 'ballotinmed@gmail.com', 'healthcare': 'clinic', 'healthcare:speciality': 'general', 'mobile': '+55 54 99262 0822', 'name': 'Ballotin Clínica Médica', 'opening_hours': '24/7', 'payment:lightning': 'yes', 'payment:lightning_contactless': 'yes', 'payment:onchain': 'yes', 'website': 'https://linktr.ee/clinicaballotin'}}"
"{'type': 'node', 'id': 11713638914, 'lat': -29.4422062, 'lon': -51.511727, 'tags': {'amenity': 'pharmacy', 'brand': 'Agafarma', 'brand:wikidata': 'Q93735939', 'healthcare': 'pharmacy', 'name': 'Agafarma'}}"
"{'type': 'node', 'id': 11788412359, 'lat': -28.8504284, 'lon': -51.8906131, 'tags': {'addr:city': 'Guaporé', 'addr:housenumber': '755', 'addr:street': 'Rua Ângelo José Bordin', 'addr:suburb': 'Centro', 'amenity': 'dentist', 'healthcare': 'dentist', 'healthcare:speciality': 'orthodontics', 'mobile': '+55 54 9639 0105', 'name': 'Oral Brasil Guaporé', 'phone': '+55  54 3443 4458', 'website': 'https://oralbrasil.com.br/guapore'}}"
"{'type': 'node', 'id': 11967746422, 'lat': -29.458945, 'lon': -51.9703222, 'tags': {'addr:city': 'Lajeado', 'addr:housenumber': '360', 'addr:postcode': '95900052', 'addr:street': 'Rua Germano Berner', 'addr:suburb': 'Centro', 'air_conditioning': 'yes', 'amenity': 'clinic', 'healthcare': 'clinic', 'healthcare:speciality': 'urology;plastic_surgery;geriatrics', 'name': 'Clínica Tostes', 'wheelchair': 'yes'}}"
"{'type': 'node', 'id': 12108372092, 'lat': -29.0994393, 'lon': -51.4503846, 'tags': {'addr:city': 'Pinto Bandeira', 'addr:housenumber': '549', 'addr:postcode': '95717-000', 'addr:street': 'Rua Sete de Setembro', 'addr:suburb': 'Centro', 'amenity': 'dentist', 'check_date': '2024-08-13', 'contact:instagram': 'duo.odontologia.pb', 'currency:BRL': 'yes', 'currency:XBT': 'yes', 'description': 'Somos uma clínica odontológica, oferecemos todos os serviços de simples a complexos.', 'healthcare': 'dentist', 'name': 'Duo Odontologia', 'opening_hours': 'Mo-Fr 08:00-18:00', 'operator': 'Marcelo Carraro', 'payment:cash': 'yes', 'payment:credit_cards': 'yes', 'payment:lightning': 'yes', 'payment:lightning_contactless': 'yes', 'payment:onchain': 'yes', 'phone': '+55 54 3468 0206'}}"
"{'type': 'node', 'id': 12108448683, 'lat': -29.180874, 'lon': -51.50843, 'tags': {'addr:city': 'Bento Gonçalves', 'addr:housenumber': '746', 'addr:postcode': '95700-580', 'addr:street': 'Rua Fortaleza', 'addr:suburb': 'Botafogo', 'amenity': 'dentist', 'check_date': '2024-08-13', 'contact:instagram': 'dr.marcelocarraro', 'currency:BRL': 'yes', 'currency:XBT': 'yes', 'description': 'Foco em estética, facetas de porcelana e implantes Dentários', 'healthcare': 'dentist', 'name': 'Dentista Marcelo Carraro', 'opening_hours': 'Tu 09:00-18:00; Fr 09:00-18:00', 'operator': 'Marcelo Carraro', 'payment:cash': 'yes', 'payment:credit_cards': 'yes', 'payment:lightning': 'yes', 'payment:lightning_contactless': 'yes', 'payment:onchain': 'yes', 'phone': '+55 54 3055 4100'}}"
"{'type': 'node', 'id': 12109470143, 'lat': -29.3851941, 'lon': -52.2670738, 'tags': {'healthcare': 'laboratory', 'name': 'SantaLab'}}"
"{'type': 'node', 'id': 12109628164, 'lat': -29.1625129, 'lon': -51.6325539, 'tags': {'addr:city': 'Monte Belo do Sul', 'addr:housenumber': '100', 'addr:postcode': '95718-000', 'addr:street': 'Rua Arthur Beltrame', 'addr:suburb': 'Centro', 'amenity': 'dentist', 'check_date': '2024-08-14', 'contact:instagram': 'dr.marcelocarraro', 'currency:BRL': 'yes', 'currency:XBT': 'yes', 'description': 'Odontologia Estética Foco em estética, facetas de porcelana e implantes', 'healthcare': 'dentist', 'name': 'Dentista - Marcelo Luis Fleck Carraro', 'opening_hours': 'Mo-Fr 08:00-19:00', 'operator': 'Marcelo Carraro', 'payment:cash': 'yes', 'payment:credit_cards': 'yes', 'payment:lightning': 'yes', 'payment:lightning_contactless': 'yes', 'payment:onchain': 'yes', 'phone': '+55 54 99636 4060'}}"
"{'type': 'node', 'id': 12111431348, 'lat': -28.2626233, 'lon': -52.4074651, 'tags': {'amenity': 'pharmacy', 'brand': 'São João', 'brand:wikidata': 'Q62663306', 'healthcare': 'pharmacy', 'name': 'São João'}}"
"{'type': 'node', 'id': 12125215981, 'lat': -28.2612975, 'lon': -52.4047024, 'tags': {'healthcare': 'laboratory', 'name': 'Unidos Análises Clínicas'}}"
"{'type': 'node', 'id': 12152397596, 'lat': -29.217096, 'lon': -51.3315498, 'tags': {'amenity': 'clinic', 'healthcare': 'clinic', 'name': 'UBS Medianeira'}}"
"{'type': 'node', 'id': 12152433636, 'lat': -29.240597, 'lon': -51.343948, 'tags': {'amenity': 'clinic', 'healthcare': 'clinic', 'name': 'UBS 1º de Maio'}}"
"{'type': 'node', 'id': 12152787839, 'lat': -29.2311353, 'lon': -51.3208474, 'tags': {'amenity': 'clinic', 'healthcare': 'clinic', 'name': 'ESF Industrial'}}"
"{'type': 'node', 'id': 12294959559, 'lat': -29.2288141, 'lon': -51.3474985, 'tags': {'amenity': 'pharmacy', 'brand': 'Droga Raia', 'brand:wikidata': 'Q10357101', 'healthcare': 'pharmacy', 'name': 'Droga Raia'}}"
"{'type': 'node', 'id': 12386828863, 'lat': -29.1677863, 'lon': -51.5174113, 'tags': {'amenity': 'pharmacy', 'brand': 'São João', 'brand:wikidata': 'Q62663306', 'healthcare': 'pharmacy', 'name': 'São João'}}"
"{'type': 'node', 'id': 12386862858, 'lat': -29.1672746, 'lon': -51.517395, 'tags': {'amenity': 'pharmacy', 'brand': 'Panvel', 'brand:wikidata': 'Q10344254', 'healthcare': 'pharmacy', 'name': 'Panvel'}}"
"{'type': 'node', 'id': 12472108310, 'lat': -28.8633262, 'lon': -51.5524706, 'tags': {'amenity': 'pharmacy', 'healthcare': 'pharmacy'}}"
