OSM_Data
"{'type': 'node', 'id': 270357431, 'lat': -25.4387527, 'lon': -49.2377298, 'tags': {'amenity': 'pharmacy', 'healthcare': 'pharmacy', 'name': 'Farmácia Jardim Botânico'}}"
"{'type': 'node', 'id': 848917126, 'lat': -25.5407277, 'lon': -49.1537089, 'tags': {'amenity': 'clinic', 'name': 'Unidade de Saúde Doutor Nivaldo Ênio Moura e Costa'}}"
"{'type': 'node', 'id': 860698547, 'lat': -25.3850696, 'lon': -49.2153112, 'tags': {'amenity': 'pharmacy', 'dispensing': 'no', 'healthcare': 'pharmacy', 'name': 'Maxifarma'}}"
"{'type': 'node', 'id': 919687849, 'lat': -25.4437315, 'lon': -49.0623054, 'tags': {'amenity': 'pharmacy', 'dispensing': 'no', 'healthcare': 'pharmacy', 'name': 'ForteFarma'}}"
"{'type': 'node', 'id': 948442606, 'lat': -25.5183167, 'lon': -49.1640128, 'tags': {'amenity': 'pharmacy', 'dispensing': 'no', 'name': 'FarmaTotal', 'opening_hours': '08:00-20:00', 'phone': '+55 41 3383-3015'}}"
"{'type': 'node', 'id': 948442840, 'lat': -25.5086347, 'lon': -49.1848425, 'tags': {'amenity': 'pharmacy', 'dispensing': 'no', 'name': 'Farmácia FarmaForte'}}"
"{'type': 'node', 'id': 948442870, 'lat': -25.531997, 'lon': -49.1519608, 'tags': {'amenity': 'pharmacy', 'dispensing': 'no', 'name': 'GloboFarma', 'opening_hours': '08:00-20:00', 'phone': '+55 41 3282-5700'}}"
"{'type': 'node', 'id': 948442877, 'lat': -25.5175711, 'lon': -49.1649957, 'tags': {'amenity': 'pharmacy', 'dispensing': 'no', 'name': 'NuzaFarma', 'opening_hours': '08:00-20:00'}}"
"{'type': 'node', 'id': 948442906, 'lat': -25.5013953, 'lon': -49.1779509, 'tags': {'amenity': 'pharmacy', 'dispensing': 'no', 'name': 'Farmácia Independência'}}"
"{'type': 'node', 'id': 973656274, 'lat': -25.5362468, 'lon': -49.2053582, 'tags': {'addr:city': 'São José dos Pinhais', 'addr:housenumber': '1360', 'addr:postcode': '83005-000', 'addr:street': 'Rua Quinze de Novembro', 'addr:suburb': 'Centro', 'amenity': 'pharmacy', 'name': 'Nissei'}}"
"{'type': 'node', 'id': 1024488064, 'lat': -25.50622, 'lon': -49.1720488, 'tags': {'amenity': 'pharmacy', 'dispensing': 'no', 'healthcare': 'pharmacy', 'name': 'Farma Total'}}"
"{'type': 'node', 'id': 1057871885, 'lat': -25.5223911, 'lon': -49.2008316, 'tags': {'addr:city': 'São José dos Pinhais', 'addr:housenumber': '900', 'addr:postcode': '83040-210', 'addr:street': 'Rua Joaquim Nabuco', 'addr:suburb': 'Cidade Jardim', 'amenity': 'pharmacy', 'dispensing': 'no', 'name': 'PharmaTotal'}}"
"{'type': 'node', 'id': 1095266785, 'lat': -25.550231, 'lon': -49.1956398, 'tags': {'addr:street': 'Rua Joinville', 'amenity': 'pharmacy', 'name': 'Distribuidora Parmera', 'opening_hours': '08:00-18:00', 'shop': 'beverages'}}"
"{'type': 'node', 'id': 1095266859, 'lat': -25.5491109, 'lon': -49.1963855, 'tags': {'amenity': 'pharmacy', 'name': 'Drogaria Paraná', 'opening_hours': 'Mo-Fr 08:00-21:00; Sa 08:00-16:00'}}"
"{'type': 'node', 'id': 1278213856, 'lat': -25.5708148, 'lon': -48.3139555, 'tags': {'amenity': 'hospital', 'name': 'Clinica de Saude'}}"
"{'type': 'node', 'id': 1355714214, 'lat': -25.4869373, 'lon': -49.2235113, 'tags': {'amenity': 'pharmacy', 'name': 'Farmácia Marechal'}}"
"{'type': 'node', 'id': 1377827839, 'lat': -25.5411029, 'lon': -49.1962951, 'tags': {'addr:city': 'São José dos Pinhais', 'addr:housenumber': '2320', 'addr:postcode': '83005-010', 'addr:street': 'Rua Dona Isabel A Redentora', 'addr:suburb': 'Centro', 'amenity': 'pharmacy', 'dispensing': 'yes', 'healthcare': 'pharmacy', 'name': 'Efetiva Farmácia de Manipulação', 'opening_hours': 'Mo-Fr 08:00-19:00; Sa 08:30-12:30', 'phone': '+55 41 3035-4488;+ 55 4198417-4738', 'website': 'https://www.farmaciaefetiva.com'}}"
"{'type': 'node', 'id': 1389694639, 'lat': -25.4276808, 'lon': -49.2474957, 'tags': {'addr:city': 'Curitiba', 'addr:housenumber': '2760', 'addr:street': 'Rua 15 de Novembro', 'addr:suburb': 'Alto da Rua XV', 'amenity': 'pharmacy', 'brand': 'Droga Raia', 'brand:wikidata': 'Q10357101', 'brand:wikipedia': 'pt:RaiaDrogasil', 'healthcare': 'pharmacy', 'name': 'Droga Raia'}}"
"{'type': 'node', 'id': 1439259213, 'lat': -25.5377324, 'lon': -49.2043144, 'tags': {'addr:city': 'São José dos Pinhais', 'addr:housenumber': '1434', 'addr:postcode': '83005-010', 'addr:street': 'Rua Izabel A Redentora', 'addr:suburb': 'Centro', 'amenity': 'pharmacy', 'dispensing': 'yes', 'healthcare': 'pharmacy', 'name': 'Nissei'}}"
"{'type': 'node', 'id': 1505855904, 'lat': -26.3153631, 'lon': -48.8533813, 'tags': {'addr:city': 'Joinville', 'addr:housenumber': '808', 'addr:street': 'Rua Porto União', 'addr:suburb': 'Anita Garibaldi', 'amenity': 'dentist', 'building': 'yes', 'healthcare': 'dentist', 'name': 'Dentista Arion Denisar Olsen', 'opening_hours': 'Mo-Fr 08:30-20:00'}}"
"{'type': 'node', 'id': 1578616892, 'lat': -26.2271856, 'lon': -48.5018552, 'tags': {'access': 'yes', 'addr:city': 'São Francisco do Sul', 'addr:housenumber': '1', 'addr:postcode': '89240-000', 'addr:street': 'Rua Pará', 'addr:suburb': 'Enseada', 'amenity': 'clinic', 'healthcare': 'clinic'}}"
"{'type': 'node', 'id': 1682282801, 'lat': -25.4192727, 'lon': -49.2027606, 'tags': {'amenity': 'pharmacy', 'healthcare': 'pharmacy'}}"
"{'type': 'node', 'id': 1764250043, 'lat': -25.4736538, 'lon': -49.2341558, 'tags': {'amenity': 'pharmacy', 'name': 'Nissei'}}"
"{'type': 'node', 'id': 1781139471, 'lat': -25.3566186, 'lon': -49.1581867, 'tags': {'addr:housenumber': '1195', 'addr:street': 'Rua Ataláia', 'addr:suburb': 'Vila São José', 'amenity': 'clinic', 'healthcare': 'clinic', 'name': 'Unidade de Saúde São José', 'operator:type': 'public'}}"
"{'type': 'node', 'id': 1781740798, 'lat': -26.3618968, 'lon': -48.8108412, 'tags': {'amenity': 'pharmacy', 'name': 'Farmácia Drogaville'}}"
"{'type': 'node', 'id': 1975300363, 'lat': -25.4748933, 'lon': -49.2186379, 'tags': {'amenity': 'pharmacy', 'healthcare': 'pharmacy', 'name': 'Farma Total'}}"
"{'type': 'node', 'id': 1975300381, 'lat': -25.4787748, 'lon': -49.2151269, 'tags': {'amenity': 'pharmacy', 'name': 'Hiper Farma'}}"
"{'type': 'node', 'id': 1975720653, 'lat': -25.4528223, 'lon': -49.227975, 'tags': {'addr:housenumber': '236', 'addr:postcode': '81530-020', 'addr:street': 'Avenida Nossa Senhora de Lourdes', 'amenity': 'pharmacy', 'check_date': '2022-12-30', 'name': 'Droga Raia', 'opening_hours': '24/7', 'payment:mastercard': 'yes', 'payment:visa': 'yes', 'survey:date': '2014-02-17'}}"
"{'type': 'node', 'id': 2134377062, 'lat': -26.4510723, 'lon': -48.620473, 'tags': {'amenity': 'pharmacy', 'name': 'Farmácia'}}"
"{'type': 'node', 'id': 2398895420, 'lat': -25.4265286, 'lon': -49.2014568, 'tags': {'amenity': 'pharmacy'}}"
"{'type': 'node', 'id': 2412789377, 'lat': -25.468656, 'lon': -49.2085542, 'tags': {'amenity': 'pharmacy', 'dispensing': 'yes', 'healthcare': 'pharmacy', 'name': 'Drogaria Nissei'}}"
"{'type': 'node', 'id': 2412789381, 'lat': -25.469871, 'lon': -49.2082142, 'tags': {'amenity': 'pharmacy', 'dispensing': 'yes', 'healthcare': 'pharmacy', 'name': 'Farmatotal Centenário'}}"
"{'type': 'node', 'id': 2412789382, 'lat': -25.4690168, 'lon': -49.2087553, 'tags': {'amenity': 'pharmacy', 'dispensing': 'yes', 'healthcare': 'pharmacy', 'name': 'Drogaria Farmais'}}"
"{'type': 'node', 'id': 2535849768, 'lat': -26.4744527, 'lon': -49.0020315, 'tags': {'addr:city': 'Guaramirim', 'addr:housenumber': '1262', 'addr:street': 'Rua Vinte e Oito de Agosto', 'addr:suburb': 'Centro', 'amenity': 'pharmacy', 'dispensing': 'yes', 'healthcare': 'pharmacy', 'name': 'Drogaria Catarinense'}}"
"{'type': 'node', 'id': 2630211807, 'lat': -25.297579, 'lon': -48.326997, 'tags': {'addr:city': 'Guaraqueçaba', 'addr:housenumber': '47', 'addr:postcode': '83.390-000', 'addr:street': 'Avenida Maria Carolina de Lisboa', 'amenity': 'pharmacy', 'atm': 'yes', 'dispensing': 'no', 'drive_through': 'no', 'internet_access': 'no', 'name': 'Guaraquefarma', 'phone': '+55 41 3482-1495'}}"
"{'type': 'node', 'id': 2630641505, 'lat': -26.3013379, 'lon': -48.8454455, 'tags': {'amenity': 'pharmacy', 'name': 'Farmácia Preço Popular', 'opening_hours': 'Mo-Fr 08:00-20:00; Sa 08:00-14:00'}}"
"{'type': 'node', 'id': 2631242287, 'lat': -26.2051193, 'lon': -48.539425, 'tags': {'access': 'yes', 'addr:city': 'São Francisco do Sul', 'addr:housenumber': '9780', 'addr:postcode': '89240-000', 'addr:street': 'Rodovia Duque de Caxias', 'addr:suburb': 'Ubatuba', 'alt_name': 'Unidade de Pronto Atendimento Sandra Regina', 'amenity': 'clinic', 'emergency': 'yes', 'healthcare': 'clinic', 'name': 'UPA Sandra Regina', 'source': 'Bing e survey'}}"
"{'type': 'node', 'id': 2638327429, 'lat': -26.3020608, 'lon': -48.8444318, 'tags': {'amenity': 'pharmacy', 'healthcare': 'pharmacy', 'name': 'Farmácia do Trabalhador', 'opening_hours': 'Mo-Fr 08:00-18:00; Sa 08:00-14:00', 'phone': '+55 47 3433 0449'}}"
"{'type': 'node', 'id': 2645963579, 'lat': -26.3194703, 'lon': -48.8449401, 'tags': {'addr:city': 'Joinville', 'addr:housenumber': '1343', 'addr:postcode': '89202-974', 'addr:street': 'Avenida Getúlio Vargas', 'addr:suburb': 'Bucarein', 'building:levels': '2', 'healthcare': 'pharmacy', 'name': 'Farmácia Preço Popular', 'opening_hours': 'Mo-Fr 08:00-21:00; Sa 08:00-18:00'}}"
"{'type': 'node', 'id': 2645963587, 'lat': -26.319764, 'lon': -48.8452984, 'tags': {'addr:city': 'Joinville', 'addr:housenumber': '1354', 'addr:postcode': '89202-002', 'addr:street': 'Avenida Getúlio Vargas', 'addr:suburb': 'Anita Garibaldi', 'amenity': 'pharmacy', 'brand': 'Pague Menos', 'brand:wikidata': 'Q7124466', 'brand:wikipedia': 'pt:Pague Menos', 'dispensing': 'yes', 'drive_through': 'no', 'healthcare': 'pharmacy', 'name': 'Pague Menos', 'phone': '+55 47 3422 2004'}}"
"{'type': 'node', 'id': 2656348533, 'lat': -25.458914, 'lon': -49.2330229, 'tags': {'amenity': 'pharmacy', 'healthcare': 'pharmacy', 'name': 'Nissei Heráclito dos Santos', 'opening_hours': 'Mo-Fr 07:00-23:00'}}"
"{'type': 'node', 'id': 2786722314, 'lat': -26.3193811, 'lon': -48.8409342, 'tags': {'amenity': 'dentist', 'healthcare': 'dentist'}}"
"{'type': 'node', 'id': 2902126916, 'lat': -26.4726056, 'lon': -49.0033005, 'tags': {'amenity': 'hospital', 'healthcare': 'hospital', 'name': 'Hospital Santo Antônio'}}"
"{'type': 'node', 'id': 2942800477, 'lat': -26.3049861, 'lon': -48.8422058, 'tags': {'amenity': 'clinic', 'founder:wikipedia': 'pt:Eunice Weaver', 'name': 'Sociedade Eunice Weaver'}}"
"{'type': 'node', 'id': 3012133945, 'lat': -25.5384945, 'lon': -49.2048742, 'tags': {'amenity': 'pharmacy', 'dispensing': 'yes', 'drive_through': 'no', 'healthcare': 'pharmacy', 'opening_hours': 'Mo-Fr 10:00-19:00; Sa 10:00-13:00; PH off', 'operator': 'Unimed'}}"
"{'type': 'node', 'id': 3094051853, 'lat': -25.4545707, 'lon': -49.1289971, 'tags': {'amenity': 'pharmacy'}}"
"{'type': 'node', 'id': 3100774330, 'lat': -25.4821208, 'lon': -48.8296799, 'tags': {'amenity': 'pharmacy', 'dispensing': 'yes', 'drive_through': 'no', 'healthcare': 'pharmacy', 'name': 'Farmácias Associados'}}"
"{'type': 'node', 'id': 3258598172, 'lat': -25.5334804, 'lon': -49.2061317, 'tags': {'amenity': 'pharmacy', 'name': 'Farmácia Municipal', 'operator': 'Prefeitura Municipal'}}"
"{'type': 'node', 'id': 3318756620, 'lat': -25.6539521, 'lon': -48.4484276, 'tags': {'amenity': 'pharmacy'}}"
"{'type': 'node', 'id': 3346492807, 'lat': -26.5148746, 'lon': -49.1284428, 'tags': {'addr:city': 'Jaraguá do Sul', 'addr:housenumber': '249', 'addr:street': 'Rua Pastor Albert Schneider', 'amenity': 'clinic', 'healthcare': 'clinic', 'name': 'Posto de Saúde Wolfgang Weege', 'source': 'Bing e Prefeitura Municipal'}}"
"{'type': 'node', 'id': 3356261997, 'lat': -26.5040896, 'lon': -49.1125913, 'tags': {'addr:city': 'Jaraguá do Sul', 'addr:housenumber': '150', 'addr:postcode': '89253-535', 'addr:street': 'Rua Carlos Tribess', 'addr:suburb': 'São Luís', 'amenity': 'clinic', 'contact:email': 'saude.caic@jaraguadosul.sc.gov.br', 'emergency': 'no', 'healthcare': 'clinic', 'name': 'Posto de Saúde Renato Pradi', 'operator': 'Sistema Único de Saúde', 'operator:short': 'SUS', 'operator:wikidata': 'Q7531056', 'phone': '+55 47 3370-8710', 'source': 'Bing;Prefeitura'}}"
"{'type': 'node', 'id': 3382128148, 'lat': -25.5125176, 'lon': -49.1882021, 'tags': {'amenity': 'pharmacy', 'name': 'Farmácia Nissei'}}"
"{'type': 'node', 'id': 3382128149, 'lat': -25.512629, 'lon': -49.1883148, 'tags': {'amenity': 'pharmacy', 'name': 'Farmácia Paraná'}}"
"{'type': 'node', 'id': 3429383269, 'lat': -26.4943486, 'lon': -49.0692192, 'tags': {'addr:city': 'Jaraguá do Sul', 'addr:housenumber': '108', 'addr:street': 'Rua José Theodoro Ribeiro', 'addr:suburb': 'Ilha da Figueira', 'amenity': 'dentist', 'healthcare': 'dentist', 'name': 'Dentista Danna', 'phone': '+55 47 3371 9960', 'source': 'survey'}}"
"{'type': 'node', 'id': 3429411715, 'lat': -26.5026181, 'lon': -49.089419, 'tags': {'addr:city': 'Jaraguá do Sul', 'addr:housenumber': '835', 'addr:postcode': '89259-565', 'addr:street': 'Rua Walter Marquardt', 'addr:suburb': 'Barra do Rio Molha', 'amenity': 'pharmacy', 'dispensing': 'yes', 'drive_through': 'no', 'email': 'fm915@sesifarmacias.com.br', 'healthcare': 'pharmacy', 'name': 'Farma Sesi', 'old_name': 'Sesi Farmácia', 'opening_hours': 'Mo-Fr 08:00-17:30', 'phone': '+55 47 3370-3393', 'source': 'survey', 'wheelchair': 'yes'}}"
"{'type': 'node', 'id': 3445416875, 'lat': -26.4915955, 'lon': -49.0898685, 'tags': {'addr:city': 'Jaraguá do Sul', 'addr:housenumber': '1449', 'addr:postcode': '89252-274', 'addr:street': 'Rua José Emmendoerfer', 'addr:suburb': 'Nova Brasília', 'alt_name': 'Centro de Ortopedia Especializada Jaraguá', 'amenity': 'clinic', 'healthcare': 'clinic', 'healthcare:speciality': 'orthopaedics', 'name': 'COE Jaraguá', 'phone': '+55 47 3273-2722', 'website': 'https://coejaragua.com.br/'}}"
"{'type': 'node', 'id': 3453190219, 'lat': -26.489068, 'lon': -49.0827505, 'tags': {'addr:city': 'Jaraguá do Sul', 'addr:housenumber': '855', 'addr:street': 'Avenida Marechal Deodoro da Fonseca', 'addr:suburb': 'Centro', 'amenity': 'pharmacy', 'healthcare': 'pharmacy', 'name': 'Farmácia Preço Popular', 'phone': '+55 47 3371 1602', 'source': 'Bing;survey', 'website': 'https://www.precopopular.com.br/'}}"
"{'type': 'node', 'id': 3453245348, 'lat': -26.4948244, 'lon': -49.0897672, 'tags': {'addr:city': 'Jaraguá do Sul', 'addr:housenumber': '1829', 'addr:postcode': '89252-220', 'addr:street': 'Rua João Planincheck', 'addr:suburb': 'Jaraguá Esquerdo', 'amenity': 'clinic', 'healthcare': 'clinic', 'healthcare:speciality': 'dermatology', 'name': 'Derma Bond', 'phone': '+55 47 3275-0991'}}"
"{'type': 'node', 'id': 3454106549, 'lat': -26.497341, 'lon': -49.0870985, 'tags': {'amenity': 'pharmacy', 'healthcare': 'pharmacy', 'name': 'Farmácia Cooper Vila Nova', 'phone': '+55 47 3274 7520', 'source': 'survey'}}"
"{'type': 'node', 'id': 3458483031, 'lat': -26.4882615, 'lon': -49.0831494, 'tags': {'addr:street': 'Rua Willy Mahnke', 'amenity': 'clinic', 'email': 'medclin@netuno.com.br', 'healthcare': 'clinic', 'name': 'Medclin', 'phone': '+55 47 3371 4724'}}"
"{'type': 'node', 'id': 3482197069, 'lat': -26.4800574, 'lon': -49.0818755, 'tags': {'addr:city': 'Jaraguá do Sul', 'addr:housenumber': '70', 'addr:street': 'Rua Presidente Epitácio Pessoa', 'addr:suburb': 'Centro', 'amenity': 'pharmacy', 'dispensing': 'yes', 'healthcare': 'pharmacy', 'name': 'Drogaria Catarinense', 'opening_hours': 'Mo-Su 06:00-24:00', 'phone': '+55 47 3276-1577', 'website': 'https://www.drogariacatarinense.com.br/'}}"
"{'type': 'node', 'id': 3495690930, 'lat': -26.2180116, 'lon': -48.666509, 'tags': {'addr:city': 'São Francisco do Sul', 'addr:street': 'Rua Lindolfo de Freitas Ledoux', 'amenity': 'dentist', 'healthcare': 'dentist', 'name': 'Dentista Luís e Samuel', 'phone': '+55 47 9164 3438', 'source': 'Bing;survey'}}"
"{'type': 'node', 'id': 3495690931, 'lat': -26.2180211, 'lon': -48.6665685, 'tags': {'addr:city': 'São Francisco do Sul', 'addr:street': 'Rua Lindolfo de Freitas Ledoux', 'amenity': 'pharmacy', 'name': 'Farmácia Vila da Glória', 'phone': '+55 47 3444 1434'}}"
"{'type': 'node', 'id': 3505996906, 'lat': -26.2529931, 'lon': -48.8191404, 'tags': {'addr:city': 'Joinville', 'addr:housenumber': '2146', 'addr:postcode': '89202-150', 'addr:street': 'Rua Tuiuti', 'addr:suburb': 'Aventureiro', 'amenity': 'pharmacy', 'name': 'Drogaria Catarinense Aventureiro', 'operator': 'Drogaria Catarinense'}}"
"{'type': 'node', 'id': 3507904724, 'lat': -26.5041817, 'lon': -49.095859, 'tags': {'addr:city': 'Jaraguá do Sul', 'addr:housenumber': '1750', 'addr:street': 'Rua João Januário Ayroso', 'addr:suburb': 'Jaraguá Esquerdo', 'amenity': 'pharmacy', 'healthcare': 'pharmacy', 'name': 'Drogaria Farmagnus', 'phone': '+55 47 3370 8012', 'source': 'Bing;survey', 'website': 'https://farmagnus.com.br/'}}"
"{'type': 'node', 'id': 3617375781, 'lat': -25.4037937, 'lon': -49.2438455, 'tags': {'addr:city': 'Curitiba', 'addr:housenumber': '255', 'addr:street': 'Avenida Prefeito Erasto Gaertner', 'amenity': 'pharmacy', 'healthcare': 'pharmacy', 'name': 'Farmácia Descontão'}}"
"{'type': 'node', 'id': 3617375784, 'lat': -25.4042398, 'lon': -49.2444882, 'tags': {'addr:city': 'Curitiba', 'addr:housenumber': '183', 'addr:street': 'Avenida Prefeito Erasto Gaertner', 'amenity': 'pharmacy', 'healthcare': 'pharmacy', 'name': 'Forte Farma'}}"
"{'type': 'node', 'id': 3617375785, 'lat': -25.4044108, 'lon': -49.2443104, 'tags': {'addr:city': 'Curitiba', 'addr:housenumber': '182', 'addr:street': 'Avenida Prefeito Erasto Gaertner', 'amenity': 'pharmacy', 'healthcare': 'pharmacy', 'name': 'Nissei', 'opening_hours': '24/7', 'wheelchair': 'yes'}}"
"{'type': 'node', 'id': 3617375787, 'lat': -25.4040746, 'lon': -49.2439014, 'tags': {'addr:city': 'Curitiba', 'addr:street': 'Avenida Prefeito Erasto Gaertner', 'amenity': 'pharmacy', 'healthcare': 'pharmacy', 'name': 'Farmácia Popular', 'wheelchair': 'yes'}}"
"{'type': 'node', 'id': 3618053935, 'lat': -25.4414389, 'lon': -49.2324979, 'tags': {'amenity': 'pharmacy'}}"
"{'type': 'node', 'id': 3620375657, 'lat': -25.4202397, 'lon': -49.2393467, 'tags': {'amenity': 'pharmacy', 'name': 'Nissei'}}"
"{'type': 'node', 'id': 3693813405, 'lat': -26.4850018, 'lon': -49.0805443, 'tags': {'addr:city': 'Jaraguá do Sul', 'addr:housenumber': '123', 'addr:postcode': '89251-600', 'addr:street': 'Rua Reinoldo Rau', 'addr:suburb': 'Centro', 'alt_name': 'Unidade Básica Central', 'amenity': 'clinic', 'email': 'saude.unidadecentral@jaraguadosul.sc.gov.br', 'emergency': 'no', 'healthcare': 'clinic', 'healthcare:speciality': 'vaccination', 'name': 'Central de Imunização', 'phone': '+55 47 3276 8900', 'source': 'Prefeitura Municipal', 'website': 'https://www.jaraguadosul.sc.gov.br/central-de-imunizacao'}}"
"{'type': 'node', 'id': 3746135079, 'lat': -26.4893565, 'lon': -49.0823632, 'tags': {'addr:city': 'Jaraguá do Sul', 'addr:housenumber': '930', 'addr:street': 'Avenida Marechal Deodoro da Fonseca', 'addr:suburb': 'Centro', 'amenity': 'clinic', 'healthcare': 'clinic', 'name': 'Centro de Imagem Jaraguá', 'phone': '+55 47 3371-8776', 'source': 'Prefeitura'}}"
"{'type': 'node', 'id': 3810310260, 'lat': -25.5395729, 'lon': -49.1961237, 'tags': {'amenity': 'pharmacy', 'name': 'Drogaria Paraná', 'opening_hours': 'Mo-Fr 08:00-18:00; Sa 08:00-16:00'}}"
"{'type': 'node', 'id': 3810310263, 'lat': -25.5396244, 'lon': -49.1956768, 'tags': {'amenity': 'pharmacy', 'dispensing': 'yes', 'healthcare': 'pharmacy', 'name': 'Farmácia Popular', 'opening_hours': 'Mo-Fr 08:00-18:00; Sa 08:00-16:00', 'wheelchair': 'yes'}}"
"{'type': 'node', 'id': 3810310264, 'lat': -25.5401207, 'lon': -49.1979378, 'tags': {'amenity': 'clinic', 'name': 'Laboratório Labcen'}}"
"{'type': 'node', 'id': 3810310265, 'lat': -25.5411408, 'lon': -49.1962003, 'tags': {'amenity': 'clinic', 'name': 'Laboratório São José'}}"
"{'type': 'node', 'id': 3810310266, 'lat': -25.5421863, 'lon': -49.195468, 'tags': {'addr:housenumber': '837', 'addr:street': 'Rua Alcídio Viana', 'amenity': 'clinic', 'name': 'a+', 'operator': 'Grupo Fleury', 'phone': '+554140208000', 'website': 'https://www.amaissaude.com.br/'}}"
"{'type': 'node', 'id': 3832374064, 'lat': -26.4880472, 'lon': -49.0525355, 'tags': {'addr:city': 'Jaraguá do Sul', 'addr:housenumber': '71', 'addr:street': 'Rua Rosa Ribeiro Kochella', 'addr:suburb': 'Ilha de Figueira', 'amenity': 'clinic', 'emergency': 'no', 'healthcare': 'clinic', 'name': 'Posto de Saúde Maria Rozisse da Rossa Ribeiro', 'note': 'Denominado na Lei Municipal 7139/2015.', 'source': 'Prefeitura'}}"
"{'type': 'node', 'id': 3845137589, 'lat': -25.4322785, 'lon': -49.24005, 'tags': {'addr:city': 'Curitiba', 'addr:housenumber': '1777', 'addr:street': 'Avenida Senador Souza Naves', 'addr:suburb': 'Cristo Rei', 'amenity': 'pharmacy', 'name': 'Farmácia Panvel', 'operator': 'Panvel', 'phone': '+554133622112'}}"
"{'type': 'node', 'id': 3846531812, 'lat': -25.4345153, 'lon': -49.239732, 'tags': {'addr:city': 'Curitiba', 'addr:housenumber': '1040', 'addr:postcode': '80050350', 'addr:street': 'Avenida São José', 'addr:suburb': 'Cristo Rei', 'amenity': 'pharmacy', 'drive_through': 'no', 'name': 'Droga Raia', 'opening_hours': '07:00-23:00', 'operator': 'Droga Raia', 'phone': '+554130880449'}}"
"{'type': 'node', 'id': 3846602790, 'lat': -25.5143492, 'lon': -49.2434768, 'tags': {'addr:city': 'Curitiba', 'addr:street': 'Rua Desembargador Antônio de Paula', 'addr:suburb': 'Boqueirão', 'amenity': 'pharmacy', 'dispensing': 'yes', 'healthcare': 'pharmacy', 'name': 'Farma Total'}}"
"{'type': 'node', 'id': 3889576760, 'lat': -25.5514806, 'lon': -49.2062819, 'tags': {'addr:housenumber': '137', 'addr:street': 'Rua Brigadeiro Arthur Carlos Peralta', 'amenity': 'hospital', 'name': 'Centro de Especialidades Médicas', 'phone': '+55 41 3383 1148', 'wheelchair': 'yes'}}"
"{'type': 'node', 'id': 4059036200, 'lat': -26.4783887, 'lon': -49.0006894, 'tags': {'amenity': 'clinic', 'healthcare': 'clinic', 'name': 'Clínica União'}}"
"{'type': 'node', 'id': 4059036205, 'lat': -26.4687823, 'lon': -48.9818958, 'tags': {'addr:city': 'Guaramirim', 'addr:housenumber': '3546', 'addr:postcode': '89270-000', 'addr:street': 'Rua 28 de Agosto', 'addr:suburb': 'Avaí', 'amenity': 'pharmacy', 'name': 'Farmacelai'}}"
"{'type': 'node', 'id': 4059036206, 'lat': -26.4738708, 'lon': -48.9980344, 'tags': {'addr:city': 'Guaramirim', 'addr:housenumber': '1700', 'addr:postcode': '89270-000', 'addr:street': 'Rua 28 de Agosto', 'addr:suburb': 'Centro', 'amenity': 'pharmacy', 'healthcare': 'pharmacy', 'name': 'Farmácia Preço Popular'}}"
"{'type': 'node', 'id': 4059036208, 'lat': -26.4723282, 'lon': -48.9944698, 'tags': {'amenity': 'pharmacy', 'healthcare': 'pharmacy', 'name': 'Biofar'}}"
"{'type': 'node', 'id': 4059036226, 'lat': -26.4743901, 'lon': -49.0018619, 'tags': {'amenity': 'pharmacy', 'healthcare': 'pharmacy', 'name': 'Farmácia Calçadão'}}"
"{'type': 'node', 'id': 4059036228, 'lat': -26.4744238, 'lon': -49.0043455, 'tags': {'amenity': 'pharmacy', 'healthcare': 'pharmacy', 'name': 'Farmácia Prawucki'}}"
"{'type': 'node', 'id': 4075170317, 'lat': -25.456144, 'lon': -49.2311238, 'tags': {'amenity': 'pharmacy', 'healthcare': 'pharmacy', 'name': 'Farmácia Preço Popular'}}"
"{'type': 'node', 'id': 4075170319, 'lat': -25.4550101, 'lon': -49.2308379, 'tags': {'amenity': 'pharmacy', 'name': 'Alchemia Manipulação'}}"
"{'type': 'node', 'id': 4086719491, 'lat': -25.551181, 'lon': -49.2472985, 'tags': {'addr:housenumber': '100', 'addr:street': 'Rua Miguel Rossetim', 'addr:suburb': 'Ganchinho', 'amenity': 'clinic', 'healthcare': 'clinic', 'name': 'Unidade de Saúde Osternack', 'operator': 'Secretaria Municipal da Saúde', 'operator:type': 'public'}}"
"{'type': 'node', 'id': 4241254252, 'lat': -26.5212317, 'lon': -48.8004746, 'tags': {'amenity': 'clinic'}}"
"{'type': 'node', 'id': 4244471373, 'lat': -25.4581788, 'lon': -49.2398332, 'tags': {'amenity': 'pharmacy', 'healthcare': 'pharmacy', 'name': 'Hiper Farma', 'phone': '+55 41 3296-2920'}}"
"{'type': 'node', 'id': 4244501397, 'lat': -25.4579712, 'lon': -49.239235, 'tags': {'amenity': 'clinic', 'healthcare': 'clinic', 'name': 'Clínica de Fraturas Torres'}}"
"{'type': 'node', 'id': 4254170073, 'lat': -25.4680754, 'lon': -49.1981369, 'tags': {'addr:housenumber': '133', 'addr:street': 'Rua Ladislau Mikosz', 'addr:suburb': 'Cajuru', 'amenity': 'clinic', 'healthcare': 'clinic', 'healthcare:speciality': 'general', 'name': 'Unidade de Saúde São Domingos', 'operator': 'Secretaria Municipal da Saúde', 'operator:type': 'public'}}"
"{'type': 'node', 'id': 4254170076, 'lat': -25.4615235, 'lon': -49.2049271, 'tags': {'addr:housenumber': '1197', 'addr:street': 'Rua Sebastião Marcos Luiz', 'addr:suburb': 'Cajuru', 'air_conditioning': 'no', 'amenity': 'clinic', 'check_date': '2022-12-14', 'healthcare': 'clinic', 'healthcare:speciality': 'general', 'internet_access': 'no', 'level': '0', 'name': 'Unidade de Saúde Trindade 2', 'operator': 'Secretaria Municipal da Saúde', 'operator:type': 'public', 'source': 'survey', 'wheelchair': 'yes'}}"
"{'type': 'node', 'id': 4258679057, 'lat': -25.4524498, 'lon': -49.2257249, 'tags': {'amenity': 'pharmacy', 'name': 'Farmácias Nissei'}}"
"{'type': 'node', 'id': 4263136199, 'lat': -25.4327172, 'lon': -49.1850364, 'tags': {'amenity': 'hospital', 'name': 'Hospital e Maternidade de Pinhais'}}"
"{'type': 'node', 'id': 4315586599, 'lat': -25.3846655, 'lon': -49.1978803, 'tags': {'addr:housenumber': '192', 'addr:street': 'Rua Cataratas do Iguaçu', 'addr:suburb': 'Atuba', 'amenity': 'clinic', 'healthcare': 'clinic', 'name': 'Unidade de Saúde Vila Esperança - Engenheiro Luiz Luscar Lazof', 'operator': 'Secretaria Municipal da Saúde', 'operator:type': 'public'}}"
"{'type': 'node', 'id': 4326745122, 'lat': -25.4735499, 'lon': -49.2175209, 'tags': {'addr:housenumber': '940', 'addr:street': 'Rua Capitão Leônidas Marques', 'amenity': 'pharmacy', 'name': 'Farmácia Pacheco'}}"
"{'type': 'node', 'id': 4327161226, 'lat': -25.4239325, 'lon': -49.2417774, 'tags': {'amenity': 'pharmacy', 'name': 'Droga Raia'}}"
"{'type': 'node', 'id': 4327161228, 'lat': -25.4347846, 'lon': -49.2136498, 'tags': {'amenity': 'pharmacy', 'name': 'Maxifarma'}}"
"{'type': 'node', 'id': 4339045822, 'lat': -25.835397, 'lon': -48.5451468, 'tags': {'addr:city': 'Matinhos', 'addr:street': 'Rua Apucarana', 'addr:suburb': 'Caiobá', 'amenity': 'pharmacy', 'name': 'Farmácia', 'opening_hours': '08:00-21:00'}}"
"{'type': 'node', 'id': 4339053904, 'lat': -25.8301343, 'lon': -48.5442453, 'tags': {'addr:city': 'Matinhos', 'addr:housenumber': '828', 'addr:postcode': '83260-000', 'addr:street': 'Avenida Paraná', 'addr:suburb': 'Centro', 'amenity': 'hospital', 'name': 'Hospital Nossa Senhora dos Navegantes', 'operator': 'Municipal'}}"
"{'type': 'node', 'id': 4349429589, 'lat': -26.4925656, 'lon': -49.0782564, 'tags': {'addr:city': 'Jaraguá do Sul', 'addr:housenumber': '106', 'addr:postcode': '89251-470', 'addr:street': 'Rua Donaldo Gehring', 'addr:suburb': 'Centro', 'amenity': 'clinic', 'emergency': 'no', 'healthcare': 'clinic', 'name': 'Clínica Doutor Marcio Freitas', 'opening_hours': 'Mo-Fr 08:30-12:00, 13:30-18:30', 'phone': '+55 47 3371 6777', 'website': 'https://www.drmarciofreitas.com.br/'}}"
"{'type': 'node', 'id': 4379991573, 'lat': -25.8225903, 'lon': -48.5403686, 'tags': {'amenity': 'pharmacy'}}"
"{'type': 'node', 'id': 4382417907, 'lat': -26.2790986, 'lon': -48.8659187, 'tags': {'addr:city': 'Joinville', 'addr:housenumber': '597', 'addr:postcode': '89218-501', 'addr:street': 'Rua Guilherme', 'addr:suburb': 'Costa e Silva', 'amenity': 'pharmacy', 'name': 'Drogaria Drogão'}}"
"{'type': 'node', 'id': 4382417908, 'lat': -26.2782386, 'lon': -48.8652923, 'tags': {'addr:city': 'Joinville', 'addr:housenumber': '726', 'addr:postcode': '89218-500', 'addr:street': 'Rua Guilherme', 'addr:suburb': 'Costa e Silva', 'amenity': 'pharmacy', 'name': 'Drogaria Princesa'}}"
"{'type': 'node', 'id': 4411629990, 'lat': -25.4509003, 'lon': -49.2193919, 'tags': {'amenity': 'pharmacy', 'name': 'Farmatotal'}}"
"{'type': 'node', 'id': 4411635726, 'lat': -25.4523106, 'lon': -49.2252601, 'tags': {'healthcare': 'yes', 'name': 'Unimed Laboratório'}}"
"{'type': 'node', 'id': 4413280789, 'lat': -26.4939458, 'lon': -49.0802243, 'tags': {'addr:city': 'Jaraguá do Sul', 'addr:housenumber': '170', 'addr:street': 'Rua Emil Burow', 'amenity': 'doctors', 'healthcare': 'doctor', 'name': 'Miriani Finilli'}}"
"{'type': 'node', 'id': 4419724589, 'lat': -26.4827296, 'lon': -49.1019144, 'tags': {'addr:city': 'Jaraguá do Sul', 'addr:street': 'Rua Maria Umbelina da Silva', 'amenity': 'pharmacy', 'healthcare': 'pharmacy', 'name': 'Farmácia Ativa', 'opening_hours': 'Mo-Fr 07:30-19:30; Sa 08:00-18:00', 'phone': '+55 47 3054 4511'}}"
"{'type': 'node', 'id': 4462422510, 'lat': -25.7629887, 'lon': -48.5101117, 'tags': {'amenity': 'pharmacy', 'name': 'Hiperfarma'}}"
"{'type': 'node', 'id': 4503903671, 'lat': -26.5037632, 'lon': -49.0895285, 'tags': {'amenity': 'pharmacy', 'healthcare': 'pharmacy', 'name': 'Farmácia Basica'}}"
"{'type': 'node', 'id': 4558869083, 'lat': -26.2949816, 'lon': -48.847788, 'tags': {'amenity': 'dentist', 'contact:phone': '+55 47 3434-4424', 'healthcare': 'dentist', 'name': 'Doctor Ágape'}}"
"{'type': 'node', 'id': 4558869211, 'lat': -26.293864, 'lon': -48.856814, 'tags': {'addr:housenumber': '1466', 'addr:postcode': '89204-041', 'addr:street': 'Rua Max Colin', 'addr:suburb': 'América', 'healthcare': 'physiotherapist', 'name': 'Corphus Centro de PIlates e Estética', 'office': 'therapist'}}"
"{'type': 'node', 'id': 4560095760, 'lat': -26.2819386, 'lon': -48.8386288, 'tags': {'addr:city': 'Joinville', 'addr:housenumber': '284', 'addr:street': 'Rua Iririú', 'addr:suburb': 'Saguaçu', 'amenity': 'pharmacy', 'drive_through': 'no', 'healthcare': 'pharmacy', 'name': 'Farmácia Joinville', 'operator': 'Masterfarma', 'phone': '+55 47 3472 0343'}}"
"{'type': 'node', 'id': 4560098162, 'lat': -26.2862126, 'lon': -48.8395613, 'tags': {'amenity': 'pharmacy', 'healthcare': 'pharmacy', 'name': 'Farmácia Preço Popular', 'opening_hours': 'Mo-Fr 08:00-21:00; Sa 08:00-18:00'}}"
"{'type': 'node', 'id': 4560699871, 'lat': -26.272623, 'lon': -48.8718946, 'tags': {'addr:city': 'Joinville', 'addr:housenumber': '128', 'addr:postcode': '89219-200', 'addr:street': 'Rua Otto Pfuetzenreuter', 'addr:suburb': 'Costa e Silva', 'healthcare': 'pharmacy', 'name': 'Farmácia Preço Popular', 'opening_hours': 'Mo-Fr 08:00-21:00; Sa 08:00-18:00'}}"
"{'type': 'node', 'id': 4564261130, 'lat': -26.3054623, 'lon': -48.8445883, 'tags': {'amenity': 'clinic', 'healthcare': 'clinic', 'healthcare:speciality': 'ophthalmology', 'name': 'Banco de Olhos Joinville', 'phone': '+55 47 3433 4854;+55 47 3432 7307', 'website': 'https://www.bancodeolhosdejoinville.com.br'}}"
"{'type': 'node', 'id': 4564261733, 'lat': -26.301496, 'lon': -48.8449804, 'tags': {'addr:city': 'Joinville', 'addr:housenumber': '372', 'addr:postcode': '89201-601', 'addr:street': 'Rua Nove de Março', 'addr:suburb': 'Centro', 'healthcare': 'pharmacy', 'name': 'Farmácia Preço Popular', 'opening_hours': 'Mo-Fr 07:00-20:00; Sa 07:00-17:00'}}"
"{'type': 'node', 'id': 4567620337, 'lat': -26.3209838, 'lon': -48.8526987, 'tags': {'addr:city': 'Joinville', 'addr:housenumber': '936', 'addr:postcode': '89203-300', 'addr:street': 'Rua Anita Garibaldi', 'addr:suburb': 'Anita Garibaldi', 'healthcare': 'laboratory', 'name': 'Unimed - Posto de Coleta', 'opening_hours': 'Mo-Fr 06:00-17:00; Sa 06:00-12:00', 'phone': '+55 47 3422 2413'}}"
"{'type': 'node', 'id': 4614989495, 'lat': -26.3123244, 'lon': -48.8436172, 'tags': {'addr:city': 'Joinville', 'addr:housenumber': '275', 'addr:postcode': '89202-417', 'addr:street': 'Rua Alexandre Schlemm', 'addr:suburb': 'Bucarein', 'healthcare': 'clinic', 'healthcare:speciality': 'psychiatry', 'name': 'Centro de Atenção Psicossocial Infantojuvenil', 'opening_hours': 'Mo-Fr 07:00-17:00', 'phone': '+55 47 3422 7636'}}"
"{'type': 'node', 'id': 4617189012, 'lat': -26.2959153, 'lon': -48.8181022, 'tags': {'addr:city': 'Joinville', 'addr:housenumber': '2295', 'addr:postcode': '89201-600', 'addr:street': 'Rua Albano Schmidt', 'addr:suburb': 'Boa Vista', 'healthcare': 'pharmacy', 'name': 'Farma Sesi', 'opening_hours': 'Mo-Fr 08:00-20:00; Sa 08:00-17:00', 'phone': '+55 47 3432 0429, +55 47 3432 1236'}}"
"{'type': 'node', 'id': 4622244861, 'lat': -26.2875041, 'lon': -48.9011577, 'tags': {'addr:city': 'Joinville', 'addr:housenumber': '6901', 'addr:postcode': '89237-003', 'addr:street': 'Rua XV de Novembro', 'addr:suburb': 'Vila Nova', 'healthcare': 'pharmacy', 'name': 'Farma Sesi', 'opening_hours': 'Mo-Fr 08:00-22:00; Sa 10:00-18:00', 'phone': '+55 47 3439 1727, +55 47 3439 1736'}}"
"{'type': 'node', 'id': 4627353136, 'lat': -26.3376949, 'lon': -48.847684, 'tags': {'addr:city': 'Joinville', 'addr:housenumber': '1642', 'addr:postcode': '89212-010', 'addr:street': 'Rua Santa Catarina', 'addr:suburb': 'Floresta', 'healthcare': 'pharmacy', 'name': 'Farmácia Preço Popular', 'opening_hours': 'Mo-Fr 08:00-21:00; Sa 08:00-18:00'}}"
"{'type': 'node', 'id': 4635797579, 'lat': -26.2657008, 'lon': -48.8134103, 'tags': {'addr:housenumber': '921', 'addr:street': 'Rua das Cegonhas', 'addr:suburb': 'Jardim Iririú', 'amenity': 'pharmacy', 'drive_through': 'no', 'healthcare': 'pharmacy', 'name': 'Farmácia do Trabalhador'}}"
"{'type': 'node', 'id': 4635802733, 'lat': -26.2645033, 'lon': -48.8144556, 'tags': {'addr:city': 'Joinville', 'addr:housenumber': '974', 'addr:postcode': '89224-021', 'addr:street': 'Rua Senador Rodrigo Lobo', 'addr:suburb': 'Jardim Iririú', 'healthcare': 'pharmacy', 'name': 'Farmácia Preço Popular', 'opening_hours': 'Mo-Fr 08:00-21:00; Sa 08:00-18:00'}}"
"{'type': 'node', 'id': 4639456958, 'lat': -26.2549317, 'lon': -48.8198545, 'tags': {'addr:city': 'Joinville', 'addr:housenumber': '2108', 'addr:postcode': '89202-001', 'addr:street': 'Rua Tuiuti', 'addr:suburb': 'Aventureiro', 'healthcare': 'pharmacy', 'name': 'Farma Sesi', 'opening_hours': 'Mo-Fr 08:00-21:00; Sa 08:00-17:00', 'phone': '+55 47 3431 6229, +55 47 3085 0760'}}"
"{'type': 'node', 'id': 4639462676, 'lat': -26.2516693, 'lon': -48.8056448, 'tags': {'addr:housenumber': '490', 'addr:street': 'Rua Carlos Roberto Vilpert', 'addr:suburb': 'Aventureiro', 'amenity': 'pharmacy', 'name': 'Farmácia Mercúrio', 'name:pt': 'Farmácia Mercúrio'}}"
"{'type': 'node', 'id': 4639467340, 'lat': -26.2456575, 'lon': -48.8113685, 'tags': {'addr:city': 'Joinville', 'addr:housenumber': '873', 'addr:postcode': '89226-820', 'addr:street': 'Rua David Thomas Pereira', 'addr:suburb': 'Aventureiro', 'healthcare': 'pharmacy', 'name': 'Farmácia Preço Popular', 'opening_hours': 'Mo-Fr 08:00-21:00; Sa 08:00-18:00'}}"
"{'type': 'node', 'id': 4640775798, 'lat': -26.3333816, 'lon': -48.8172449, 'tags': {'addr:city': 'Joinville', 'addr:housenumber': '2910', 'addr:postcode': '89210-795', 'addr:street': 'Rua Florianópolis', 'addr:suburb': 'Itaum', 'healthcare': 'pharmacy', 'name': 'Farma Sesi', 'opening_hours': 'Mo-Fr 07:30-21:00; Sa 08:00-17:00', 'phone': '+55 47 3423 2914, +55 47 3433 2131'}}"
"{'type': 'node', 'id': 4665340970, 'lat': -26.3604363, 'lon': -48.8298593, 'tags': {'addr:housenumber': '885', 'addr:street': 'Rua Boehmerwald', 'addr:suburb': 'Boehmerwald', 'amenity': 'pharmacy', 'healthcare': 'pharmacy', 'name': 'Farmácia Drogashop'}}"
"{'type': 'node', 'id': 4665342017, 'lat': -26.3603687, 'lon': -48.8300621, 'tags': {'addr:housenumber': '873', 'addr:street': 'Rua Boehmerwald', 'addr:suburb': 'Boehmerwald', 'amenity': 'pharmacy', 'healthcare': 'pharmacy', 'name': 'Farmácia Preço Popular', 'note': 'Antigo Ricardo Eletro.'}}"
"{'type': 'node', 'id': 4675766471, 'lat': -25.4513138, 'lon': -49.2289735, 'tags': {'amenity': 'pharmacy', 'level': '0', 'name': 'Farmácias Nissei', 'opening_hours': 'Mo-Su 07:00-23:00'}}"
"{'type': 'node', 'id': 4681271872, 'lat': -26.2140278, 'lon': -48.8225553, 'tags': {'addr:city': 'Joinville', 'addr:housenumber': '601', 'addr:postcode': '89226-600', 'addr:street': 'Avenida Júpiter', 'addr:suburb': 'Jardim Paraíso', 'healthcare': 'pharmacy', 'name': 'Farmácia Preço Popular', 'opening_hours': 'Mo-Fr 08:00-21:00; Sa 08:00-18:00'}}"
"{'type': 'node', 'id': 4685709855, 'lat': -26.2065818, 'lon': -48.9088139, 'tags': {'amenity': 'dentist', 'healthcare': 'dentist', 'name': 'Dentistas'}}"
"{'type': 'node', 'id': 4688516007, 'lat': -26.2870207, 'lon': -48.9105823, 'tags': {'amenity': 'pharmacy', 'name': 'Farmácia Estrela', 'name:pt': 'Farmácia Estrela'}}"
"{'type': 'node', 'id': 4688516493, 'lat': -26.2873666, 'lon': -48.9184137, 'tags': {'amenity': 'pharmacy', 'name': 'Farmácia do Adriano', 'name:pt': 'Farmácia do Adriano'}}"
"{'type': 'node', 'id': 4688555890, 'lat': -26.286821, 'lon': -48.9053577, 'tags': {'amenity': 'pharmacy', 'name': 'Farmácia Vila Nova'}}"
"{'type': 'node', 'id': 4688555891, 'lat': -26.2868364, 'lon': -48.9091474, 'tags': {'amenity': 'pharmacy', 'name': 'Farmácia Masterfarma Santa Rita', 'name:pt': 'Farmácia Masterfarma Santa Rita'}}"
"{'type': 'node', 'id': 4688818092, 'lat': -26.273874, 'lon': -48.874107, 'tags': {'amenity': 'pharmacy', 'name': 'Farmácia Fique Bem', 'name:pt': 'Farmácia Fique Bem'}}"
"{'type': 'node', 'id': 4688821193, 'lat': -26.3061634, 'lon': -48.8258001, 'tags': {'addr:city': 'Joinville', 'addr:housenumber': '912', 'addr:postcode': '89205-101', 'addr:street': 'Rua Albano Schmidt', 'addr:suburb': 'Boa Vista', 'healthcare': 'pharmacy', 'name': 'Farmácia Coradelli', 'name:pt': 'Farmácia Coradelli', 'opening_hours': 'Mo-Fr 08:00-22:00; Sa 10:00-20:00', 'phone': '+55 47 9961 7375'}}"
"{'type': 'node', 'id': 4688833091, 'lat': -26.2377304, 'lon': -48.8339983, 'tags': {'amenity': 'pharmacy', 'name': 'Masterfarma', 'name:pt': 'Masterfarma'}}"
"{'type': 'node', 'id': 4688833092, 'lat': -26.265432, 'lon': -48.8446471, 'tags': {'amenity': 'pharmacy', 'healthcare': 'pharmacy', 'name': 'Farmácia Bom Retiro'}}"
"{'type': 'node', 'id': 4688851390, 'lat': -26.2142474, 'lon': -48.8221394, 'tags': {'amenity': 'pharmacy', 'name': 'Farmácia Super Popular', 'name:pt': 'Farmácia Super Popular'}}"
"{'type': 'node', 'id': 4688851391, 'lat': -26.2608837, 'lon': -48.8066613, 'tags': {'amenity': 'pharmacy', 'name': 'Farmácia Dom Gregório', 'name:pt': 'Farmácia Dom Gregório'}}"
"{'type': 'node', 'id': 4688871690, 'lat': -26.2392797, 'lon': -48.8073324, 'tags': {'amenity': 'pharmacy', 'name': 'VipFarma', 'name:pt': 'VipFarma'}}"
"{'type': 'node', 'id': 4688874492, 'lat': -26.2531749, 'lon': -48.8191111, 'tags': {'amenity': 'pharmacy', 'name': 'Masterfarma Aventureiro', 'name:pt': 'Masterfarma Aventureiro'}}"
"{'type': 'node', 'id': 4688876889, 'lat': -26.2683892, 'lon': -48.8646194, 'tags': {'amenity': 'pharmacy', 'name': 'Farma Única', 'name:pt': 'Farma Única'}}"
"{'type': 'node', 'id': 4688877089, 'lat': -26.2574548, 'lon': -48.8472379, 'tags': {'amenity': 'pharmacy', 'name': 'BioFarma', 'name:pt': 'BioFarma'}}"
"{'type': 'node', 'id': 4688877789, 'lat': -26.2174763, 'lon': -48.8188429, 'tags': {'amenity': 'pharmacy', 'contact:facebook': 'https://www.facebook.com/anterio25/', 'name': 'Farmácia Antério'}}"
"{'type': 'node', 'id': 4688877790, 'lat': -26.2078757, 'lon': -48.828348, 'tags': {'amenity': 'pharmacy', 'name': 'Farmácia Ponto Popular', 'name:pt': 'Farmácia Ponto Popular'}}"
"{'type': 'node', 'id': 4688878189, 'lat': -26.2421593, 'lon': -48.8018827, 'tags': {'amenity': 'pharmacy', 'name': 'Masterfarma', 'name:pt': 'Masterfarma'}}"
"{'type': 'node', 'id': 4688878290, 'lat': -26.2654625, 'lon': -48.8012911, 'tags': {'amenity': 'pharmacy', 'healthcare': 'pharmacy', 'name': 'Farmácia Jardim'}}"
"{'type': 'node', 'id': 4688878689, 'lat': -26.2688609, 'lon': -48.8102529, 'tags': {'amenity': 'pharmacy', 'healthcare': 'pharmacy', 'name': 'Farmácia Real', 'name:pt': 'Farmácia Real'}}"
"{'type': 'node', 'id': 4688887290, 'lat': -26.271099, 'lon': -48.8250051, 'tags': {'amenity': 'pharmacy', 'healthcare': 'pharmacy', 'name': 'Drogaria Maciel', 'name:pt': 'Drogaria Maciel'}}"
"{'type': 'node', 'id': 4688890389, 'lat': -26.2607641, 'lon': -48.8188742, 'tags': {'amenity': 'pharmacy', 'name': 'Masterfarma', 'name:pt': 'Masterfarma'}}"
"{'type': 'node', 'id': 4688890490, 'lat': -26.283704, 'lon': -48.7967063, 'tags': {'amenity': 'pharmacy', 'healthcare': 'pharmacy', 'name': 'Drog Nunes', 'name:pt': 'Drog Nunes'}}"
"{'type': 'node', 'id': 4688890689, 'lat': -26.3058308, 'lon': -48.8425748, 'tags': {'addr:city': 'Joinville', 'addr:housenumber': '262', 'addr:postcode': '89201-010', 'addr:street': 'Rua Abdon Batista', 'addr:suburb': 'Centro', 'healthcare': 'pharmacy', 'name': 'Farmaprev', 'name:pt': 'Farmaprev', 'phone': '+55 47 3032 1634'}}"
"{'type': 'node', 'id': 4688947791, 'lat': -26.2939878, 'lon': -48.8477246, 'tags': {'addr:city': 'Joinville', 'addr:housenumber': '762', 'addr:postcode': '89204-000', 'addr:street': 'Rua Doutor João Colin', 'addr:suburb': 'América', 'amenity': 'pharmacy', 'brand': 'Masterfarma', 'drive_through': 'no', 'healthcare': 'pharmacy', 'name': 'Drogaria Coradelli', 'phone': '+55 47 3423 1712'}}"
"{'type': 'node', 'id': 4688956690, 'lat': -26.2924866, 'lon': -48.8679973, 'tags': {'amenity': 'pharmacy', 'name': 'Farmácia Preço Popular', 'name:pt': 'Farmácia Preço Popular'}}"
"{'type': 'node', 'id': 4695641397, 'lat': -26.3510731, 'lon': -48.7815633, 'tags': {'amenity': 'pharmacy', 'name': 'Farmácia Mais Saúde', 'name:pt': 'Farmácia Mais Saúde'}}"
"{'type': 'node', 'id': 4695681691, 'lat': -26.3367974, 'lon': -48.9044386, 'tags': {'amenity': 'pharmacy', 'name': 'Farmácia', 'name:pt': 'Farmácia'}}"
"{'type': 'node', 'id': 4695681692, 'lat': -26.1553797, 'lon': -48.9039849, 'tags': {'amenity': 'pharmacy', 'name': 'Farmácia Letzner'}}"
"{'type': 'node', 'id': 4695681693, 'lat': -26.3404891, 'lon': -48.8167597, 'tags': {'amenity': 'pharmacy', 'name': 'Farmácia', 'name:pt': 'Farmácia'}}"
"{'type': 'node', 'id': 4695681996, 'lat': -26.3481936, 'lon': -48.8538801, 'tags': {'amenity': 'pharmacy', 'name': 'Farmácia Estrela', 'name:pt': 'Farmácia Estrela'}}"
"{'type': 'node', 'id': 4695681997, 'lat': -26.3231014, 'lon': -48.8406145, 'tags': {'amenity': 'pharmacy', 'name': 'Farmácia das Nações', 'name:pt': 'Farmácia das Nações'}}"
"{'type': 'node', 'id': 4695681998, 'lat': -26.3462759, 'lon': -48.8321174, 'tags': {'amenity': 'pharmacy', 'name': 'Masterfarma', 'name:pt': 'Masterfarma'}}"
"{'type': 'node', 'id': 4695681999, 'lat': -26.3334406, 'lon': -48.8169346, 'tags': {'amenity': 'pharmacy', 'name': 'Farmácia Eduarda', 'name:pt': 'Farmácia Eduarda'}}"
"{'type': 'node', 'id': 4695682000, 'lat': -26.3250984, 'lon': -48.8085733, 'tags': {'amenity': 'pharmacy', 'healthcare': 'pharmacy', 'name': 'Farma e Farma'}}"
"{'type': 'node', 'id': 4695682793, 'lat': -26.31588, 'lon': -48.8434959, 'tags': {'addr:city': 'Joinville', 'addr:housenumber': '173', 'addr:postcode': '89202-310', 'addr:street': 'Rua Inácio Bastos', 'addr:suburb': 'Bucarein', 'amenity': 'pharmacy', 'healthcare': 'pharmacy', 'name': 'Masterfarma', 'name:pt': 'Masterfarma', 'phone': '+55 47 3278 9998'}}"
"{'type': 'node', 'id': 4695682794, 'lat': -26.3303169, 'lon': -48.8675153, 'tags': {'amenity': 'pharmacy', 'name': 'Farmácia Nova Brasilia'}}"
"{'type': 'node', 'id': 4695682795, 'lat': -26.3409918, 'lon': -48.8473202, 'tags': {'amenity': 'pharmacy', 'healthcare': 'pharmacy', 'name': 'Farmácia Floresta', 'name:pt': 'Farmácia Floresta'}}"
"{'type': 'node', 'id': 4695682796, 'lat': -26.3254845, 'lon': -48.8334526, 'tags': {'amenity': 'pharmacy', 'name': 'Farmácia Guanabara', 'name:pt': 'Farmácia Guanabara'}}"
"{'type': 'node', 'id': 4695682797, 'lat': -26.3395647, 'lon': -48.8114474, 'tags': {'amenity': 'pharmacy', 'name': 'Farmácia Coradelli', 'name:pt': 'Farmácia Coradelli'}}"
"{'type': 'node', 'id': 4695682798, 'lat': -26.3471056, 'lon': -48.7909923, 'tags': {'amenity': 'pharmacy', 'name': 'Farmácia Bom Jesus', 'name:pt': 'Farmácia Bom Jesus'}}"
"{'type': 'node', 'id': 4695715690, 'lat': -26.3298189, 'lon': -48.8665867, 'tags': {'amenity': 'pharmacy', 'name': 'Farmácia Farma e Farma'}}"
"{'type': 'node', 'id': 4695715691, 'lat': -26.3324765, 'lon': -48.8766904, 'tags': {'amenity': 'pharmacy', 'name': 'Farmácia São Marcos', 'name:pt': 'Farmácia São Marcos'}}"
"{'type': 'node', 'id': 4695715692, 'lat': -26.3368739, 'lon': -48.9056062, 'tags': {'amenity': 'pharmacy', 'name': 'Masterfarma', 'name:pt': 'Masterfarma'}}"
"{'type': 'node', 'id': 4695715693, 'lat': -26.3287098, 'lon': -48.8332893, 'tags': {'amenity': 'pharmacy', 'name': 'Farmácia Nossa Farma', 'name:pt': 'Farmácia Nossa Farma'}}"
"{'type': 'node', 'id': 4695715694, 'lat': -26.3455175, 'lon': -48.7867249, 'tags': {'amenity': 'pharmacy', 'name': 'Farmácia Coradelli', 'name:pt': 'Farmácia Coradelli'}}"
"{'type': 'node', 'id': 4695715894, 'lat': -26.3297377, 'lon': -48.9074013, 'tags': {'amenity': 'pharmacy', 'name': 'Farmácia Morro do Meio', 'name:pt': 'Farmácia Morro do Meio'}}"
"{'type': 'node', 'id': 4695716492, 'lat': -26.3254604, 'lon': -48.8083922, 'tags': {'amenity': 'pharmacy', 'healthcare': 'pharmacy', 'name': 'Mais Popular', 'old_name': 'Farma Trevo'}}"
"{'type': 'node', 'id': 4695716591, 'lat': -26.3409135, 'lon': -48.8205008, 'tags': {'amenity': 'pharmacy', 'name': 'Drogaria Itaum', 'name:pt': 'Drogaria Itaum'}}"
"{'type': 'node', 'id': 4695716890, 'lat': -26.3244365, 'lon': -48.863029, 'tags': {'addr:housenumber': '2160', 'addr:street': 'Rua Anita Garibaldi', 'amenity': 'pharmacy', 'healthcare': 'pharmacy', 'name': 'Farmácia Ivo Coradelli', 'name:pt': 'Farmácia Ivo Coradelli'}}"
"{'type': 'node', 'id': 4695728489, 'lat': -26.3337913, 'lon': -48.8348631, 'tags': {'amenity': 'pharmacy', 'healthcare': 'pharmacy', 'name': 'Farmácia Coradelli', 'name:pt': 'Farmácia Coradelli'}}"
"{'type': 'node', 'id': 4695728490, 'lat': -26.357094, 'lon': -48.8461926, 'tags': {'amenity': 'pharmacy', 'name': 'Farmácia Leobet', 'name:pt': 'Farmácia Leobet'}}"
"{'type': 'node', 'id': 4695728492, 'lat': -26.3461293, 'lon': -48.7916688, 'tags': {'amenity': 'pharmacy', 'name': 'Farmácia', 'name:pt': 'Farmácia'}}"
"{'type': 'node', 'id': 4695728889, 'lat': -26.3658251, 'lon': -48.8295817, 'tags': {'amenity': 'pharmacy', 'name': 'Farmácia', 'name:pt': 'Farmácia'}}"
"{'type': 'node', 'id': 4695729291, 'lat': -26.3313369, 'lon': -48.8002809, 'tags': {'amenity': 'pharmacy', 'name': 'Farmácia Rocha', 'name:pt': 'Farmácia Rocha'}}"
"{'type': 'node', 'id': 4695733689, 'lat': -26.3444222, 'lon': -48.7731863, 'tags': {'amenity': 'pharmacy', 'name': 'Farmácia Coradelli', 'name:pt': 'Farmácia Coradelli'}}"
"{'type': 'node', 'id': 4695989789, 'lat': -26.3241384, 'lon': -48.7941782, 'tags': {'amenity': 'pharmacy', 'name': 'Farmácia Ulysses', 'name:pt': 'Farmácia Ulysses'}}"
"{'type': 'node', 'id': 4698259890, 'lat': -26.2697333, 'lon': -48.6410424, 'tags': {'amenity': 'pharmacy', 'healthcare': 'pharmacy', 'name': 'Farmácia Super Popular'}}"
"{'type': 'node', 'id': 4698259891, 'lat': -26.2487583, 'lon': -48.6354227, 'tags': {'amenity': 'pharmacy', 'healthcare': 'pharmacy', 'name': 'Farmais'}}"
"{'type': 'node', 'id': 4698259892, 'lat': -26.4736174, 'lon': -49.0157726, 'tags': {'amenity': 'pharmacy', 'name': 'Pharmanova', 'name:pt': 'Pharmanova'}}"
"{'type': 'node', 'id': 4698259893, 'lat': -26.4113425, 'lon': -49.0756128, 'tags': {'amenity': 'pharmacy', 'name': 'Farmácia Unisul', 'name:pt': 'Farmácia Unisul'}}"
"{'type': 'node', 'id': 4698260194, 'lat': -26.4073553, 'lon': -48.7483373, 'tags': {'amenity': 'pharmacy', 'healthcare': 'pharmacy', 'name': 'Preço Popular'}}"
"{'type': 'node', 'id': 4698260394, 'lat': -26.4068158, 'lon': -48.7998692, 'tags': {'amenity': 'pharmacy', 'name': 'FarmaGilson', 'name:pt': 'FarmaGilson'}}"
"{'type': 'node', 'id': 4698260395, 'lat': -26.4091904, 'lon': -48.7979035, 'tags': {'amenity': 'pharmacy', 'name': 'FarmaCerta', 'name:pt': 'FarmaCerta'}}"
"{'type': 'node', 'id': 4698260492, 'lat': -26.38538, 'lon': -48.8204799, 'tags': {'amenity': 'pharmacy', 'name': 'Farmácia Popular Itinga', 'name:pt': 'Farmácia Popular Itinga'}}"
"{'type': 'node', 'id': 4698266994, 'lat': -26.2693915, 'lon': -48.6410685, 'tags': {'amenity': 'pharmacy', 'healthcare': 'pharmacy', 'name': 'Masterfarma', 'name:pt': 'Masterfarma'}}"
"{'type': 'node', 'id': 4698266995, 'lat': -26.2229022, 'lon': -48.5216059, 'tags': {'amenity': 'pharmacy', 'healthcare': 'pharmacy'}}"
"{'type': 'node', 'id': 4698266998, 'lat': -26.4902895, 'lon': -49.0331867, 'tags': {'amenity': 'pharmacy', 'healthcare': 'pharmacy', 'name': 'Farmafig'}}"
"{'type': 'node', 'id': 4698266999, 'lat': -26.4781647, 'lon': -49.0477664, 'tags': {'amenity': 'pharmacy', 'healthcare': 'pharmacy', 'name': 'Super Popular', 'old_name': 'Nossa Farma'}}"
"{'type': 'node', 'id': 4698267000, 'lat': -26.4830773, 'lon': -49.0564263, 'tags': {'amenity': 'pharmacy', 'healthcare': 'pharmacy', 'name': 'Nossa Farmácia', 'opening_hours': 'Mo-Fr 08:00-22:00; Sa 08:00-16:00'}}"
"{'type': 'node', 'id': 4698269289, 'lat': -26.40326, 'lon': -48.8023869, 'tags': {'amenity': 'pharmacy', 'healthcare': 'pharmacy', 'name': 'Farmácia Joinvillense', 'name:pt': 'Farmácia Joinvillense'}}"
"{'type': 'node', 'id': 4698269489, 'lat': -26.4130516, 'lon': -48.794048, 'tags': {'amenity': 'pharmacy', 'healthcare': 'pharmacy', 'name': 'Farmácia Econômica', 'name:pt': 'Farmácia Econômica'}}"
"{'type': 'node', 'id': 4698269589, 'lat': -26.3756078, 'lon': -48.7185215, 'tags': {'amenity': 'pharmacy', 'healthcare': 'pharmacy', 'name': 'Drogaria Araquari', 'old_name': 'Farmácia Coradelli'}}"
"{'type': 'node', 'id': 4698269590, 'lat': -26.3723012, 'lon': -48.7239393, 'tags': {'amenity': 'pharmacy', 'healthcare': 'pharmacy', 'name': 'Drogaria Bom Jesus', 'name:pt': 'Drogaria Bom Jesus'}}"
"{'type': 'node', 'id': 4698276290, 'lat': -26.2474897, 'lon': -48.6344245, 'tags': {'amenity': 'pharmacy', 'healthcare': 'pharmacy', 'name': 'Masterfarma', 'name:pt': 'Masterfarma'}}"
"{'type': 'node', 'id': 4698276291, 'lat': -26.246572, 'lon': -48.6335803, 'tags': {'amenity': 'pharmacy', 'healthcare': 'pharmacy', 'name': 'Farmácia Vitória', 'name:pt': 'Farmácia Vitória'}}"
"{'type': 'node', 'id': 4698276292, 'lat': -26.2419773, 'lon': -48.636247, 'tags': {'amenity': 'pharmacy', 'dispensing': 'yes', 'healthcare': 'pharmacy', 'name': 'Farmácia Rodrigues'}}"
"{'type': 'node', 'id': 4698276293, 'lat': -26.2437769, 'lon': -48.6397004, 'tags': {'amenity': 'pharmacy', 'healthcare': 'pharmacy', 'name': 'Masterfarma', 'name:pt': 'Masterfarma'}}"
"{'type': 'node', 'id': 4698276294, 'lat': -26.2217602, 'lon': -48.5223013, 'tags': {'amenity': 'pharmacy', 'healthcare': 'pharmacy', 'name': 'Farmácia Super Popular'}}"
"{'type': 'node', 'id': 4698276295, 'lat': -26.2270624, 'lon': -48.5049311, 'tags': {'amenity': 'pharmacy', 'healthcare': 'pharmacy', 'name': 'Fortefarma', 'name:pt': 'Fortefarma'}}"
"{'type': 'node', 'id': 4698276296, 'lat': -26.449548, 'lon': -49.0235644, 'tags': {'amenity': 'pharmacy', 'name': 'Essencial Farma', 'name:pt': 'Essencial Farma'}}"
"{'type': 'node', 'id': 4698276297, 'lat': -26.4009547, 'lon': -49.0872088, 'tags': {'amenity': 'pharmacy', 'name': 'Farmácia Anjo', 'name:pt': 'Farmácia Anjo'}}"
"{'type': 'node', 'id': 4698276298, 'lat': -26.4100597, 'lon': -49.0769239, 'tags': {'amenity': 'pharmacy', 'name': 'Farmácia Nádia Fabiane'}}"
"{'type': 'node', 'id': 4698287689, 'lat': -26.3793378, 'lon': -48.8250131, 'tags': {'amenity': 'pharmacy', 'name': 'Drogashop', 'name:pt': 'Drogashop'}}"
"{'type': 'node', 'id': 4698287789, 'lat': -26.4586007, 'lon': -48.611593, 'tags': {'amenity': 'pharmacy', 'name': 'Farmácia', 'name:pt': 'Farmácia'}}"
"{'type': 'node', 'id': 4698287791, 'lat': -26.2086052, 'lon': -48.5272748, 'tags': {'amenity': 'pharmacy', 'healthcare': 'pharmacy', 'name': 'Farmácia Fortefarma', 'name:pt': 'Farmácia Fortefarma'}}"
"{'type': 'node', 'id': 4698287889, 'lat': -26.4612212, 'lon': -48.6066327, 'tags': {'amenity': 'pharmacy', 'name': 'Drogaria JK', 'name:pt': 'Drogaria JK'}}"
"{'type': 'node', 'id': 4698287989, 'lat': -26.4601987, 'lon': -48.6054271, 'tags': {'amenity': 'pharmacy', 'name': 'Farmácia', 'name:pt': 'Farmácia'}}"
"{'type': 'node', 'id': 4698287990, 'lat': -26.4596244, 'lon': -48.6043351, 'tags': {'amenity': 'pharmacy', 'name': 'Farmácia União', 'name:pt': 'Farmácia União'}}"
"{'type': 'node', 'id': 4698287991, 'lat': -26.2071652, 'lon': -48.540654, 'tags': {'addr:street': 'Rodovia Duque de Caxias', 'amenity': 'pharmacy', 'healthcare': 'pharmacy', 'name': 'Farmácia Vitória'}}"
"{'type': 'node', 'id': 4698287992, 'lat': -26.2274035, 'lon': -48.5089048, 'tags': {'amenity': 'pharmacy', 'healthcare': 'pharmacy', 'name': 'Farmadel'}}"
"{'type': 'node', 'id': 4698287993, 'lat': -26.2270123, 'lon': -48.5084933, 'tags': {'amenity': 'pharmacy', 'healthcare': 'pharmacy', 'name': 'Farmalan'}}"
"{'type': 'node', 'id': 4698287994, 'lat': -26.2276854, 'lon': -48.5050305, 'tags': {'amenity': 'pharmacy', 'healthcare': 'pharmacy', 'name': 'FarmaFran', 'name:pt': 'FarmaFran'}}"
"{'type': 'node', 'id': 4698287995, 'lat': -26.47443, 'lon': -49.0046791, 'tags': {'amenity': 'pharmacy', 'healthcare': 'pharmacy', 'name': 'Drogaria Terapêutica', 'name:pt': 'Drogaria Terapêutica'}}"
"{'type': 'node', 'id': 4698287996, 'lat': -26.4225403, 'lon': -49.0691039, 'tags': {'amenity': 'pharmacy', 'name': 'Farmácia Barão', 'name:pt': 'Farmácia Barão'}}"
"{'type': 'node', 'id': 4698287997, 'lat': -26.444135, 'lon': -49.06149, 'tags': {'amenity': 'pharmacy', 'healthcare': 'pharmacy', 'name': 'Masterfarma', 'name:pt': 'Masterfarma'}}"
"{'type': 'node', 'id': 4698288289, 'lat': -26.217816, 'lon': -48.5238952, 'tags': {'amenity': 'pharmacy', 'healthcare': 'pharmacy', 'name': 'Farmácia São Chico', 'name:pt': 'Farmácia São Chico'}}"
"{'type': 'node', 'id': 4698288389, 'lat': -26.2197295, 'lon': -48.5234152, 'tags': {'amenity': 'pharmacy', 'healthcare': 'pharmacy', 'name': 'Farmácia Ubatuba'}}"
"{'type': 'node', 'id': 4700307055, 'lat': -26.2840167, 'lon': -48.8493695, 'tags': {'addr:city': 'Joinville', 'addr:housenumber': '1865', 'addr:postcode': '89204-001', 'addr:street': 'Rua Doutor João Colin', 'addr:suburb': 'América', 'healthcare': 'pharmacy', 'name': 'Drogaria Catarinense', 'opening_hours': 'Mo-Su 07:00-24:00'}}"
"{'type': 'node', 'id': 4701417991, 'lat': -26.5112201, 'lon': -49.1305889, 'tags': {'amenity': 'pharmacy', 'contact:phone': '+55 47 3371-9373', 'healthcare': 'pharmacy', 'name': 'Masterfarma', 'name:pt': 'Masterfarma'}}"
"{'type': 'node', 'id': 4701417992, 'lat': -26.4261791, 'lon': -49.2404272, 'tags': {'amenity': 'pharmacy', 'name': 'Farmácia Corupá', 'name:pt': 'Farmácia Corupá'}}"
"{'type': 'node', 'id': 4701419291, 'lat': -26.4672501, 'lon': -49.1215158, 'tags': {'amenity': 'pharmacy', 'healthcare': 'pharmacy', 'name': 'Farmacruz', 'name:pt': 'Farmacruz'}}"
"{'type': 'node', 'id': 4701419292, 'lat': -26.5041947, 'lon': -49.0950771, 'tags': {'amenity': 'pharmacy', 'healthcare': 'pharmacy', 'name': 'Masterfarma', 'name:pt': 'Masterfarma'}}"
"{'type': 'node', 'id': 4701419293, 'lat': -26.5123424, 'lon': -49.119783, 'tags': {'amenity': 'pharmacy', 'healthcare': 'pharmacy', 'name': 'Farmácia Unisul', 'name:pt': 'Farmácia Unisul'}}"
"{'type': 'node', 'id': 4701419294, 'lat': -26.4269049, 'lon': -49.2419891, 'tags': {'amenity': 'pharmacy', 'name': 'Farmácia Essencia', 'name:pt': 'Farmácia Essencia'}}"
"{'type': 'node', 'id': 4701419793, 'lat': -26.4682486, 'lon': -49.108938, 'tags': {'addr:city': 'Jaraguá do Sul', 'addr:housenumber': '1721', 'addr:street': 'Rua Erwino Menegotti', 'addr:suburb': 'Rau', 'amenity': 'pharmacy', 'healthcare': 'pharmacy', 'name': 'Farmácia Santa Clara', 'phone': '+55 47 3376-4300'}}"
"{'type': 'node', 'id': 4701419794, 'lat': -26.4631106, 'lon': -49.117093, 'tags': {'amenity': 'pharmacy', 'healthcare': 'pharmacy', 'name': 'Farmagnus', 'name:pt': 'Farmagnus'}}"
"{'type': 'node', 'id': 4701419795, 'lat': -26.4952706, 'lon': -49.0883282, 'tags': {'addr:city': 'Jaraguá do Sul', 'addr:housenumber': '1798', 'addr:street': 'Avenida Marechal Deodoro da Fonseca', 'amenity': 'pharmacy', 'healthcare': 'pharmacy', 'name': 'Farmácia dos Sindicatos', 'phone': '+55 47 3275-0874'}}"
"{'type': 'node', 'id': 4701419796, 'lat': -26.5143836, 'lon': -49.1279247, 'tags': {'amenity': 'pharmacy', 'healthcare': 'pharmacy', 'name': 'Farmagnus', 'name:pt': 'Farmagnus'}}"
"{'type': 'node', 'id': 4701419797, 'lat': -26.4260956, 'lon': -49.2415111, 'tags': {'amenity': 'pharmacy', 'name': 'Farmácia Mafli', 'name:pt': 'Farmácia Mafli'}}"
"{'type': 'node', 'id': 4701419798, 'lat': -26.4258645, 'lon': -49.2430944, 'tags': {'amenity': 'pharmacy', 'name': 'Farmácia Brasil Popular', 'name:pt': 'Farmácia Brasil Popular'}}"
"{'type': 'node', 'id': 4701419891, 'lat': -26.4710562, 'lon': -49.0909487, 'tags': {'amenity': 'pharmacy', 'healthcare': 'pharmacy', 'name': 'Masterfarma', 'name:pt': 'Masterfarma'}}"
"{'type': 'node', 'id': 4701419893, 'lat': -26.4911277, 'lon': -49.1166829, 'tags': {'amenity': 'pharmacy', 'healthcare': 'pharmacy', 'name': 'Farmácia Unisul', 'name:pt': 'Farmácia Unisul'}}"
"{'type': 'node', 'id': 4701419894, 'lat': -26.5074461, 'lon': -49.1094244, 'tags': {'amenity': 'pharmacy', 'healthcare': 'pharmacy', 'name': 'Farmácia São Luiz', 'name:pt': 'Farmácia São Luiz'}}"
"{'type': 'node', 'id': 4701419895, 'lat': -26.5210253, 'lon': -49.1336953, 'tags': {'amenity': 'pharmacy', 'healthcare': 'pharmacy', 'name': 'Farmácia São Luiz', 'name:pt': 'Farmácia São Luiz'}}"
"{'type': 'node', 'id': 4701419896, 'lat': -26.4496363, 'lon': -49.1706172, 'tags': {'amenity': 'pharmacy', 'healthcare': 'pharmacy', 'name': 'Drogaria Nereu Ramos', 'name:pt': 'Drogaria Nereu Ramos'}}"
"{'type': 'node', 'id': 4701446290, 'lat': -26.4532691, 'lon': -49.1078585, 'tags': {'amenity': 'pharmacy', 'healthcare': 'pharmacy', 'name': 'Farmácia Unisul', 'name:pt': 'Farmácia Unisul'}}"
"{'type': 'node', 'id': 4701446291, 'lat': -26.481212, 'lon': -49.1157916, 'tags': {'amenity': 'pharmacy', 'healthcare': 'pharmacy', 'name': 'Farmácias Desconto Fácil', 'old_name': 'Farmácia Ativa'}}"
"{'type': 'node', 'id': 4701446292, 'lat': -26.4991355, 'lon': -49.1143544, 'tags': {'amenity': 'pharmacy', 'healthcare': 'pharmacy', 'name': 'Farmavitta', 'name:pt': 'Farmavitta'}}"
"{'type': 'node', 'id': 4701446293, 'lat': -26.5130827, 'lon': -49.1213803, 'tags': {'amenity': 'pharmacy', 'healthcare': 'pharmacy', 'name': 'Drogaria da Barra', 'name:pt': 'Drogaria da Barra'}}"
"{'type': 'node', 'id': 4701446589, 'lat': -26.5020918, 'lon': -49.1124306, 'tags': {'amenity': 'pharmacy', 'healthcare': 'pharmacy', 'name': 'Farma Bem', 'name:pt': 'Farma Bem'}}"
"{'type': 'node', 'id': 4701446590, 'lat': -26.4379921, 'lon': -49.1481217, 'tags': {'amenity': 'pharmacy', 'healthcare': 'pharmacy', 'name': 'Masterfarma', 'name:pt': 'Masterfarma'}}"
"{'type': 'node', 'id': 4701447689, 'lat': -26.4335854, 'lon': -49.2440617, 'tags': {'amenity': 'pharmacy', 'healthcare': 'pharmacy', 'name': 'Farmagnus'}}"
"{'type': 'node', 'id': 4704122589, 'lat': -25.6768235, 'lon': -48.4628142, 'tags': {'amenity': 'pharmacy'}}"
"{'type': 'node', 'id': 4751133122, 'lat': -26.4847437, 'lon': -48.92342, 'tags': {'amenity': 'pharmacy', 'name': 'Farmácia Chiodini', 'name:pt': 'Farmácia Chiodini'}}"
"{'type': 'node', 'id': 4751133123, 'lat': -26.4637993, 'lon': -48.9176274, 'tags': {'amenity': 'pharmacy', 'healthcare': 'pharmacy', 'name': 'Farmácia Moreira Farma'}}"
"{'type': 'node', 'id': 4751161922, 'lat': -26.4636413, 'lon': -48.9179298, 'tags': {'amenity': 'pharmacy', 'healthcare': 'pharmacy', 'name': 'Farmácia Topfarma'}}"
"{'type': 'node', 'id': 4751210721, 'lat': -26.4620589, 'lon': -48.9202965, 'tags': {'amenity': 'pharmacy', 'healthcare': 'pharmacy', 'name': 'Farmácia Farmacelai'}}"
"{'type': 'node', 'id': 4789941857, 'lat': -26.4911592, 'lon': -49.0867924, 'tags': {'addr:city': 'Jaraguá do Sul', 'addr:housenumber': '40', 'addr:postcode': '89253-030', 'addr:street': 'Rua Amazonas', 'addr:suburb': 'Centro', 'alt_name': 'CEO Dr Orlando Bernardino da Silva', 'amenity': 'clinic', 'contact:email': 'saude.ceo@jaraguadosul.sc.gov.br', 'contact:email_1': 'saude.ceo2@jaraguadosul.sc.gov.br', 'healthcare': 'clinic', 'name': 'Centro de Especialidades Odontológicas', 'opening_hours': 'Mo-Fr 06:30-16:30', 'phone': '+55 47 2106-8518', 'phone_1': '+55 47 2106-8550', 'source': 'bing;Prefeitura'}}"
"{'type': 'node', 'id': 4809252849, 'lat': -25.4284602, 'lon': -48.709983, 'tags': {'amenity': 'pharmacy', 'name': 'Hiper Farma'}}"
"{'type': 'node', 'id': 4910850622, 'lat': -25.5385608, 'lon': -49.2048951, 'tags': {'amenity': 'clinic', 'healthcare': 'clinic', 'name': 'Laboratório Unimed', 'opening_hours': 'Mo-Fr 06:30-17:00; Sa 06:30-11:00; PH off', 'operator': 'Unimed', 'payment:american_express': 'yes', 'payment:bancomat': 'yes', 'payment:coins': 'yes', 'payment:cryptocurrencies': 'no', 'payment:electronic_purses': 'no', 'payment:mastercard': 'yes', 'payment:notes': 'yes', 'payment:visa': 'yes', 'payment:visa_electron': 'yes'}}"
"{'type': 'node', 'id': 4980261991, 'lat': -25.5497402, 'lon': -49.1959888, 'tags': {'addr:street': 'Rua Joinville', 'amenity': 'pharmacy', 'name': 'Alceu Cabeleireiro', 'shop': 'hairdresser'}}"
"{'type': 'node', 'id': 4980261992, 'lat': -25.5499749, 'lon': -49.1958439, 'tags': {'addr:street': 'Rua Joinville', 'amenity': 'pharmacy', 'name': 'Krasfarma', 'shop': 'pet'}}"
"{'type': 'node', 'id': 5010428638, 'lat': -25.3449404, 'lon': -49.2108518, 'tags': {'addr:housenumber': '37', 'addr:street': 'Rua Rio Capivari', 'addr:suburb': 'Roça Grande', 'amenity': 'clinic', 'healthcare': 'clinic', 'name': 'Unidade de Saúde Moinho Velho', 'opening_hours': 'Mo-Fr 08:00-16:00', 'operator:type': 'public'}}"
"{'type': 'node', 'id': 5034875423, 'lat': -26.2661925, 'lon': -48.8447567, 'tags': {'addr:city': 'Joinville', 'addr:housenumber': '1136', 'addr:postcode': '89202-400', 'addr:street': 'Rua Tenente Antônio João', 'addr:suburb': 'Bom Retiro', 'healthcare': 'pharmacy', 'name': 'Farmácia Preço Popular', 'name:pt': 'Farmácia Preço Popular', 'opening_hours': 'Mo-Fr 08:00-21:00; Sa 08:00-18:00'}}"
"{'type': 'node', 'id': 5047058678, 'lat': -26.5215536, 'lon': -48.9817967, 'tags': {'addr:city': 'Guaramirim', 'addr:street': 'Rodovia Guilherme Jensen', 'amenity': 'pharmacy', 'name': 'Farmácia Cátia', 'note': 'O nome na placa é Cátia mesmo.', 'source': 'survey', 'survey_date': '2017-08-20'}}"
"{'type': 'node', 'id': 5078933670, 'lat': -26.2731688, 'lon': -48.8258344, 'tags': {'addr:city': 'Joinville', 'addr:housenumber': '228', 'addr:postcode': '89227-300', 'addr:street': 'Rua Papa João XXIII', 'addr:suburb': 'Iririú', 'healthcare': 'pharmacy', 'name': 'Farmácia Preço Popular', 'opening_hours': 'Mo-Fr 08:00-20:00; Sa 08:00-18:00'}}"
"{'type': 'node', 'id': 5100726339, 'lat': -25.4298509, 'lon': -49.2490741, 'tags': {'addr:street': 'Rua Padre Germano Mayer', 'healthcare': 'laboratory', 'name': 'Laboratório Unimed', 'operator': 'Unimed', 'operator:type': 'private'}}"
"{'type': 'node', 'id': 5113012283, 'lat': -26.4811147, 'lon': -49.0867985, 'tags': {'addr:city': 'Jaraguá do Sul', 'addr:housenumber': '311', 'addr:street': 'Rua Expedicionário Gumercindo da Silva', 'addr:suburb': 'Centro', 'amenity': 'pharmacy', 'healthcare': 'pharmacy', 'level': '1', 'name': 'Masterfarma', 'source': 'survey', 'survey:date': '2017-09-17'}}"
"{'type': 'node', 'id': 5115569057, 'lat': -25.5152379, 'lon': -48.5036221, 'tags': {'addr:housenumber': '545', 'addr:street': 'Rua Rodrigues Alvas', 'amenity': 'clinic', 'name': 'Dr Elder oftalmo', 'name:pt': 'Dr Elder oftalmo'}}"
"{'type': 'node', 'id': 5122967121, 'lat': -25.5166599, 'lon': -48.5131203, 'tags': {'addr:housenumber': '1186', 'addr:street': 'Rua Baronesa do Cerro Azul', 'amenity': 'clinic', 'name': 'Gastro CLINICA', 'name:pt': 'Gastro CLINICA', 'opening_hours': 'Su-Fr 09:00-18:00'}}"
"{'type': 'node', 'id': 5125586223, 'lat': -25.4976865, 'lon': -49.1718694, 'tags': {'addr:housenumber': '1911', 'addr:street': 'Rua Alfredo Pinto', 'amenity': 'pharmacy', 'fixme': 'precisa do ddd 33822640', 'healthcare': 'pharmacy', 'name': 'Farmácia Medifarma', 'opening_hours': 'Mo-Sa 07:00-22:00; Su 08:00-21:00', 'operator': 'Medifarma', 'website': 'http://www.farmaciasmedifarma.com.br/site'}}"
"{'type': 'node', 'id': 5132227822, 'lat': -25.5296269, 'lon': -49.0892859, 'tags': {'addr:housenumber': '11280', 'addr:street': 'Rua Vanderlei Moreno', 'amenity': 'doctors', 'fixme': 'precisa do ddd 33988771', 'healthcare': 'doctor', 'name': 'UBS Martinópolis'}}"
"{'type': 'node', 'id': 5148358324, 'lat': -26.493947, 'lon': -49.0808176, 'tags': {'amenity': 'dentist', 'healthcare': 'dentist', 'name': 'Oral Sim Implantes'}}"
"{'type': 'node', 'id': 5148418321, 'lat': -26.4930262, 'lon': -49.0808106, 'tags': {'addr:street': 'Rua Angelo Schiochet', 'amenity': 'dentist', 'healthcare': 'dentist', 'name': 'Odonto Sul', 'phone': '+55 47 3373-3100'}}"
"{'type': 'node', 'id': 5151470517, 'lat': -25.5377441, 'lon': -49.2033635, 'tags': {'addr:city': 'São José dos Pinhais', 'addr:housenumber': '1555', 'addr:street': 'Rua Dona Isabel A Redentora', 'addr:suburb': 'Centro', 'amenity': 'pharmacy', 'drive_through': 'no', 'name': 'Fortefarma'}}"
"{'type': 'node', 'id': 5161721524, 'lat': -26.4850554, 'lon': -49.0805482, 'tags': {'addr:city': 'Jaraguá do Sul', 'addr:housenumber': '123', 'addr:street': 'Rua Reinoldo Rau', 'addr:suburb': 'Centro', 'amenity': 'clinic', 'emergency': 'no', 'healthcare': 'clinic', 'name': 'Centro de Atendimento Especiais', 'opening_hours': '07:00-16:00', 'operator': 'municipal', 'phone': '+55 47 3276-8910', 'short_name': 'CAE'}}"
"{'type': 'node', 'id': 5179759793, 'lat': -25.5418921, 'lon': -49.1954765, 'tags': {'addr:housenumber': '837', 'addr:street': 'Rua Alcídio Viana', 'amenity': 'clinic', 'name': 'Medimagem', 'phone': '+554138883625', 'website': 'https://medimagemparana.com.br/'}}"
"{'type': 'node', 'id': 5179851070, 'lat': -25.5423543, 'lon': -49.1979522, 'tags': {'addr:city': 'São José dos Pinhais', 'addr:country': 'BR', 'addr:housenumber': '2175', 'addr:state': 'PR', 'addr:street': 'Rua Paulino de Siqueira Côrtes', 'amenity': 'clinic', 'name': 'Clínica Integrada', 'opening_hours': 'Mo-Fr 08:00-18:00; PH off'}}"
"{'type': 'node', 'id': 5179851075, 'lat': -25.5434434, 'lon': -49.1960183, 'tags': {'amenity': 'clinic', 'name': 'Clínica dos Olhos'}}"
"{'type': 'node', 'id': 5184409321, 'lat': -26.4889819, 'lon': -49.0768714, 'tags': {'addr:city': 'Jaraguá do Sul', 'addr:housenumber': '185', 'addr:street': 'Rua Prefeito Leopoldo Augusto Gerent', 'addr:suburb': 'Centro', 'amenity': 'doctors', 'healthcare': 'doctor', 'name': 'Clínica de Anestesiologia', 'phone': '+55 47 3371-0635'}}"
"{'type': 'node', 'id': 5188771854, 'lat': -26.4888437, 'lon': -49.0769292, 'tags': {'addr:city': 'Jaraguá do Sul', 'addr:housenumber': '185', 'addr:street': 'Rua Prefeito Leopoldo Augusto Gerent', 'addr:suburb': 'Centro', 'amenity': 'doctors', 'healthcare': 'doctor', 'name': 'Cassia Biron', 'opening_hours': 'Mo-Fr 09:00-12:00,14:00-18:30; Tu 08:00-12:00,14:00-18:30; Th 08:00-12:00'}}"
"{'type': 'node', 'id': 5192372806, 'lat': -26.4961587, 'lon': -49.090143, 'tags': {'addr:city': 'Jaraguá do Sul', 'addr:housenumber': '1990', 'addr:street': 'Rua João Planincheck', 'addr:suburb': 'Jaraguá Esquerdo', 'amenity': 'pharmacy', 'healthcare': 'pharmacy', 'name': 'Fórmula Certa', 'opening_hours': 'Mo-Fr 08:30-12:00,13:30-19:00', 'phone': '+55 47 3371-4082', 'source': 'survey', 'source:date': '2017-10-25'}}"
"{'type': 'node', 'id': 5192372807, 'lat': -26.4959655, 'lon': -49.0899325, 'tags': {'addr:city': 'Jaraguá do Sul', 'addr:door': '608', 'addr:housenumber': '1990', 'addr:street': 'Rua João Planincheck', 'addr:suburb': 'Jaraguá Esquerdo', 'alt_name': 'Doutor AlexandreLorenzini Schlabendorff', 'amenity': 'doctors', 'healthcare': 'doctor', 'name': 'Proctoclin', 'phone': '+55 47 3371-5117', 'source': 'survey', 'source:date': '2017-10-25'}}"
"{'type': 'node', 'id': 5214279323, 'lat': -25.3759028, 'lon': -49.1815501, 'tags': {'addr:housenumber': '510', 'addr:postcode': '83409470', 'addr:street': 'José Maria da Silva paramos 551', 'amenity': 'pharmacy', 'name': 'farmácia Paulo César', 'name:en': 'farmácia', 'opening_hours': '24/7', 'phone': '+55 41 3621 2765'}}"
"{'type': 'node', 'id': 5264217999, 'lat': -26.4382874, 'lon': -49.1381492, 'tags': {'addr:city': 'Jaraguá do Sul', 'addr:housenumber': '3336', 'addr:street': 'Rua José Martins', 'addr:suburb': 'Três Rios do Norte', 'amenity': 'clinic', 'healthcare': 'clinic', 'name': 'Unidade de Saúde da Família Gilson Engelmann', 'operator': 'Municipal'}}"
"{'type': 'node', 'id': 5266133884, 'lat': -26.4752763, 'lon': -49.0018203, 'tags': {'addr:postcode': '89270-000', 'addr:street': 'Rua João Butschardt', 'addr:suburb': 'Centro', 'amenity': 'clinic', 'healthcare': 'clinic', 'healthcare:speciality': 'general', 'name': 'Posto de Saúde do Centro'}}"
"{'type': 'node', 'id': 5301500269, 'lat': -25.350287, 'lon': -49.1613071, 'tags': {'addr:city': 'Colombo', 'addr:housenumber': '299', 'addr:postcode': '83410-660', 'addr:street': 'Rua Antônio Severino das neves', 'addr:suburb': 'Guaraituba', 'amenity': 'clinic', 'emergency': 'no', 'healthcare': 'clinic', 'healthcare:speciality': 'general', 'name': 'Unidade de Saúde Jardim Guilhermina', 'operator:type': 'public'}}"
"{'type': 'node', 'id': 5392739323, 'lat': -26.4801928, 'lon': -49.0816523, 'tags': {'amenity': 'pharmacy', 'healthcare': 'pharmacy', 'name': 'Fórmula Certa Farmácia de Manipulação', 'phone': '+55 47 3275-2828'}}"
"{'type': 'node', 'id': 5392815122, 'lat': -26.4810347, 'lon': -49.0833587, 'tags': {'amenity': 'dentist', 'healthcare': 'dentist', 'name': 'Doutora Alessandra Maiochi', 'phone': '+55 47 3371-8024'}}"
"{'type': 'node', 'id': 5392836121, 'lat': -26.4811109, 'lon': -49.0831669, 'tags': {'addr:housenumber': '55', 'addr:street': 'Avenida Getúlio Vargas', 'amenity': 'pharmacy', 'healthcare': 'pharmacy', 'name': 'Farmácia Ultrafarma'}}"
"{'type': 'node', 'id': 5393003922, 'lat': -26.4842825, 'lon': -49.0826403, 'tags': {'addr:city': 'Jaraguá do Sul', 'addr:housenumber': '333', 'addr:street': 'Avenida Marechal Deodoro da Fonseca', 'addr:suburb': 'Centro', 'amenity': 'dentist', 'healthcare': 'dentist', 'name': 'Cirurgiões Dentistas Guenther', 'phone': '+55 47 3371-0846'}}"
"{'type': 'node', 'id': 5395972435, 'lat': -26.4834495, 'lon': -49.0828422, 'tags': {'addr:city': 'Jaraguá do Sul', 'addr:housenumber': '240', 'addr:street': 'Avenida Marechal Deodoro da Fonseca', 'addr:suburb': 'Centro', 'amenity': 'pharmacy', 'healthcare': 'pharmacy', 'name': 'Farmácia Popular'}}"
"{'type': 'node', 'id': 5465918725, 'lat': -25.3564667, 'lon': -49.1098702, 'tags': {'addr:housenumber': '417', 'addr:street': 'Rua Celestino Ferrarini', 'amenity': 'clinic', 'internet_access': 'wlan', 'name': 'clínica podóloga vitalle', 'opening_hours': 'Mo-Sa 09:00-18:00', 'operator': 'Juliane', 'phone': '+55 41 99141-0775'}}"
"{'type': 'node', 'id': 5574304120, 'lat': -26.4796436, 'lon': -49.084553, 'tags': {'amenity': 'pharmacy', 'dispensing': 'yes', 'healthcare': 'pharmacy'}}"
"{'type': 'node', 'id': 5577110135, 'lat': -26.4892548, 'lon': -49.0841315, 'tags': {'healthcare': 'yes', 'name': 'Pronto Socorro'}}"
"{'type': 'node', 'id': 5577110136, 'lat': -26.4884644, 'lon': -49.0840221, 'tags': {'healthcare': 'yes', 'name': 'Oncologia'}}"
"{'type': 'node', 'id': 5577110137, 'lat': -26.4883974, 'lon': -49.0842424, 'tags': {'healthcare': 'yes', 'name': 'RX'}}"
"{'type': 'node', 'id': 5577114839, 'lat': -26.4887104, 'lon': -49.0840857, 'tags': {'healthcare': 'yes', 'name': 'UTI'}}"
"{'type': 'node', 'id': 5577114840, 'lat': -26.4888974, 'lon': -49.084985, 'tags': {'healthcare': 'yes', 'name': 'Internação'}}"
"{'type': 'node', 'id': 5600524421, 'lat': -26.2177635, 'lon': -48.8185702, 'tags': {'amenity': 'dentist', 'contact:facebook': 'https://www.facebook.com/odontoparaiso2017/', 'healthcare': 'dentist', 'name': 'Odonto Paraíso'}}"
"{'type': 'node', 'id': 5779138953, 'lat': -25.3907334, 'lon': -49.2240504, 'tags': {'amenity': 'pharmacy', 'healthcare': 'pharmacy', 'name': 'Nissei'}}"
"{'type': 'node', 'id': 5874570538, 'lat': -25.3632332, 'lon': -49.1854828, 'tags': {'amenity': 'pharmacy', 'drive_through': 'no', 'healthcare': 'pharmacy', 'name': 'Maxi Farma', 'payment:mastercard': 'yes', 'payment:visa': 'yes'}}"
"{'type': 'node', 'id': 5883177073, 'lat': -25.360816, 'lon': -49.1846462, 'tags': {'addr:city': 'Colombo', 'addr:housenumber': '664', 'addr:street': 'Rua Dorval Ceccon', 'amenity': 'pharmacy', 'drive_through': 'no', 'healthcare': 'pharmacy', 'name': 'Farmácia Municipal'}}"
"{'type': 'node', 'id': 5885954429, 'lat': -25.3399629, 'lon': -49.1529048, 'tags': {'addr:city': 'Colombo', 'addr:street': 'Rua Presidente Faria', 'amenity': 'pharmacy', 'drive_through': 'no', 'healthcare': 'pharmacy', 'name': 'Maxi Farma', 'payment:cash': 'yes', 'payment:elo': 'yes', 'payment:mastercard': 'yes', 'payment:visa': 'yes'}}"
"{'type': 'node', 'id': 5918606657, 'lat': -25.5020095, 'lon': -49.2284922, 'tags': {'description': 'Escultura', 'healthcare': 'hospital', 'historic': 'memorial'}}"
"{'type': 'node', 'id': 5970250207, 'lat': -26.2415707, 'lon': -48.8142721, 'tags': {'amenity': 'pharmacy', 'dispensing': 'yes', 'healthcare': 'pharmacy', 'name': 'Farmácia Coradelli'}}"
"{'type': 'node', 'id': 6005992790, 'lat': -25.3496577, 'lon': -49.1685995, 'tags': {'addr:city': 'Colombo', 'addr:street': 'Rua Nicolau Schleder do Carmo', 'addr:suburb': 'Guaraituba', 'amenity': 'dentist', 'healthcare': 'dentist'}}"
"{'type': 'node', 'id': 6091429482, 'lat': -25.6978446, 'lon': -48.4788519, 'tags': {'amenity': 'hospital', 'emergency': 'yes', 'healthcare': 'hospital', 'healthcare:speciality': 'general', 'name': 'UPA PRAIA DE LESTE', 'operator': 'PMPP'}}"
"{'type': 'node', 'id': 6171357795, 'lat': -25.3986722, 'lon': -49.245493, 'tags': {'addr:housenumber': '1673', 'addr:street': 'Avenida Paraná', 'addr:suburb': 'Boa Vista', 'amenity': 'clinic', 'name': 'GNDI Centro Clínico Oncológico', 'old_name': 'Clinipam Unidade Cabral', 'opening_hours': 'Mo-Fr 08:00-19:00;PH off', 'operator': 'GNDI Sul - Clinipam'}}"
"{'type': 'node', 'id': 6171399722, 'lat': -25.3614502, 'lon': -49.2318425, 'tags': {'addr:city': 'Curitiba', 'addr:housenumber': '614', 'addr:street': 'Rua José Ursulino Filho', 'addr:suburb': 'Santa Cândida', 'amenity': 'clinic', 'healthcare': 'clinic', 'name': 'Unidade de Saúde Jardim Aliança', 'operator': 'Secretaria Municipal da Saúde', 'operator:type': 'public'}}"
"{'type': 'node', 'id': 6172142064, 'lat': -25.4033797, 'lon': -49.2427753, 'tags': {'addr:housenumber': '368', 'addr:street': 'Avenida Prefeito Erasto Gaertner', 'amenity': 'pharmacy', 'dispensing': 'yes', 'healthcare': 'pharmacy', 'name': 'Preço Popular'}}"
"{'type': 'node', 'id': 6172142110, 'lat': -25.4031079, 'lon': -49.2427864, 'tags': {'addr:housenumber': '387', 'addr:street': 'Avenida Prefeito Erasto Gaertner', 'amenity': 'pharmacy', 'dispensing': 'yes', 'healthcare': 'pharmacy', 'name': 'Nissei'}}"
"{'type': 'node', 'id': 6172145080, 'lat': -25.4038985, 'lon': -49.2435369, 'tags': {'addr:housenumber': '280', 'addr:street': 'Avenida Prefeito Erasto Gaertner', 'amenity': 'pharmacy', 'brand': 'Pague Menos', 'brand:wikidata': 'Q7124466', 'brand:wikipedia': 'pt:Pague Menos', 'dispensing': 'yes', 'healthcare': 'pharmacy', 'name': 'Pague Menos'}}"
"{'type': 'node', 'id': 6173650239, 'lat': -25.4050855, 'lon': -49.2454058, 'tags': {'addr:housenumber': '54', 'addr:street': 'Avenida Prefeito Erasto Gaertner', 'amenity': 'pharmacy', 'brand': 'Droga Raia', 'brand:wikidata': 'Q10357101', 'brand:wikipedia': 'pt:RaiaDrogasil', 'dispensing': 'yes', 'healthcare': 'pharmacy', 'name': 'Droga Raia'}}"
"{'type': 'node', 'id': 6173762545, 'lat': -25.4178626, 'lon': -49.2441818, 'tags': {'addr:housenumber': '1800', 'addr:street': 'Rua Augusto Stresser', 'amenity': 'pharmacy', 'brand': 'Panvel', 'brand:wikidata': 'Q10344254', 'dispensing': 'yes', 'healthcare': 'pharmacy', 'name': 'Panvel'}}"
"{'type': 'node', 'id': 6177644362, 'lat': -25.4113866, 'lon': -49.2368875, 'tags': {'addr:housenumber': '36', 'addr:street': 'Rua Ilha de Granada', 'addr:suburb': 'Jardim Social', 'amenity': 'clinic', 'healthcare': 'clinic', 'name': 'Centro de Atenção Psicossocial Territorial em Transtorno Mental Matriz', 'operator': 'Secretaria Municipal da Saúde', 'operator:type': 'public'}}"
"{'type': 'node', 'id': 6179882946, 'lat': -25.4578523, 'lon': -49.2477674, 'tags': {'addr:housenumber': '687', 'addr:street': 'Rua Governador Jorge Lacerda', 'addr:suburb': 'Guabirotuba', 'amenity': 'clinic', 'healthcare': 'clinic', 'name': 'Centro de Atenção Psicossocial III', 'operator:type': 'public'}}"
"{'type': 'node', 'id': 6181349173, 'lat': -25.3871651, 'lon': -49.2110048, 'tags': {'addr:housenumber': '2018', 'addr:street': 'Avenida Marechal Mascarenhas de Moraes', 'amenity': 'pharmacy', 'dispensing': 'yes', 'healthcare': 'pharmacy', 'name': 'Nissei'}}"
"{'type': 'node', 'id': 6181380774, 'lat': -25.3970668, 'lon': -49.2082634, 'tags': {'addr:housenumber': '371', 'addr:street': 'Rua Alberico Flores Bueno', 'amenity': 'pharmacy'}}"
"{'type': 'node', 'id': 6182688940, 'lat': -25.463648, 'lon': -49.2230457, 'tags': {'addr:housenumber': '544', 'addr:street': 'Rua Professor João Doetzer', 'addr:suburb': 'Jardim das Américas', 'amenity': 'pharmacy', 'brand': 'Panvel', 'brand:wikidata': 'Q10344254', 'brand:wikipedia': 'pt:Panvel', 'dispensing': 'yes', 'drive_through': 'no', 'healthcare': 'pharmacy', 'name': 'Panvel'}}"
"{'type': 'node', 'id': 6182688944, 'lat': -25.4633411, 'lon': -49.2231282, 'tags': {'addr:housenumber': '506', 'addr:street': 'Rua Professor João Doetzer', 'addr:suburb': 'Jardim das Américas', 'amenity': 'pharmacy', 'dispensing': 'yes', 'drive_through': 'no', 'healthcare': 'pharmacy', 'name': 'Nissei'}}"
"{'type': 'node', 'id': 6233019835, 'lat': -26.3153868, 'lon': -48.8623694, 'tags': {'alt_name': 'Fique Bem', 'amenity': 'pharmacy', 'brand': 'Usifarma', 'dispensing': 'yes', 'healthcare': 'pharmacy', 'level': '0', 'name': 'fiquebem'}}"
"{'type': 'node', 'id': 6309015485, 'lat': -26.4915289, 'lon': -49.0869171, 'tags': {'amenity': 'clinic', 'healthcare': 'clinic', 'name': 'InterClínicas Doutor Cláudio Luiz dos Santos'}}"
"{'type': 'node', 'id': 6317249063, 'lat': -25.8782009, 'lon': -48.5721801, 'tags': {'amenity': 'pharmacy', 'dispensing': 'yes', 'healthcare': 'pharmacy', 'name': 'Farmácias Nissei'}}"
"{'type': 'node', 'id': 6317249066, 'lat': -25.8781011, 'lon': -48.5717518, 'tags': {'amenity': 'pharmacy', 'dispensing': 'yes', 'healthcare': 'pharmacy', 'name': 'Farmácia Preço Popular'}}"
"{'type': 'node', 'id': 6323491860, 'lat': -26.4896595, 'lon': -49.0807204, 'tags': {'healthcare': 'laboratory', 'name': 'Antelo'}}"
"{'type': 'node', 'id': 6331130454, 'lat': -26.5461697, 'lon': -49.156716, 'tags': {'addr:city': 'Jaraguá do Sul', 'addr:street': 'Rua Georg Reinke', 'addr:suburb': 'Rio da Luz', 'alt_name': 'UBS Rio da Luz', 'amenity': 'clinic', 'healthcare': 'clinic', 'name': 'Posto de Saúde Cirilo Reinke', 'operator': 'Municipal', 'phone': '+55 47 3276-3163'}}"
"{'type': 'node', 'id': 6331472129, 'lat': -26.4850844, 'lon': -49.0828862, 'tags': {'addr:postcode': '89251-700', 'addr:street': 'Avenida Marechal Deodoro da Fonseca', 'addr:suburb': 'Centro', 'amenity': 'dentist', 'healthcare': 'dentist', 'name': 'Odontocop', 'phone': '+55 47 3370 3164'}}"
"{'type': 'node', 'id': 6331495086, 'lat': -26.4860752, 'lon': -49.0809619, 'tags': {'addr:postcode': '89254-700', 'addr:street': 'Rua Reinoldo Rau', 'addr:suburb': 'Centro', 'amenity': 'pharmacy', 'dispensing': 'yes', 'healthcare': 'pharmacy', 'name': 'Receituário Farmácia Magistral', 'phone': '+55 47 3275-0764', 'website': 'https://www.receituario.com.br/'}}"
"{'type': 'node', 'id': 6331495088, 'lat': -26.4875988, 'lon': -49.0804505, 'tags': {'addr:postcode': '89251-630', 'addr:street': 'Luiz Kienen', 'amenity': 'dentist', 'healthcare': 'dentist', 'name': 'Dental Plus', 'phone': '+55 47 3372 3084'}}"
"{'type': 'node', 'id': 6331495089, 'lat': -26.4885887, 'lon': -49.0806982, 'tags': {'addr:postcode': '89251-610', 'addr:street': 'Rua Reinoldo Rau', 'healthcare': 'laboratory', 'name': 'Fleming'}}"
"{'type': 'node', 'id': 6331522860, 'lat': -26.4906715, 'lon': -49.0830429, 'tags': {'amenity': 'pharmacy', 'dispensing': 'yes', 'healthcare': 'pharmacy', 'name': 'Biodora'}}"
"{'type': 'node', 'id': 6530392933, 'lat': -26.4828225, 'lon': -49.0568083, 'tags': {'healthcare': 'podiatrist', 'name': 'PodoHelp', 'phone': '+55 47 3055 2385'}}"
"{'type': 'node', 'id': 6532622439, 'lat': -26.4825278, 'lon': -49.0696248, 'tags': {'amenity': 'pharmacy', 'dispensing': 'yes', 'healthcare': 'pharmacy', 'name': 'Útil Farma'}}"
"{'type': 'node', 'id': 6538035727, 'lat': -26.4919267, 'lon': -49.0834451, 'tags': {'amenity': 'pharmacy', 'dispensing': 'yes', 'healthcare': 'pharmacy', 'name': 'Farmácia Paraná', 'phone': '+55 47 3275-1689'}}"
"{'type': 'node', 'id': 6538048209, 'lat': -26.4908434, 'lon': -49.0603792, 'tags': {'amenity': 'clinic', 'healthcare': 'clinic', 'name': 'Spa Health', 'phone': '+55 47 3058-4441'}}"
"{'type': 'node', 'id': 6555933715, 'lat': -26.4927947, 'lon': -49.0766093, 'tags': {'addr:city': 'Jaraguá do Sul', 'addr:housenumber': '125', 'addr:street': 'Rua Fiscal Verdi Francisco Lenzi', 'amenity': 'clinic', 'healthcare': 'clinic', 'name': 'Clinicorpo', 'phone': '+55 47 3275-3240'}}"
"{'type': 'node', 'id': 6568447126, 'lat': -26.4889972, 'lon': -49.0832845, 'tags': {'healthcare': 'laboratory', 'name': 'Laboratório Santa Helena', 'phone': '+55 47 3371 7011'}}"
"{'type': 'node', 'id': 6568447127, 'lat': -26.4882211, 'lon': -49.0825555, 'tags': {'addr:city': 'Jaraguá do Sul', 'addr:housenumber': '777', 'addr:street': 'Avenida Marechal Deodoro da Fonseca', 'amenity': 'pharmacy', 'dispensing': 'yes', 'healthcare': 'pharmacy', 'name': 'Drogaria Catarinense', 'opening_hours': '24/7', 'phone': '+55 47 3084-5653'}}"
"{'type': 'node', 'id': 6570914189, 'lat': -26.4912526, 'lon': -49.0611767, 'tags': {'amenity': 'pharmacy', 'dispensing': 'yes', 'healthcare': 'pharmacy', 'name': 'Farmácia Preço Popular', 'phone': '0800 643 3031'}}"
"{'type': 'node', 'id': 6591042640, 'lat': -26.5134463, 'lon': -49.1186812, 'tags': {'addr:city': 'Jaraguá do Sul', 'addr:housenumber': '1246', 'addr:postcode': '89260-300', 'addr:street': 'Rua Feliciano Bortolini', 'addr:suburb': 'Barra do Rio Cerro', 'alt_name': 'Pronto Atendimento Médico Ambulatorial', 'amenity': 'clinic', 'contact:email': 'saude.pama2@jaraguadosul.sc.gov.br', 'healthcare': 'clinic', 'name': 'Unidade Básica de Saúde Wolfgang Weege', 'opening_hours': 'Mo-Fr 07:00-18:00; Sa 07:00-12:00', 'operator': 'Secretaria Municipal de Saúde (Semsa)', 'operator:type': 'Público', 'phone': '+55 47 3376-1467', 'short_name': 'PAMA 2', 'source': 'Prefeitura Municipal de Jaraguá do Sul'}}"
"{'type': 'node', 'id': 6617102283, 'lat': -26.4894034, 'lon': -49.0806918, 'tags': {'addr:city': 'Jaraguá do Sul', 'addr:housenumber': '216', 'addr:postcode': '89251-590', 'addr:street': 'Rua João Picolli', 'addr:suburb': 'Centro', 'alt_name': 'IOTNORTE', 'amenity': 'clinic', 'email': 'contato@iotnorte.com.br', 'healthcare': 'clinic', 'healthcare:speciality': 'orthopaedics', 'name': 'IOT Norte', 'opening_hours': 'Mo-Fr 07:00-21:00', 'phone': '+55 47 3370-0366', 'website': 'https://iotnorte.com.br/'}}"
"{'type': 'node', 'id': 6617204172, 'lat': -26.4879682, 'lon': -49.0832043, 'tags': {'addr:city': 'Jaraguá do Sul', 'addr:housenumber': '744', 'addr:street': 'Avenida Marechal Deodoro da Fonseca', 'addr:suburb': 'Centro', 'alt_name': 'Hospital de Olhos Sadalla Amin Ghanem Jaraguá do Sul', 'amenity': 'clinic', 'healthcare': 'clinic', 'healthcare:speciality': 'ophthalmology', 'level': '2', 'name': 'Centro Oftamológico Jaraguá do Sul', 'phone': '+55 47 3033-5500', 'website': 'https://www.sadalla.com.br/index/centro-oftalmologico-jaragua-do-sul/'}}"
"{'type': 'node', 'id': 6631599139, 'lat': -26.5125683, 'lon': -49.1205893, 'tags': {'addr:city': 'Jaraguá do Sul', 'addr:housenumber': '1110', 'addr:street': 'Rua Angelo Rubini', 'addr:suburb': 'Barra do Rio Cerro', 'amenity': 'pharmacy', 'dispensing': 'yes', 'healthcare': 'pharmacy', 'name': 'Preço Popular'}}"
"{'type': 'node', 'id': 6672987341, 'lat': -26.4976351, 'lon': -49.0877864, 'tags': {'addr:city': 'Jaraguá do Sul', 'addr:housenumber': '220', 'addr:street': 'Rua Walter Marquardt', 'addr:suburb': 'Vila Nova', 'amenity': 'pharmacy', 'dispensing': 'yes', 'healthcare': 'pharmacy', 'name': 'Drogaria Catarinense', 'opening_hours': 'Mo-Sa 08:00-22:00; Su 10:00-22:00', 'phone': '+55 47 3273-2292'}}"
"{'type': 'node', 'id': 6806735085, 'lat': -26.4841464, 'lon': -49.0791042, 'tags': {'amenity': 'clinic', 'healthcare': 'clinic', 'name': 'Clinicorp'}}"
"{'type': 'node', 'id': 6840137685, 'lat': -26.4900111, 'lon': -49.0841212, 'tags': {'addr:housenumber': '30', 'addr:street': 'Rua Professor Adejaime Reitz', 'amenity': 'doctors', 'healthcare': 'doctor', 'name': 'Medicina Nuclear', 'opening_hours': 'Mo-Su 07:00-12:00, 13:00-18:00'}}"
"{'type': 'node', 'id': 6851554454, 'lat': -25.5288469, 'lon': -49.2409641, 'tags': {'addr:housenumber': '150', 'addr:street': 'Rua Lázaro Borssatto', 'addr:suburb': 'Alto Boqueirão', 'amenity': 'clinic', 'healthcare': 'clinic', 'name': 'Unidade de Saúde Eucaliptos', 'operator': 'Secretaria Municipal da Saúde', 'operator:type': 'public'}}"
"{'type': 'node', 'id': 6948514833, 'lat': -25.46331, 'lon': -49.2226915, 'tags': {'addr:city': 'Curitiba', 'addr:street': 'Rua Professor João Doetzer', 'addr:suburb': 'Jardim das Américas', 'amenity': 'pharmacy', 'dispensing': 'yes', 'healthcare': 'pharmacy', 'name': 'Big Farma'}}"
"{'type': 'node', 'id': 7017089878, 'lat': -26.4980412, 'lon': -49.0852578, 'tags': {'addr:city': 'Jaraguá do Sul', 'addr:housenumber': '197', 'addr:street': 'Rua Emmerich Ruysam', 'addr:suburb': 'Vila Nova', 'healthcare': 'podiatrist', 'name': 'Maria Helena Kulkamp', 'phone': '+55 47 3275-3373'}}"
"{'type': 'node', 'id': 7017187335, 'lat': -26.4981608, 'lon': -49.0877709, 'tags': {'addr:city': 'Jaraguá do Sul', 'addr:housenumber': '284', 'addr:street': 'Rua Walter Marquardt', 'addr:suburb': 'Vila Nova', 'amenity': 'dentist', 'contact:whatsapp': '+55 47 99943-0376', 'healthcare': 'dentist', 'name': 'Essence Life', 'phone': '+55 47 3084-0070', 'website': 'https://essencelife.com.br/'}}"
"{'type': 'node', 'id': 7154969824, 'lat': -26.2933706, 'lon': -48.8458264, 'tags': {'amenity': 'clinic', 'contact:phone': '+55 47 3043-3050', 'healthcare': 'clinic', 'healthcare:speciality': 'gastroenterology', 'name': 'Instituto de Gastroenterologia e Endoscopia Digestiva', 'short_name': 'IGED'}}"
"{'type': 'node', 'id': 7154969834, 'lat': -26.2905714, 'lon': -48.8447937, 'tags': {'amenity': 'pharmacy', 'healthcare': 'pharmacy', 'name': 'Farmácia Preço Popular'}}"
"{'type': 'node', 'id': 7155095396, 'lat': -26.3071799, 'lon': -48.8461603, 'tags': {'amenity': 'dentist', 'contact:phone': '+55 47 3033-7171', 'contact:website': 'http://oralunic.com.br', 'healthcare': 'dentist', 'healthcare:speciality': 'implantology', 'name': 'Oral Unic Implantes'}}"
"{'type': 'node', 'id': 7155095460, 'lat': -26.295548, 'lon': -48.8476691, 'tags': {'addr:city': 'Joinville', 'addr:housenumber': '642', 'addr:postcode': '89204-000', 'addr:street': 'Rua Doutor João Colin', 'addr:suburb': 'Centro', 'amenity': 'pharmacy', 'brand': 'Pague Menos', 'brand:wikidata': 'Q7124466', 'brand:wikipedia': 'pt:Pague Menos', 'drive_through': 'no', 'healthcare': 'pharmacy', 'name': 'Pague Menos', 'phone': '+55 47 3433 5023'}}"
"{'type': 'node', 'id': 7159481964, 'lat': -26.5142946, 'lon': -49.1204429, 'tags': {'amenity': 'pharmacy', 'healthcare': 'pharmacy', 'name': 'Droga Raia'}}"
"{'type': 'node', 'id': 7159706971, 'lat': -26.2080627, 'lon': -48.9090565, 'tags': {'addr:city': 'Joinville', 'addr:housenumber': '305', 'addr:postcode': '89239-100', 'addr:street': 'Rua Olavo Bilac', 'addr:suburb': 'Pirabeiraba', 'amenity': 'pharmacy', 'drive_through': 'no', 'healthcare': 'pharmacy', 'name': 'Drogaria Catarinense', 'opening_hours': 'Mo-Fr 07:00-22:00; Sa 08:00-20:00; Su 09:00-18:00', 'phone': '+55 47 3424 0669', 'website': 'https://www.drogariacatarinense.com.br'}}"
"{'type': 'node', 'id': 7160954330, 'lat': -26.2959327, 'lon': -48.8476543, 'tags': {'amenity': 'dentist', 'contact:phone': '+55 47 3028-3328', 'healthcare': 'dentist', 'name': 'Oral Prime'}}"
"{'type': 'node', 'id': 7160958115, 'lat': -26.2948157, 'lon': -48.8452242, 'tags': {'amenity': 'dentist', 'contact:phone': '+55 47 3026-0550', 'healthcare': 'dentist', 'name': 'Oral Sin'}}"
"{'type': 'node', 'id': 7160958208, 'lat': -26.2914035, 'lon': -48.846273, 'tags': {'amenity': 'clinic', 'contact:phone': '+55 47 3422-0504', 'healthcare': 'clinic', 'healthcare:speciality': 'physiatry', 'name': 'Acquativa Reabilitação e Condicionamento Aquático'}}"
"{'type': 'node', 'id': 7178402998, 'lat': -26.2995829, 'lon': -48.8476825, 'tags': {'addr:city': 'Joinville', 'addr:housenumber': '222', 'addr:postcode': '89201-300', 'addr:street': 'Rua Princesa Isabel', 'addr:suburb': 'Centro', 'healthcare': 'pharmacy', 'name': 'Farma Sesi', 'old_name': 'Sesi Farmácia', 'opening_hours': 'Mo-Fr 07:00-22:00; Sa 07:30-18:00', 'phone': '+55 47 3433 4948, +55 47 3026 1111'}}"
"{'type': 'node', 'id': 7178403034, 'lat': -26.2979814, 'lon': -48.8477951, 'tags': {'amenity': 'dentist', 'contact:phone': '+55 47 3801-1208', 'healthcare': 'dentist', 'name': 'Sorrisus Clínicas Odontológicas'}}"
"{'type': 'node', 'id': 7277957706, 'lat': -26.3076263, 'lon': -48.8417278, 'tags': {'addr:city': 'Joinville', 'addr:housenumber': '157', 'addr:postcode': '89202-207', 'addr:street': 'Rua Ministro Calógeras', 'addr:suburb': 'Bucarein', 'amenity': 'pharmacy', 'email': 'convenios.joinville@farmasesi.com.br', 'healthcare': 'pharmacy', 'name': 'Farma Sesi', 'opening_hours': 'Mo-Fr 08:00-20:00; Sa 08:00-13:00', 'operator': 'SESI', 'phone': '+55 47 3431 6111, +55 47 3433 4099'}}"
"{'type': 'node', 'id': 7315840204, 'lat': -26.3420946, 'lon': -48.877555, 'tags': {'addr:city': 'Joinville', 'addr:postcode': '89214-700', 'addr:street': 'Rua Jativoca', 'addr:suburb': 'Nova Brasília', 'alt_name': 'Posto de Saúde', 'amenity': 'clinic', 'healthcare': 'clinic', 'name': 'Unidade Básica de Saúde da Família - Jativoca', 'opening_hours': 'Mo-Fr 14:00-16:30', 'phone': '+55 47 3454 1842'}}"
"{'type': 'node', 'id': 7319509177, 'lat': -26.3111158, 'lon': -48.8500474, 'tags': {'addr:city': 'Joinville', 'addr:housenumber': '1489', 'addr:postcode': '89202-165', 'addr:street': 'Rua Doutor Plácido Olímpio de Oliveira', 'addr:suburb': 'Anita Garibaldi', 'healthcare': 'clinic', 'healthcare:speciality': 'psychiatry', 'name': 'Centro de Atenção Psicossocial em Álcool e outras Drogas - CAPS AD', 'opening_hours': 'Mo-Fr 07:00-18:00', 'phone': '+55 47 3423 3367'}}"
"{'type': 'node', 'id': 7319645667, 'lat': -26.2030357, 'lon': -48.9066821, 'tags': {'access': 'yes', 'addr:city': 'Joinville', 'addr:postcode': '89239-200', 'addr:street': 'Rua Doutor Carlos Heins Funke', 'addr:suburb': 'Pirabeiraba', 'amenity': 'clinic', 'brand': 'Sistema Único de Saúde', 'brand:short': 'SUS', 'brand:wikidata': 'Q7531056', 'brand:wikipedia': 'pt:Sistema Único de Saúde', 'healthcare': 'clinic', 'loc_name': 'Posto de Saúde Pirabeiraba', 'name': 'Unidade Básica de Saúde da Família Osmar Dalonso', 'opening_hours': 'Mo-Fr 08:00-17:00; Sa,Su,PH off', 'operator': 'Prefeitura Municipal de Joinville', 'operator:type': 'public', 'phone': '+55 47 3424 0195', 'short_name': 'UBSF Osmar Dalonso'}}"
"{'type': 'node', 'id': 7320077627, 'lat': -26.260576, 'lon': -48.8723606, 'tags': {'addr:city': 'Joinville', 'addr:housenumber': '1020', 'addr:postcode': '89219-100', 'addr:street': 'Rua Rui Barbosa', 'addr:suburb': 'Zona Industrial Norte', 'amenity': 'pharmacy', 'dispensing': 'yes', 'drive_through': 'no', 'email': 'fm562@farmasesi.com.br', 'healthcare': 'pharmacy', 'name': 'Farma Sesi', 'opening_hours': 'Mo-Fr 05:00-02:00, Sa 05:00-13:00', 'phone': '+55 47 3441 2582; +55 47 3027 2182', 'ref': '562', 'website': 'https://www.farmasesi.com.br/'}}"
"{'type': 'node', 'id': 7320089833, 'lat': -26.2513346, 'lon': -48.8722033, 'tags': {'addr:city': 'Joinville', 'addr:housenumber': '6920', 'addr:postcode': '89202-001', 'addr:street': 'Rua Dona Francisca', 'addr:suburb': 'Zona Industrial Norte', 'amenity': 'pharmacy', 'dispensing': 'yes', 'email': 'fm560@farmasesi.com.br', 'fixme': 'Descobrir aonde na Whirpool fica esta farmácia', 'healthcare': 'pharmacy', 'name': 'Farma Sesi', 'opening_hours': 'Mo-Fr 00:00-24:00; Sa 00:00-16:00', 'phone': '+55 47 3803 4417, +55 47 3025 4964', 'ref': '560', 'website': 'https://www.farmasesi.com.br/'}}"
"{'type': 'node', 'id': 7323899752, 'lat': -26.3082514, 'lon': -48.8441652, 'tags': {'addr:city': 'Joinville', 'addr:housenumber': '279', 'addr:postcode': '89202-207', 'addr:street': 'Rua Rio do Sul', 'addr:suburb': 'Bucarein', 'healthcare': 'pharmacy', 'name': 'Farmácia Escola', 'opening_hours': 'Mo-Fr 08:00-17:00', 'phone': '+55 47 3433 2575'}}"
"{'type': 'node', 'id': 7325706179, 'lat': -26.2865707, 'lon': -48.8113919, 'tags': {'addr:city': 'Joinville', 'addr:housenumber': '3605', 'addr:postcode': '89205-101', 'addr:street': 'Rua Albano Schmidt', 'addr:suburb': 'Boa Vista', 'healthcare': 'yes', 'name': 'Centro de Pré-atendimento a pacientes com sintomas do Corovonavírus', 'note': 'Um Centro de Pré-atendimento a pacientes com sintomas do Corovonavírus está sendo montado no bairro Boa Vista, na zona Leste de Joinville, para dar suporte ao sistema de saúde da cidade.', 'opening_hours': 'Mo-Fr 08:00-20:00', 'phone': '+55 47 3481 5165'}}"
"{'type': 'node', 'id': 7334756279, 'lat': -26.303608, 'lon': -48.8491583, 'tags': {'addr:city': 'Joinville', 'addr:housenumber': '235', 'addr:postcode': '89201-908', 'addr:street': 'Rua Visconde de Taunay', 'addr:suburb': 'Centro', 'healthcare': 'pharmacy', 'name': 'Drogaria Catarinense', 'opening_hours': 'Mo-Sa 10:00-22:00; Su 12:00-21:00'}}"
"{'type': 'node', 'id': 7334868762, 'lat': -26.2818742, 'lon': -48.8509096, 'tags': {'addr:city': 'Joinville', 'addr:housenumber': '716', 'addr:postcode': '89204-200', 'addr:street': 'Rua Almirante Barroso', 'addr:suburb': 'América', 'healthcare': 'pharmacy', 'name': 'Farmácia Preço Popular', 'opening_hours': 'Mo-Sa 08:30-21:30; Su 10:00-19:00'}}"
"{'type': 'node', 'id': 7335036172, 'lat': -26.2515004, 'lon': -48.8200503, 'tags': {'addr:city': 'Joinville', 'addr:housenumber': '2295', 'addr:postcode': '89226-000', 'addr:street': 'Rua Tuiuti', 'addr:suburb': 'Aventureiro', 'healthcare': 'pharmacy', 'name': 'Farmácia Preço Popular', 'opening_hours': 'Mo-Fr 08:00-21:00; Sa 08:00-20:00'}}"
"{'type': 'node', 'id': 7340679434, 'lat': -26.289431, 'lon': -48.85004, 'tags': {'addr:city': 'Joinville', 'addr:housenumber': '1215', 'addr:postcode': '89204-310', 'addr:street': 'Rua Blumenau', 'addr:suburb': 'América', 'healthcare': 'doctor', 'name': 'Clinipam', 'opening_hours': 'Mo-Fr 08:00-22:00; Sa 08:00-20:00', 'phone': '+55 47 3205 3100', 'website': 'https://www.clinipam.com.br/unidades-proprias/joinville'}}"
"{'type': 'node', 'id': 7347336451, 'lat': -26.3103379, 'lon': -48.8491094, 'tags': {'addr:city': 'Joinville', 'addr:housenumber': '610', 'addr:postcode': '89202-050', 'addr:street': 'Rua Doutor Plácido Gomes', 'addr:suburb': 'Anita Garibaldi', 'alt_name': 'Endoville', 'amenity': 'clinic', 'healthcare': 'clinic', 'name': 'Centro de Excelência em Endocrinologia e Diabetes', 'opening_hours': 'Mo-Fr 08:00-12:00, 14:00-19:00', 'phone': '+55 47 3029 5258', 'website': 'https://www.endoville.com.br'}}"
"{'type': 'node', 'id': 7395083209, 'lat': -26.2534943, 'lon': -48.8528957, 'tags': {'addr:city': 'Joinville', 'addr:housenumber': '333', 'addr:postcode': '89223-005', 'addr:street': 'Avenida Rolf Wiest', 'addr:suburb': 'Bom Retiro', 'healthcare': 'pharmacy', 'name': 'Farmácia Panvel', 'phone': '+55 47 3043 9040', 'website': 'https://www.panvel.com/panvel/nossas-lojas/SC/Joinville'}}"
"{'type': 'node', 'id': 7518654752, 'lat': -26.4930384, 'lon': -49.0827166, 'tags': {'addr:city': 'Jaraguá do Sul', 'addr:housenumber': '149', 'addr:postcode': '89251-500', 'addr:street': 'Rua Marina Frutuoso', 'addr:suburb': 'Centro', 'amenity': 'clinic', 'contact:whatsapp': '+55 47 99649-7718', 'healthcare': 'clinic', 'healthcare:speciality': 'vaccination', 'name': 'Tia Juli Vacinas', 'phone': '+55 47 3017-7462', 'website': 'https://www.tiajulivacinas.com.br/'}}"
"{'type': 'node', 'id': 7850565777, 'lat': -26.2730551, 'lon': -48.8773612, 'tags': {'addr:city': 'Joinville', 'addr:housenumber': '508', 'addr:postcode': '89220-001', 'addr:street': 'Rua Inambu', 'addr:suburb': 'Costa e Silva', 'amenity': 'pharmacy', 'dispensing': 'yes', 'healthcare': 'pharmacy', 'name': 'Farmacia do Carlos', 'opening_hours': 'Mo-Fr 08:00-20:00', 'phone': '+55 (47) 3801-1020'}}"
"{'type': 'node', 'id': 7884638219, 'lat': -26.2258244, 'lon': -48.5122505, 'tags': {'addr:city': 'São Francisco do Sul', 'addr:housenumber': '534', 'addr:street': 'Avenida Atlântica', 'addr:suburb': 'Enseada', 'healthcare': 'physiotherapist', 'healthcare:speciality': 'physiotherapy', 'name': 'Studio Vida Ativa'}}"
"{'type': 'node', 'id': 8092607588, 'lat': -26.2749376, 'lon': -48.8441338, 'tags': {'amenity': 'dentist', 'healthcare': 'dentist'}}"
"{'type': 'node', 'id': 8229853393, 'lat': -26.2663447, 'lon': -48.8034151, 'tags': {'addr:city': 'Joinville', 'addr:postcode': '89227-322', 'addr:street': 'Rua Joaquim José Felipe', 'addr:suburb': 'Jardim Iririú', 'amenity': 'clinic', 'healthcare': 'clinic', 'name': 'Unidade Básica de Saúde da Família Dom Gregório - Francisco Martins de Oliveira'}}"
"{'type': 'node', 'id': 8254695890, 'lat': -26.3629192, 'lon': -48.6278172, 'tags': {'amenity': 'clinic', 'healthcare': 'clinic', 'name': 'UBS Gamboa'}}"
"{'type': 'node', 'id': 8254695891, 'lat': -26.387398, 'lon': -48.5887035, 'tags': {'amenity': 'clinic', 'healthcare': 'clinic', 'name': 'ESF Ervino'}}"
"{'type': 'node', 'id': 8254695895, 'lat': -26.3354086, 'lon': -48.6551948, 'tags': {'amenity': 'clinic', 'healthcare': 'clinic', 'name': 'ESF Miranda'}}"
"{'type': 'node', 'id': 8254695902, 'lat': -26.2546197, 'lon': -48.6429893, 'tags': {'amenity': 'hospital', 'healthcare': 'hospital', 'name': 'Hospital e Maternidade Nossa Senhora da Graça'}}"
"{'type': 'node', 'id': 8254696953, 'lat': -26.2304859, 'lon': -48.6157822, 'tags': {'amenity': 'clinic', 'healthcare': 'clinic', 'name': 'ESF Paulas'}}"
"{'type': 'node', 'id': 8254696960, 'lat': -26.2187851, 'lon': -48.571699, 'tags': {'amenity': 'clinic', 'healthcare': 'clinic', 'name': 'ESF Iperoba'}}"
"{'type': 'node', 'id': 8254696962, 'lat': -26.208004, 'lon': -48.543177, 'tags': {'amenity': 'clinic', 'healthcare': 'clinic', 'name': 'UBS Sandra Regina'}}"
"{'type': 'node', 'id': 8254696971, 'lat': -26.2937483, 'lon': -48.6812876, 'tags': {'amenity': 'clinic', 'healthcare': 'clinic', 'name': 'UBS Laranjeiras'}}"
"{'type': 'node', 'id': 8254696975, 'lat': -26.2165303, 'lon': -48.6678167, 'tags': {'access': 'yes', 'amenity': 'clinic', 'brand': 'Sistema Único de Saúde', 'brand:short': 'SUS', 'brand:wikidata': 'Q7531056', 'brand:wikipedia': 'pt:Sistema Único de Saúde', 'healthcare': 'clinic', 'loc_name': 'Posto de Saúde Vila da Glória', 'name': 'Estratégia de Saúde da Família Vila da Glória', 'operator': 'Prefeitura Municipal de São Francisco do Sul', 'operator:type': 'public', 'short_name': 'ESF Vila da Glória'}}"
"{'type': 'node', 'id': 8415083244, 'lat': -26.4814746, 'lon': -49.0843761, 'tags': {'amenity': 'pharmacy', 'dispensing': 'yes', 'healthcare': 'pharmacy'}}"
"{'type': 'node', 'id': 8626422725, 'lat': -26.3722289, 'lon': -48.724593, 'tags': {'access': 'yes', 'alt_name': 'Hospital de Araquari', 'amenity': 'clinic', 'healthcare': 'clinic', 'name': 'Pronto Atendimento 24h', 'opening_hours': '24/7'}}"
"{'type': 'node', 'id': 8626422726, 'lat': -26.0393118, 'lon': -48.853008, 'tags': {'amenity': 'clinic'}}"
"{'type': 'node', 'id': 8626422728, 'lat': -26.1545074, 'lon': -48.6238846, 'tags': {'amenity': 'clinic'}}"
