OSM_Data
"{'type': 'node', 'id': 349316252, 'lat': 39.2546907, 'lon': -84.2960188, 'tags': {'addr:city': 'Loveland', 'addr:housenumber': '10675', 'addr:postcode': '45140', 'addr:state': 'OH', 'addr:street': 'Loveland Madeira Road', 'amenity': 'doctors', 'brand': 'TriHealth', 'brand:wikidata': 'Q7839812', 'healthcare': 'doctor', 'name': 'Health First Physicians', 'office': 'physician', 'operator': 'TriHealth', 'operator:wikidata': 'Q7839812', 'website': 'https://www.trihealth.com/hospitals-and-practices/health-first-physicians/locations/loveland/'}}"
"{'type': 'node', 'id': 357481502, 'lat': 39.1611207, 'lon': -84.3934759, 'tags': {'addr:city': 'Cincinnati', 'addr:housenumber': '5818', 'addr:postcode': '45227', 'addr:street': 'Madison Road', 'amenity': 'clinic', 'gnis:feature_id': '1074840', 'healthcare': 'clinic', 'name': 'Braxton F. Cann Memorial Medical Center', 'old_name': 'Madisonville Medical Center', 'operator': 'City of Cincinnati Primary Care', 'phone': '+1-513-263-8750', 'website': 'https://www.cincinnati-oh.gov/health/city-of-cincinnati-primary-care/'}}"
"{'type': 'node', 'id': 357512986, 'lat': 39.7614402, 'lon': -84.6466205, 'tags': {'amenity': 'clinic', 'ele': '323', 'gnis:feature_id': '1796361', 'name': 'Westview Acres Care Center'}}"
"{'type': 'node', 'id': 357512993, 'lat': 39.758107, 'lon': -84.6449538, 'tags': {'amenity': 'clinic', 'ele': '321', 'gnis:feature_id': '1796363', 'name': 'Greenbriar Nursing Center'}}"
"{'type': 'node', 'id': 358664597, 'lat': 39.8386587, 'lon': -84.9260725, 'tags': {'addr:city': 'Richmond', 'addr:postcode': '47374', 'amenity': 'hospital', 'contact:phone': '+1 765 966 0511', 'contact:website': 'http://www.in.gov/fssa/dmha/6914.htm', 'emergency': 'no', 'gnis:feature_id': '441978', 'healthcare': 'hospital', 'healthcare:speciality': 'psychiatry', 'name': 'Richmond State Hospital', 'wikidata': 'Q87932021'}}"
"{'type': 'node', 'id': 366065100, 'lat': 39.2611646, 'lon': -84.2730712, 'tags': {'amenity': 'pharmacy', 'brand': 'Kroger Pharmacy', 'brand:wikidata': 'Q153417', 'dispensing': 'yes', 'drive_through': 'no', 'healthcare': 'pharmacy', 'name': 'Kroger Pharmacy', 'opening_hours': 'Mo-Fr 08:00-21:00; Sa 09:00-18:00; Su 11:00-18:00', 'website': 'https://www.kroger.com/stores/grocery/oh/loveland/loveland/014/00413'}}"
"{'type': 'node', 'id': 370483624, 'lat': 39.2720012, 'lon': -84.3259145, 'tags': {'amenity': 'pharmacy', 'brand': 'Kroger Pharmacy', 'brand:wikidata': 'Q153417', 'dispensing': 'yes', 'healthcare': 'pharmacy', 'name': 'Kroger Pharmacy', 'website': 'https://www.kroger.com/stores/grocery/oh/cincinnati/harpers-point/014/00353'}}"
"{'type': 'node', 'id': 387949388, 'lat': 39.3210175, 'lon': -84.2856883, 'tags': {'amenity': 'doctors', 'healthcare': 'doctor', 'loc_name': 'Northeast Pediatrics', 'name': 'Northeast Cincinnati Pediatrics'}}"
"{'type': 'node', 'id': 395048623, 'lat': 39.2286825, 'lon': -84.3541504, 'tags': {'amenity': 'dentist', 'healthcare': 'dentist', 'name': 'Doctor Joel Golub, D.D.S.'}}"
"{'type': 'node', 'id': 506396157, 'lat': 39.1632077, 'lon': -84.5401532, 'tags': {'addr:city': 'Cincinnati', 'addr:housenumber': '4187', 'addr:postcode': '45223', 'addr:state': 'OH', 'addr:street': 'Hamilton Avenue', 'amenity': 'pharmacy', 'dispensing': 'yes', 'name': ""Schaeper's Pharmacy"", 'opening_hours': 'Mo-Fr 09:00-19:00; Sa 09:00-17:00', 'phone': '+1 513 541 0354', 'website': 'https://www.facebook.com/pages/Schaepers-Pharmacy/138001169605114'}}"
"{'type': 'node', 'id': 631971077, 'lat': 39.2696464, 'lon': -84.3274872, 'tags': {'alt_name': 'Doctor Laura Fiorenza;Kim Bowling', 'healthcare': 'optometrist', 'level': '0', 'name': 'Montgomery Vision Care', 'shop': 'optician', 'website': 'https://montgomeryvisioncare.com/'}}"
"{'type': 'node', 'id': 957101735, 'lat': 39.804724, 'lon': -83.8894131, 'tags': {'amenity': 'pharmacy', 'dispensing': 'yes', 'name': 'Town Drug'}}"
"{'type': 'node', 'id': 1259164029, 'lat': 39.3207738, 'lon': -84.2855647, 'tags': {'amenity': 'doctors', 'healthcare': 'doctor'}}"
"{'type': 'node', 'id': 1352881687, 'lat': 39.0193835, 'lon': -84.6339903, 'tags': {'amenity': 'pharmacy', 'dispensing': 'yes', 'healthcare': 'pharmacy', 'name': 'Target Pharmacy', 'operator': 'Target'}}"
"{'type': 'node', 'id': 2583085373, 'lat': 39.8229953, 'lon': -84.1805356, 'tags': {'addr:city': 'Dayton', 'addr:housename': 'ARCpoint Labs of Dayton', 'addr:housenumber': '3019', 'addr:postcode': '45414', 'addr:street': 'Production Court', 'contact:phone': '+1-937-424-1717', 'contact:website': 'http://dayton-oh-central.arcpointlabs.com/', 'healthcare': 'laboratory', 'name': 'ARCpoint Labs of Dayton', 'wheelchair': 'yes'}}"
"{'type': 'node', 'id': 2613023483, 'lat': 39.2899567, 'lon': -84.5244989, 'tags': {'addr:city': 'Forest Park', 'addr:housenumber': '1212', 'addr:postcode': '45240', 'addr:state': 'OH', 'addr:street': 'West Kemper Road', 'amenity': 'pharmacy', 'brand': 'Kroger Pharmacy', 'brand:wikidata': 'Q153417', 'drive_through': 'yes', 'healthcare': 'pharmacy', 'name': 'Kroger Pharmacy', 'website': 'https://www.kroger.com/stores/grocery/oh/cincinnati/forest-park/014/00943'}}"
"{'type': 'node', 'id': 2624880881, 'lat': 39.6266539, 'lon': -84.1993904, 'tags': {'amenity': 'pharmacy', 'brand': 'Discount Drug Mart', 'brand:wikidata': 'Q5281733', 'dispensing': 'yes', 'healthcare': 'pharmacy', 'name': 'Discount Drug Mart', 'opening_hours': '09:00-21:00'}}"
"{'type': 'node', 'id': 2700636600, 'lat': 38.9831028, 'lon': -84.6493492, 'tags': {'addr:city': 'Florence', 'addr:housenumber': '8174', 'addr:postcode': '41042', 'addr:street': 'Mall Road', 'healthcare': 'laboratory', 'name': 'ARCpoint Labs of Florence', 'phone': '+1-859-495-0131', 'source': 'http://florence-ky.arcpointlabs.com/', 'website': 'https://florence-ky.arcpointlabs.com/'}}"
"{'type': 'node', 'id': 2880736988, 'lat': 39.0480528, 'lon': -84.5536, 'tags': {'healthcare': 'optometrist', 'name': 'Vision One', 'shop': 'optician'}}"
"{'type': 'node', 'id': 2952478196, 'lat': 39.2203567, 'lon': -84.5872494, 'tags': {'amenity': 'pharmacy', 'brand': 'CVS Pharmacy', 'brand:website': 'https://www.cvs.com/', 'brand:wikidata': 'Q2078880', 'brand:wikipedia': 'en:CVS Pharmacy', 'healthcare': 'pharmacy', 'name': 'CVS Pharmacy', 'short_name': 'CVS', 'website': 'https://www.cvs.com/store-locator/cincinnati-oh-pharmacies/8215-colerain-ave-cincinnati-oh-45239/storeid=6107'}}"
"{'type': 'node', 'id': 2972423246, 'lat': 39.626086, 'lon': -84.3710359, 'tags': {'amenity': 'dentist', 'healthcare': 'dentist'}}"
"{'type': 'node', 'id': 2977983119, 'lat': 39.188841, 'lon': -84.3634875, 'tags': {'addr:city': 'Cincinnati', 'addr:housenumber': '7023', 'addr:postcode': '45243', 'addr:state': 'OH', 'addr:street': 'Miami Avenue', 'amenity': 'pharmacy', 'dispensing': 'yes', 'drive_through': 'no', 'healthcare': 'pharmacy', 'name': 'Adrien Pharmacy'}}"
"{'type': 'node', 'id': 3139258072, 'lat': 39.1286925, 'lon': -84.4306656, 'tags': {'addr:city': 'Cincinnati', 'addr:housenumber': '3195', 'addr:postcode': '45208', 'addr:state': 'OH', 'addr:street': 'Linwood Avenue', 'amenity': 'pharmacy', 'brand': 'CVS Pharmacy', 'brand:website': 'https://www.cvs.com/', 'brand:wikidata': 'Q2078880', 'brand:wikipedia': 'en:CVS Pharmacy', 'dispensing': 'yes', 'healthcare': 'pharmacy', 'name': 'CVS Pharmacy', 'short_name': 'CVS', 'website': 'https://www.cvs.com/store-locator/cincinnati-oh-pharmacies/3197-linwood-ave-cincinnati-oh-45208/storeid=6110'}}"
"{'type': 'node', 'id': 3139258073, 'lat': 39.1286537, 'lon': -84.4307027, 'tags': {'addr:city': 'Cincinnati', 'addr:housenumber': '3197', 'addr:postcode': '45208', 'addr:state': 'OH', 'addr:street': 'Linwood Avenue', 'amenity': 'dentist', 'fax': '+1 513 871 2893', 'healthcare': 'dentist', 'name': 'Mt. Lookout Dentistry', 'phone': '+1 513 871 2852', 'website': 'https://www.mtlookoutdentistry.com/'}}"
"{'type': 'node', 'id': 3191579653, 'lat': 39.1040371, 'lon': -84.5122704, 'tags': {'amenity': 'pharmacy', 'brand': 'CVS Pharmacy', 'brand:website': 'https://www.cvs.com/', 'brand:wikidata': 'Q2078880', 'brand:wikipedia': 'en:CVS Pharmacy', 'healthcare': 'pharmacy', 'name': 'CVS Pharmacy', 'short_name': 'CVS', 'source': 'survey', 'website': 'https://www.cvs.com/store-locator/cincinnati-oh-pharmacies/36-e-seventh-st-cincinnati-oh-45202/storeid=6131'}}"
"{'type': 'node', 'id': 3191579654, 'lat': 39.1006007, 'lon': -84.5092585, 'tags': {'amenity': 'pharmacy', 'brand': 'Walgreens', 'brand:wikidata': 'Q1591889', 'dispensing': 'yes', 'healthcare': 'pharmacy', 'name': 'Walgreens', 'source': 'survey'}}"
"{'type': 'node', 'id': 3416891693, 'lat': 39.0739923, 'lon': -84.3367829, 'tags': {'amenity': 'clinic', 'healthcare': 'clinic', 'name': 'OrthoCincy'}}"
"{'type': 'node', 'id': 3426140799, 'lat': 39.625615, 'lon': -84.3703484, 'tags': {'addr:city': 'Germantown', 'addr:housenumber': '28', 'addr:postcode': '45327', 'addr:state': 'OH', 'addr:street': 'North Main Street', 'amenity': 'pharmacy', 'name': 'Germantown Prescription Center'}}"
"{'type': 'node', 'id': 3624047724, 'lat': 39.1376839, 'lon': -84.442118, 'tags': {'addr:city': 'Cincinnati', 'addr:housenumber': '2730', 'addr:postcode': '45208', 'addr:state': 'OH', 'addr:street': 'Observatory Avenue', 'healthcare': 'physiotherapist', 'name': 'Hyde Park Cranio Sacral Therapy', 'office': 'therapist', 'phone': '+1-513-575-6396', 'website': 'http://www.hydeparkcraniosacraltherapy.com/'}}"
"{'type': 'node', 'id': 3624050612, 'lat': 39.1377484, 'lon': -84.4421126, 'tags': {'addr:city': 'Cincinnati', 'addr:housenumber': '2730', 'addr:postcode': '45208', 'addr:state': 'OH', 'addr:street': 'Observatory Avenue', 'amenity': 'doctors', 'healthcare': 'doctor', 'healthcare:speciality': 'gynaecology', 'name': 'Rose Gynecology', 'phone': '+1-513-321-7673', 'website': 'https://rosegynecology.com/'}}"
"{'type': 'node', 'id': 3753990206, 'lat': 39.2349707, 'lon': -84.3761381, 'tags': {'addr:city': 'Cincinnati', 'addr:housenumber': '9708', 'addr:postcode': '45242', 'addr:state': 'OH', 'addr:street': 'Kenwood Road', 'amenity': 'healthcare', 'healthcare': 'blood_donation', 'name': 'Hoxworth Blood Center', 'operator': 'University of Cincinnati', 'website': 'https://www.hoxworth.org/donors/locations/blue-ash.html'}}"
"{'type': 'node', 'id': 3755286669, 'lat': 39.1643254, 'lon': -84.698857, 'tags': {'amenity': 'pharmacy', 'healthcare': 'pharmacy', 'name': 'Days'}}"
"{'type': 'node', 'id': 3755431164, 'lat': 39.2346366, 'lon': -84.3772622, 'tags': {'healthcare': 'alternative', 'healthcare:speciality': 'chiropractic'}}"
"{'type': 'node', 'id': 3755431171, 'lat': 39.2342834, 'lon': -84.3774848, 'tags': {'alt_name': 'Weight Watchers', 'brand': 'WW Studio', 'brand:wikidata': 'Q1929466', 'healthcare': 'counselling', 'healthcare:counselling': 'dietitian', 'healthcare:speciality': 'weight_loss', 'name': 'WW Studio'}}"
"{'type': 'node', 'id': 3755459695, 'lat': 39.2225605, 'lon': -84.3569121, 'tags': {'amenity': 'doctors', 'healthcare': 'doctor', 'healthcare:speciality': 'chiropractic', 'name': 'Cross County Chiropractic', 'website': 'http://www.montgomerywellnesschiropractor.com/'}}"
"{'type': 'node', 'id': 3755459696, 'lat': 39.2221054, 'lon': -84.3569764, 'tags': {'alt_name': 'Lange & Lange', 'amenity': 'dentist', 'healthcare': 'dentist', 'healthcare:speciality': 'orthodontics', 'name': 'Lange Orthodontics', 'website': 'https://www.teamlange.com/'}}"
"{'type': 'node', 'id': 3755459697, 'lat': 39.2222218, 'lon': -84.3569523, 'tags': {'amenity': 'doctors', 'healthcare': 'doctor'}}"
"{'type': 'node', 'id': 3758838047, 'lat': 39.2074619, 'lon': -84.3657848, 'tags': {'amenity': 'dentist', 'healthcare': 'dentist', 'name': 'Daniel J. Franz, DDS'}}"
"{'type': 'node', 'id': 3762152135, 'lat': 39.2265492, 'lon': -84.3770414, 'tags': {'amenity': 'pharmacy', 'dispensing': 'yes', 'healthcare': 'pharmacy', 'name': 'Mullaney’s', 'shop': 'medical_supply', 'website': 'https://mullaneys.com/'}}"
"{'type': 'node', 'id': 3762152138, 'lat': 39.2269461, 'lon': -84.3770494, 'tags': {'amenity': 'doctors', 'healthcare': 'doctor', 'name': 'Internal Medicine of Blue Ash', 'website': 'http://www.internalmedicineofblueash.com/'}}"
"{'type': 'node', 'id': 3762152143, 'lat': 39.2278831, 'lon': -84.3769797, 'tags': {'addr:city': 'b', 'addr:housenumber': '9380', 'addr:postcode': '45242', 'addr:state': 'OH', 'addr:street': 'Kenwood Road', 'amenity': 'dentist', 'healthcare': 'dentist', 'name': 'Northeast Orthodontic Specialists', 'phone': '+15137934770', 'website': 'https://nosorthodontics.com/'}}"
"{'type': 'node', 'id': 3762216429, 'lat': 39.2539414, 'lon': -84.3869144, 'tags': {'healthcare': 'home_care', 'name': 'Alternate Solutions HomeCare', 'office': 'company', 'website': 'https://ashomecare.com/'}}"
"{'type': 'node', 'id': 3764939091, 'lat': 39.2307722, 'lon': -84.3762318, 'tags': {'amenity': 'dentist', 'healthcare': 'dentist', 'name': 'Blue Ash Dental Group', 'website': 'https://www.blueashdental.com/'}}"
"{'type': 'node', 'id': 4283822859, 'lat': 39.2310358, 'lon': -84.3785743, 'tags': {'addr:city': 'Blue Ash', 'addr:housenumber': '9525', 'addr:postcode': '45242', 'addr:state': 'OH', 'addr:street': 'Kenwood Road', 'brand': 'Clarkson Eyecare', 'brand:wikidata': 'Q64027001', 'healthcare': 'optometrist', 'name': 'Clarkson Eyecare', 'old_name': 'Thoma & Sutton Eye Care', 'shop': 'optician', 'short_name': 'Clarkson', 'website': 'https://www.clarksoneyecare.com/locations/oh/cincinnati/blueash/'}}"
"{'type': 'node', 'id': 4307137294, 'lat': 39.2262032, 'lon': -84.3929875, 'tags': {'healthcare': 'alternative', 'healthcare:speciality': 'chiropractic', 'name': 'Greater Cincinnati Pain Management Centers', 'website': 'http://www.cincinnatipain.com/'}}"
"{'type': 'node', 'id': 4307137297, 'lat': 39.2263165, 'lon': -84.3791674, 'tags': {'amenity': 'doctors', 'healthcare': 'physiotherapist', 'level': '0', 'name': 'Oxford Physical Therapy Blue Ash Center', 'operator': 'Oxford Physical Therapy Centers'}}"
"{'type': 'node', 'id': 4307229775, 'lat': 39.2296135, 'lon': -84.3537444, 'tags': {'amenity': 'clinic', 'healthcare': 'urgent_care', 'name': 'MED+ Urgent Care', 'website': 'https://medplusurgentcare.com/'}}"
"{'type': 'node', 'id': 4308183609, 'lat': 39.2540048, 'lon': -84.3441834, 'tags': {'alt_name': 'Peter McKenna, M.D.;McKenna Cosmetic Surgery Center', 'amenity': 'doctors', 'healthcare': 'cosmetic_surgery', 'healthcare:speciality': 'plastic_surgery', 'name': 'Cincinnati Institute of Plastic Surgery', 'website': 'https://mckennamd.com/'}}"
"{'type': 'node', 'id': 4308183610, 'lat': 39.2543849, 'lon': -84.344009, 'tags': {'amenity': 'doctors', 'brand': 'TriHealth', 'healthcare': 'surgery', 'healthcare:speciality': 'orthopaedics', 'name': 'Bethesda Orthopedic Surgery Center', 'operator': 'TriHealth', 'website': 'https://www.trihealth.com/hospitals-and-practices/bethesda-surgery-center/'}}"
"{'type': 'node', 'id': 4308183611, 'lat': 39.2544804, 'lon': -84.34395, 'tags': {'amenity': 'clinic', 'name': 'Hanger Clinic', 'old_name': 'The Brace Shop', 'website': 'http://www.hangerclinic.com/locations/Pages/Cincinnati-Montgomery-Road.aspx'}}"
"{'type': 'node', 'id': 4308183612, 'lat': 39.2555085, 'lon': -84.3440734, 'tags': {'amenity': 'doctors', 'healthcare': 'doctor', 'healthcare:speciality': 'sports;orthopaedics', 'name': 'Cincinnati SportsMedicine & Orthopaedic Center', 'short_name': 'CSMOC', 'website': 'https://www.cincinnatisportsmed.com/'}}"
"{'type': 'node', 'id': 4308370214, 'lat': 39.2641158, 'lon': -84.336342, 'tags': {'amenity': 'doctors', 'healthcare': 'doctor', 'healthcare:speciality': 'allergology', 'name': 'Bernstein Allergy Group', 'website': 'https://www.bernsteinallergyresearch.com/ag-home.html'}}"
"{'type': 'node', 'id': 4308391748, 'lat': 39.26422, 'lon': -84.3356668, 'tags': {'amenity': 'doctors', 'brand': 'TriHealth', 'brand:wikidata': 'Q7839812', 'healthcare': 'doctor', 'name': 'Montgomery Family Medicine', 'website': 'https://www.trihealth.com/hospitals-and-practices/montgomery-family-medicine/'}}"
"{'type': 'node', 'id': 4308391754, 'lat': 39.2662717, 'lon': -84.3334326, 'tags': {'amenity': 'doctors', 'healthcare': 'doctor', 'healthcare:speciality': 'gastroenterology', 'name': 'Southwest Ohio Gastroenterology', 'operator': 'CMH Regional Health System'}}"
"{'type': 'node', 'id': 4317989731, 'lat': 39.2719307, 'lon': -84.3261577, 'tags': {'amenity': 'doctors', 'brand': 'The Little Clinic', 'brand:wikidata': 'Q64138262', 'healthcare': 'doctor', 'healthcare:speciality': 'community', 'name': 'The Little Clinic'}}"
"{'type': 'node', 'id': 4563353152, 'lat': 38.99742, 'lon': -84.6297445, 'tags': {'addr:city': 'Florence', 'addr:housenumber': '7348', 'addr:postcode': '41042', 'addr:state': 'KY', 'addr:street': 'U.S. 42', 'addr:unit': '101', 'amenity': 'dentist', 'fax': '+1-859-283-2218', 'healthcare': 'dentist', 'name': 'Commonwealth Dental PSC: J. Robert Foote Jr, DMD', 'phone': '+1-859-283-1911', 'website': 'http://yourcommonwealthdental.com/'}}"
"{'type': 'node', 'id': 4666786833, 'lat': 39.3079087, 'lon': -84.2788398, 'tags': {'amenity': 'doctors', 'healthcare': 'podiatrist', 'healthcare:speciality': 'podiatry'}}"
"{'type': 'node', 'id': 4666786834, 'lat': 39.3079751, 'lon': -84.2787647, 'tags': {'amenity': 'dentist', 'healthcare': 'dentist', 'healthcare:speciality': 'orthodontics'}}"
"{'type': 'node', 'id': 4682658513, 'lat': 39.3386787, 'lon': -84.2188072, 'tags': {'amenity': 'pharmacy', 'brand': 'CVS Pharmacy', 'brand:website': 'https://www.cvs.com/', 'brand:wikidata': 'Q2078880', 'brand:wikipedia': 'en:CVS Pharmacy', 'dispensing': 'yes', 'drive_through': 'yes', 'healthcare': 'pharmacy', 'name': 'CVS Pharmacy', 'short_name': 'CVS', 'website': 'https://www.cvs.com/store-locator/maineville-oh-pharmacies/6632-s-state-route-48-maineville-oh-45039/storeid=2964'}}"
"{'type': 'node', 'id': 4682658517, 'lat': 39.3390832, 'lon': -84.216994, 'tags': {'amenity': 'dentist', 'healthcare': 'dentist'}}"
"{'type': 'node', 'id': 4682658518, 'lat': 39.3397864, 'lon': -84.2166989, 'tags': {'amenity': 'doctors', 'healthcare': 'doctor', 'healthcare:speciality': 'ophthalmology', 'name': 'Cincinnati Eye Institute', 'short_name': 'CEI', 'website': 'https://www.cincinnatieye.com/location/maineville/'}}"
"{'type': 'node', 'id': 4682658519, 'lat': 39.3396204, 'lon': -84.2166936, 'tags': {'amenity': 'clinic', 'healthcare': 'clinic', 'name': 'Rivers Bend Urgent Care', 'website': 'http://rburgentcare.com/'}}"
"{'type': 'node', 'id': 4682658520, 'lat': 39.3394545, 'lon': -84.2166882, 'tags': {'amenity': 'doctors', 'healthcare': 'doctor', 'name': 'River’s Bend Family Medicine'}}"
"{'type': 'node', 'id': 4682658522, 'lat': 39.3368656, 'lon': -84.2180561, 'tags': {'amenity': 'doctors', 'healthcare': 'doctor', 'name': 'Maineville Family Physicians', 'short_name': 'MFP', 'website': 'http://mainevillefamilyphysicans.com/'}}"
"{'type': 'node', 'id': 4682658523, 'lat': 39.3367203, 'lon': -84.2180721, 'tags': {'amenity': 'doctors', 'healthcare': 'doctor', 'healthcare:speciality': 'physiotherapist', 'name': 'Oxford Physical Therapy', 'website': 'https://www.oxfordphysicaltherapy.com/maineville-lebanon-staff/'}}"
"{'type': 'node', 'id': 4682910444, 'lat': 39.3461629, 'lon': -84.2196761, 'tags': {'healthcare': 'alternative', 'healthcare:speciality': 'chiropractic'}}"
"{'type': 'node', 'id': 4682910476, 'lat': 39.3508132, 'lon': -84.2205075, 'tags': {'amenity': 'doctors', 'brand': 'The Little Clinic', 'brand:wikidata': 'Q64138262', 'healthcare': 'doctor', 'healthcare:speciality': 'community', 'name': 'The Little Clinic'}}"
"{'type': 'node', 'id': 4682911471, 'lat': 39.3804594, 'lon': -84.2211931, 'tags': {'amenity': 'dentist', 'brand': 'Aspen Dental', 'brand:wikidata': 'Q4807808', 'healthcare': 'dentist', 'name': 'Aspen Dental', 'website': 'https://www.aspendental.com/dentist/oh/south-lebanon/658-corwin-nixon-blvd'}}"
"{'type': 'node', 'id': 5067551121, 'lat': 39.7481476, 'lon': -84.1996953, 'tags': {'addr:city': 'Dayton', 'addr:housenumber': '1', 'addr:postcode': '45417', 'addr:street': 'Elizabeth Place', 'amenity': 'hospital', 'beds': '26', 'emergency': 'no', 'gnis:feature_id': '1056498', 'healthcare': 'hospital', 'name': 'Medical Center at Elizabeth Place', 'old_name': 'Saint Elizabeth’s Hospital', 'phone': '+1 937 223 6237', 'urgent_care': 'yes', 'website': 'http://www.mcep.us/'}}"
"{'type': 'node', 'id': 5186255421, 'lat': 39.0132299, 'lon': -84.6268236, 'tags': {'amenity': 'clinic'}}"
"{'type': 'node', 'id': 5191371485, 'lat': 39.153236, 'lon': -84.4312699, 'tags': {'amenity': 'pharmacy', 'brand': 'CVS Pharmacy', 'brand:website': 'https://www.cvs.com/', 'brand:wikidata': 'Q2078880', 'brand:wikipedia': 'en:CVS Pharmacy', 'dispensing': 'yes', 'healthcare': 'pharmacy', 'name': 'CVS Pharmacy', 'short_name': 'CVS', 'website': 'https://www.cvs.com/store-locator/cincinnati-oh-pharmacies/3086-madison-rd-cincinnati-oh-45209/storeid=6095'}}"
"{'type': 'node', 'id': 5315912939, 'lat': 39.1454214, 'lon': -84.4599286, 'tags': {'addr:city': 'Cincinnati', 'addr:housenumber': '2135', 'addr:postcode': '45207', 'addr:state': 'OH', 'addr:street': 'Dana Avenue', 'addr:unit': '310', 'amenity': 'doctors', 'healthcare': 'doctor', 'healthcare:speciality': 'ophthalmology', 'name': 'Tri-State Centers for Sight, Inc. - Hyde Park', 'opening_hours': 'Mo,We-Fr 08:00-17:00; Tu,Sa 08:00-12:00', 'phone': '+1-513-221-7788', 'website': 'https://www.tristatesight.com/'}}"
"{'type': 'node', 'id': 5324925380, 'lat': 39.2899888, 'lon': -84.5261875, 'tags': {'brand': 'Women’s Center', 'healthcare': 'clinic', 'healthcare:speciality': 'pregnancy', 'name': 'Women’s Center Forest Park', 'office': 'healthcare', 'old_name': 'Mercy Health', 'operator': 'Women’s Centers of Ohio', 'website': 'https://womenscenterohio.com/make-an-appointment/womens-center-forest-park/'}}"
"{'type': 'node', 'id': 5395088231, 'lat': 39.197087, 'lon': -84.3843902, 'tags': {'addr:city': 'Cincinnati', 'addr:housenumber': '7730', 'addr:postcode': '45236', 'addr:state': 'OH', 'addr:street': 'Montgomery Road', 'addr:unit': '120', 'amenity': 'doctors', 'health_facility:type': 'office', 'health_specialty:ophthalmology': 'ophthalmology', 'healthcare': 'doctor', 'name': 'Tri-State Centers for Sight, Inc.- Kenwood Montgomery Road', 'office': 'physician', 'opening_hours': 'Mo-Fr 07:00-16:00', 'phone': '+1-513-791-5999', 'website': 'https://www.tristatesight.com/'}}"
"{'type': 'node', 'id': 5401745825, 'lat': 39.0239982, 'lon': -84.4419877, 'tags': {'addr:city': 'Cold Spring', 'addr:housenumber': '3955', 'addr:postcode': '41076', 'addr:state': 'KY', 'addr:street': 'Alexandria Pike', 'health_specialty:chiropractic': 'yes', 'healthcare': 'alternative', 'healthcare:speciality': 'chiropractic', 'name': 'ProWellness Chiropractic and Rehab', 'opening_hours': 'Mo-Th 08:00-17:45; Fr 08:00-12:30; Sa-Su off', 'phone': '+1-859-431-4430', 'website': 'https://www.prowellnesschiropractic.com/'}}"
"{'type': 'node', 'id': 5418461221, 'lat': 39.6340038, 'lon': -84.2356543, 'tags': {'addr:housenumber': '445', 'addr:postcode': '45342', 'addr:street': 'Byers Road', 'amenity': 'doctors', 'healthcare': 'doctor', 'healthcare:speciality': 'allergology;pulmonology', 'name': 'Asthma and Respiratory Center', 'phone': '+1-937-859-5864', 'website': 'http://arclungdoctor.com'}}"
"{'type': 'node', 'id': 5629079624, 'lat': 39.8291613, 'lon': -84.893814, 'tags': {'addr:city': 'Richmond', 'addr:housenumber': '600', 'addr:postcode': '47374', 'addr:state': 'IN', 'addr:street': 'East Main Street', 'amenity': 'hospital', 'check_date': '2024-07-27', 'healthcare': 'hospital', 'name': 'Reid Health Central BIlling'}}"
"{'type': 'node', 'id': 5755255593, 'lat': 39.3603999, 'lon': -84.310191, 'tags': {'amenity': 'pharmacy', 'dispensing': 'yes', 'healthcare': 'pharmacy', 'name': 'Yost Pharmacy'}}"
"{'type': 'node', 'id': 5759471800, 'lat': 39.352729, 'lon': -84.3199711, 'tags': {'amenity': 'dentist', 'healthcare': 'dentist', 'name': 'Healthy Smiles Dental Care'}}"
"{'type': 'node', 'id': 5764290887, 'lat': 39.3529379, 'lon': -84.3062923, 'tags': {'addr:city': 'Mason', 'addr:housenumber': '6010', 'addr:state': 'OH', 'addr:street': 'Mason Montgomery', 'healthcare': 'doctor', 'healthcare:speciality': 'Specialty_Care', 'name': 'Group Health Mason', 'operator': 'TriHealth', 'website': 'https://www.cgha.com/locations/Mason.aspx'}}"
"{'type': 'node', 'id': 5804432256, 'lat': 39.3457423, 'lon': -84.3108976, 'tags': {'addr:city': 'Mason', 'addr:housenumber': '6499', 'addr:postcode': '45040', 'addr:state': 'OH', 'addr:street': 'Mason Montgomery', 'amenity': 'doctors', 'healthcare': 'doctor', 'healthcare:speciality': 'orthodontics', 'name': 'Johnson Orthodontics', 'website': 'https://www.johnson-orthodontics.com/'}}"
"{'type': 'node', 'id': 5819900226, 'lat': 39.6851407, 'lon': -83.9305183, 'tags': {'amenity': 'dentist', 'brand': 'Comfort Dental', 'brand:wikidata': 'Q22079521', 'healthcare': 'dentist', 'name': 'Comfort Dental'}}"
"{'type': 'node', 'id': 5908391015, 'lat': 39.0714744, 'lon': -84.343262, 'tags': {'addr:city': 'Cincinnati', 'addr:housenumber': '7777', 'addr:postcode': '45255', 'addr:state': 'OH', 'addr:street': 'Beechmont Avenue', 'healthcare': 'yes', 'name': 'Good Samaritan Infusion Center - Anderson', 'opening_hours': 'Mo-We 8:00-16:30', 'operator': 'TriHealth', 'phone': '+1-513-752-3376'}}"
"{'type': 'node', 'id': 5908391016, 'lat': 39.0714716, 'lon': -84.3431082, 'tags': {'healthcare': 'yes', 'name': 'Good Samaritan Diagnostic Services - Anderson', 'operator': 'TriHealth'}}"
"{'type': 'node', 'id': 5908391017, 'lat': 39.0714744, 'lon': -84.3434274, 'tags': {'healthcare': 'yes', 'name': 'Good Samaritan Cardiac and Vascular Testing - Anderson', 'operator': 'TriHealth'}}"
"{'type': 'node', 'id': 6025599083, 'lat': 39.8516808, 'lon': -84.1884772, 'tags': {'amenity': 'doctors', 'healthcare': 'doctor', 'healthcare:speciality': 'paediatrics'}}"
"{'type': 'node', 'id': 6048780459, 'lat': 39.8581267, 'lon': -84.887087, 'tags': {'addr:city': 'Richmond', 'addr:housenumber': '1913', 'addr:postcode': '47374', 'addr:state': 'IN', 'addr:street': 'Chester Blvd', 'healthcare': 'audiologist', 'healthcare:speciality': 'otolaryngology', 'name': 'Waters ENT Sinus & Allergy', 'opening_hours': 'Mo-Fr 08:00-17:00', 'phone': '+1-765-965-1977', 'website': 'https://watersentaudiology.com/'}}"
"{'type': 'node', 'id': 6292653569, 'lat': 39.2209105, 'lon': -84.5173686, 'tags': {'addr:city': 'Cincinnati', 'addr:housenumber': '8444', 'addr:postcode': '45231', 'addr:state': 'OH', 'addr:street': 'Winton Road', 'amenity': 'doctors', 'healthcare': 'doctor', 'healthcare:speciality': 'allergology', 'name': 'Bernstein Allergy Group', 'opening_hours': 'Mo-Fr 09:00-18:00', 'phone': '+1-513-931-0775', 'website': 'https://www.bernsteinallergyresearch.com/clinic/'}}"
"{'type': 'node', 'id': 6317851189, 'lat': 39.289156, 'lon': -84.4673331, 'tags': {'addr:city': 'Cincinnati', 'addr:housenumber': '11711', 'addr:state': 'OH', 'addr:street': 'Princeton Pike', 'addr:unit': '941', 'description': 'Optometrists In Cincinnati Ohio', 'healthcare': 'optometrist', 'healthcare:speciality': 'optometry', 'name': 'Doctor Luke Fullenkamp Optometrist', 'phone': '+1-513-671-0933', 'shop': 'optician', 'website': 'https://www.drlukefullenkamp.com'}}"
"{'type': 'node', 'id': 6357094295, 'lat': 39.2094656, 'lon': -84.3994232, 'tags': {'amenity': 'pharmacy', 'brand': 'Walgreens', 'brand:wikidata': 'Q1591889', 'dispensing': 'yes', 'healthcare': 'pharmacy', 'name': 'Walgreens'}}"
"{'type': 'node', 'id': 6359271272, 'lat': 39.3153992, 'lon': -84.3739828, 'tags': {'addr:housenumber': '9393', 'alt_name': 'Smiles Ohio', 'amenity': 'dentist', 'healthcare': 'dentist', 'name': 'Family & Cosmetic Dentistry by Doctor Mindy Munowitz', 'phone': '+1-513-755-8000', 'website': 'https://www.smilesohio.com/'}}"
"{'type': 'node', 'id': 6359271274, 'lat': 39.3153104, 'lon': -84.3738783, 'tags': {'addr:housenumber': '9393', 'healthcare': 'alternative', 'healthcare:speciality': 'chiropractic', 'name': 'True2Form Chiropractic', 'phone': '+1-513-779-9393'}}"
"{'type': 'node', 'id': 6359368110, 'lat': 39.3434455, 'lon': -84.2687604, 'tags': {'healthcare': 'yes', 'name': 'First Aid'}}"
"{'type': 'node', 'id': 6360101592, 'lat': 39.0945683, 'lon': -84.546382, 'tags': {'amenity': 'doctors', 'healthcare': 'doctor', 'name': 'Ludlow Primary Care'}}"
"{'type': 'node', 'id': 6364434291, 'lat': 39.3401801, 'lon': -84.2732044, 'tags': {'healthcare': 'centre', 'name': 'First Aid'}}"
"{'type': 'node', 'id': 6385269586, 'lat': 39.2629766, 'lon': -84.2688009, 'tags': {'addr:city': 'Loveland', 'addr:postcode': '45140', 'addr:state': 'OH', 'addr:street': 'Loveland Madeira Road', 'amenity': 'dentist', 'healthcare': 'dentist', 'name': 'Daniel J. Vogt, D.D.S.', 'opening_hours:signed': 'no', 'phone': '+1-513-683-6009'}}"
"{'type': 'node', 'id': 6385269591, 'lat': 39.2628073, 'lon': -84.2697897, 'tags': {'addr:city': 'Loveland', 'addr:housenumber': '910', 'addr:postcode': '45140', 'addr:state': 'OH', 'addr:street': 'Loveland Madeira Road', 'alt_name': 'Brumfield & Weisbrot', 'amenity': 'dentist', 'healthcare': 'dentist', 'name': 'Family Dentistry of Loveland', 'opening_hours:signed': 'no', 'website': 'http://www.dentistinloveland.com/'}}"
"{'type': 'node', 'id': 6385269702, 'lat': 39.2687461, 'lon': -84.2636174, 'tags': {'healthcare': 'alternative', 'healthcare:speciality': 'chiropractic', 'name': 'Healing Touch Wellness & Chiropractic Centre', 'phone': '+1-513-683-2225', 'phone:mnemonic': '+1-513-683-BACK', 'website': 'https://www.thehealingtouchwellnesscentre.com/'}}"
"{'type': 'node', 'id': 6385269705, 'lat': 39.2686735, 'lon': -84.2630689, 'tags': {'healthcare': 'psychotherapist', 'name': 'IQuity', 'phone': '+1-513-317-8792'}}"
"{'type': 'node', 'id': 6387166492, 'lat': 39.2512356, 'lon': -84.2954085, 'tags': {'brand': 'Clarkson Eyecare', 'brand:wikidata': 'Q64027001', 'healthcare': 'optometrist', 'name': 'Clarkson Eyecare', 'shop': 'optician', 'short_name': 'Clarkson', 'website': 'https://www.clarksoneyecare.com/locations/oh/loveland/'}}"
"{'type': 'node', 'id': 6392972163, 'lat': 39.3233568, 'lon': -84.3095611, 'tags': {'addr:city': 'Mason', 'addr:housenumber': '4834', 'addr:postcode': '45040', 'addr:state': 'OH', 'addr:street': 'Socialville-Foster Road', 'addr:unit': '30C', 'amenity': 'dentist', 'description': 'Gregory P. Davis is a dentist in Mason serving patients in surrounding areas with a comprehensive range of general, restorative and cosmetic services.', 'facebook': 'https://www.facebook.com/gregorypdavisdds/', 'healthcare': 'dentist', 'name': 'Gregory P. Davis, DDS', 'opening_hours': 'Mo,Th 08:00-17:00; Tu,Fr 07:00-15:00', 'phone': '+1-513-459-1377', 'website': 'https://www.gregorydavisdds.com/'}}"
"{'type': 'node', 'id': 6489470138, 'lat': 39.2685499, 'lon': -84.2623983, 'tags': {'amenity': 'doctors', 'brand': 'TriHealth', 'brand:wikidata': 'Q7839812', 'healthcare': 'doctor', 'name': 'Loveland Family Medicine', 'operator': 'TriHealth', 'operator:wikidata': 'Q7839812', 'website': 'https://www.trihealth.com/hospitals-and-practices/loveland-family-medicine'}}"
"{'type': 'node', 'id': 6492738885, 'lat': 39.6580318, 'lon': -84.1598117, 'tags': {'addr:housenumber': '6071', 'addr:street': 'Far Hills Avenue', 'amenity': 'doctors', 'healthcare': 'doctor', 'name': 'Premier Health Urgent Care', 'opening_hours': 'Mo-Su 09:00-21:00', 'website': 'http://premierurgentcareoh.com'}}"
"{'type': 'node', 'id': 6501721861, 'lat': 39.2558546, 'lon': -84.2956084, 'tags': {'addr:city': 'Loveland', 'addr:housenumber': '1120', 'addr:postcode': '45140', 'addr:state': 'OH', 'addr:street': 'Cottonwood Drive', 'addr:unit': '1', 'alt_name': 'Distinctive Smiles', 'amenity': 'dentist', 'healthcare': 'dentist', 'name': 'Drake T. Tollefson, D.D.S.', 'phone': '+1-513-683-8600', 'website': 'http://www.achievingdistinctivesmiles.com/'}}"
"{'type': 'node', 'id': 6501721862, 'lat': 39.2558648, 'lon': -84.2956691, 'tags': {'addr:city': 'Loveland', 'addr:housenumber': '1120', 'addr:postcode': '45140', 'addr:state': 'OH', 'addr:street': 'Cottonwood Drive', 'addr:unit': '4', 'alt_name': 'SMILES Integrative Therapy Services', 'healthcare': 'therapist', 'healthcare:speciality': 'speech_therapist;autism;occupational_therapist', 'name': 'S.M.I.L.E.S. Integrative Therapy Services', 'office': 'therapist', 'phone': '+1-513-583-8333', 'website': 'https://www.smilestherapy.com/'}}"
"{'type': 'node', 'id': 6501723011, 'lat': 39.2493767, 'lon': -84.2963533, 'tags': {'healthcare': 'alternative', 'healthcare:speciality': 'chiropractic', 'name': 'Baker Family Chiropractic & Sports Injury Clinic', 'website': 'https://www.calldoctorpaul.com/'}}"
"{'type': 'node', 'id': 6501723015, 'lat': 39.2486257, 'lon': -84.296419, 'tags': {'amenity': 'dentist', 'healthcare': 'dentist', 'name': 'Michael Kreimer, DDS', 'strapline': 'Family & Implant Dentistry', 'website': 'https://www.michaelkreimerdds.com/'}}"
"{'type': 'node', 'id': 6501723032, 'lat': 39.251891, 'lon': -84.2951786, 'tags': {'amenity': 'clinic', 'brand': 'CareFirst', 'healthcare': 'clinic', 'name': 'CareFirst Urgent Care', 'operator': 'CareFirst', 'urgent_care': 'yes', 'website': 'https://carefirsturgentcares.com/locationshours/#Locations-6'}}"
"{'type': 'node', 'id': 6501723035, 'lat': 39.2516262, 'lon': -84.2952376, 'tags': {'amenity': 'doctors', 'healthcare': 'doctor', 'healthcare:speciality': 'paediatrics'}}"
"{'type': 'node', 'id': 6501723036, 'lat': 39.2517166, 'lon': -84.2952228, 'tags': {'healthcare': 'alternative', 'healthcare:speciality': 'chiropractic'}}"
"{'type': 'node', 'id': 6501814805, 'lat': 39.2542728, 'lon': -84.296436, 'tags': {'healthcare': 'optometrist', 'name': 'Berri Eyecare', 'opening_hours': 'Mo,We,Th 09:00-17:00; Tu 10:00-19:00; Fr 08:00-12:00', 'shop': 'optician', 'website': 'https://berrieyecare-visionsource.com/'}}"
"{'type': 'node', 'id': 6501988636, 'lat': 39.269584, 'lon': -84.3273532, 'tags': {'addr:unit': '100', 'amenity': 'dentist', 'healthcare': 'dentist', 'level': '0', 'name': 'Marie Callen DMD', 'website': 'https://mariecallen.com/'}}"
"{'type': 'node', 'id': 6501988640, 'lat': 39.269692, 'lon': -84.3270125, 'tags': {'addr:city': 'Montgomery', 'addr:housenumber': '11314', 'addr:postcode': '45249', 'addr:state': 'OH', 'addr:street': 'Montgomery Road', 'healthcare': 'counselling', 'healthcare:counselling': 'dietitian', 'healthcare:speciality': 'weight_loss', 'level': '0', 'name': 'Profile by Sanford', 'website': 'https://www.profileplan.com/cincinnati/'}}"
"{'type': 'node', 'id': 6501988647, 'lat': 39.2702485, 'lon': -84.3265351, 'tags': {'addr:unit': '214', 'amenity': 'doctors', 'brand': 'The Christ Hospital', 'brand:wikidata': 'Q7722703', 'healthcare': 'doctor', 'level': '1', 'name': 'The Christ Hospital Physicians Primary Care Harper’s Point', 'website': 'https://www.thechristhospital.com/services/primary-care/practice-locations/montgomery/harpers-point'}}"
"{'type': 'node', 'id': 6505057120, 'lat': 39.2665216, 'lon': -84.3331524, 'tags': {'amenity': 'doctors', 'healthcare': 'doctor', 'healthcare:speciality': 'vascular_surgery', 'name': 'Ohio Vein Specialists', 'website': 'http://vein365.com/'}}"
"{'type': 'node', 'id': 6505057121, 'lat': 39.2667135, 'lon': -84.3329413, 'tags': {'amenity': 'doctors', 'healthcare': 'doctor', 'healthcare:speciality': 'nephrology;cardiology', 'name': 'The Kidney and Hypertension Center', 'website': 'http://www.khc.cc/'}}"
"{'type': 'node', 'id': 6505057122, 'lat': 39.2642064, 'lon': -84.3358898, 'tags': {'healthcare': 'physiotherapist', 'healthcare:speciality': 'physiotherapy'}}"
"{'type': 'node', 'id': 6516918967, 'lat': 39.3536828, 'lon': -84.3667685, 'tags': {'amenity': 'dentist', 'healthcare': 'dentist', 'name': 'Vita Dental'}}"
"{'type': 'node', 'id': 6517059317, 'lat': 39.1086594, 'lon': -84.5093546, 'tags': {'addr:city': 'Cincinnati', 'addr:housenumber': '308', 'addr:state': 'OH', 'addr:street': 'Reading Road', 'amenity': 'clinic', 'healthcare': 'clinic', 'name': 'Over-the-Rhine MediCenter', 'phone': '+1-513-241-5234', 'short_name': 'OTR MediCenter', 'website': 'https://www.over-the-rhinemedicenter.com/'}}"
"{'type': 'node', 'id': 6592105818, 'lat': 39.6655664, 'lon': -84.1625702, 'tags': {'amenity': 'doctors', 'healthcare': 'doctor', 'healthcare:speciality': 'general', 'name': 'Comprehensive Health Medical Consultants'}}"
"{'type': 'node', 'id': 6592105819, 'lat': 39.6662266, 'lon': -84.1624483, 'tags': {'addr:housenumber': '5529', 'addr:street': 'Far Hills Avenue', 'amenity': 'clinic', 'healthcare': 'clinic', 'healthcare:speciality': 'radiology', 'name': 'Cleveland Clinic'}}"
"{'type': 'node', 'id': 6594393096, 'lat': 39.7667679, 'lon': -84.6467187, 'tags': {'addr:city': 'Eaton', 'addr:country': 'US', 'addr:housename': 'YMCA', 'addr:housenumber': '450', 'addr:postcode': '45320', 'addr:state': 'OH', 'addr:street': 'Washington Jackson Road', 'addr:unit': 'B', 'amenity': 'hospital', 'brand': 'Kettering Health Network', 'brand:wikidata': 'Q6395472', 'emergency': 'yes', 'healthcare': 'hospital', 'name': 'Preble County Medical Center', 'operator': 'Grandview Medical Center', 'operator:wikidata': 'Q5595580', 'website': 'https://www.ketteringhealth.org/preble/'}}"
"{'type': 'node', 'id': 6595236981, 'lat': 39.1283242, 'lon': -84.5184144, 'tags': {'brand': 'Athletico Physical Therapy', 'brand:wikidata': 'Q85743525', 'healthcare': 'physiotherapist', 'name': 'Athletico Physical Therapy'}}"
"{'type': 'node', 'id': 6595374597, 'lat': 39.230785, 'lon': -84.2593159, 'tags': {'amenity': 'dentist', 'healthcare': 'dentist'}}"
"{'type': 'node', 'id': 6595374601, 'lat': 39.2303674, 'lon': -84.2593937, 'tags': {'healthcare': 'alternative', 'healthcare:speciality': 'chiropractic'}}"
"{'type': 'node', 'id': 6595374633, 'lat': 39.2271523, 'lon': -84.2555906, 'tags': {'healthcare': 'physiotherapist'}}"
"{'type': 'node', 'id': 6597001205, 'lat': 39.7708463, 'lon': -84.0528413, 'tags': {'brand': 'Jenny Craig', 'brand:wikidata': 'Q6179221', 'healthcare': 'counselling', 'healthcare:counselling': 'dietitian', 'healthcare:speciality': 'weight_loss', 'name': 'Jenny Craig', 'office': 'company'}}"
"{'type': 'node', 'id': 6597001206, 'lat': 39.7709258, 'lon': -84.0534408, 'tags': {'amenity': 'dentist', 'brand': 'Aspen Dental', 'brand:wikidata': 'Q4807808', 'healthcare': 'dentist', 'name': 'Aspen Dental'}}"
"{'type': 'node', 'id': 6606854585, 'lat': 39.728809, 'lon': -84.0578813, 'tags': {'amenity': 'pharmacy', 'brand': 'CVS Pharmacy', 'brand:website': 'https://www.cvs.com/', 'brand:wikidata': 'Q2078880', 'brand:wikipedia': 'en:CVS Pharmacy', 'healthcare': 'pharmacy', 'name': 'CVS Pharmacy', 'short_name': 'CVS', 'website': 'https://www.cvs.com/store-locator/beavercreek-oh-pharmacies/1331-north-fairfield-road-beavercreek-oh-45432/storeid=3458'}}"
"{'type': 'node', 'id': 6611876556, 'lat': 39.7601943, 'lon': -84.1935768, 'tags': {'addr:housenumber': '32', 'addr:street': 'North Ludlow Street', 'amenity': 'pharmacy', 'brand': 'CVS Pharmacy', 'brand:website': 'https://www.cvs.com/', 'brand:wikidata': 'Q2078880', 'brand:wikipedia': 'en:CVS Pharmacy', 'healthcare': 'pharmacy', 'name': 'CVS Pharmacy', 'short_name': 'CVS', 'website': 'https://www.cvs.com/store-locator/dayton-oh-pharmacies/32-n-ludlow-st-dayton-oh-45402/storeid=3453'}}"
"{'type': 'node', 'id': 6611876558, 'lat': 39.7617699, 'lon': -84.1975667, 'tags': {'amenity': 'pharmacy', 'healthcare': 'pharmacy', 'name': 'Kettering Physician Network', 'operator': 'Kettering Health', 'phone': '+19372221400'}}"
"{'type': 'node', 'id': 6611876561, 'lat': 39.7617724, 'lon': -84.1976695, 'tags': {'amenity': 'doctors', 'healthcare': 'doctor', 'healthcare:speciality': 'general', 'name': 'Kettering Physicians Network'}}"
"{'type': 'node', 'id': 6612544216, 'lat': 39.4799908, 'lon': -84.4891829, 'tags': {'addr:city': 'Trenton', 'addr:housenumber': '3590', 'addr:state': 'OH', 'addr:street': 'Busenbark Road', 'amenity': 'clinic', 'brand': 'Premier Health', 'brand:wikidata': 'Q7240303', 'healthcare': 'clinic;laboratory;physiotherapist;occupational_therapist', 'healthcare:speciality': 'diagnostic_radiology;occupational', 'name': 'Atrium Medical Center Laboratory', 'operator': 'Premier Health', 'operator:wikidata': 'Q7240303'}}"
"{'type': 'node', 'id': 6612544217, 'lat': 39.4798852, 'lon': -84.4890809, 'tags': {'addr:city': 'Trenton', 'addr:housenumber': '3590', 'addr:state': 'OH', 'addr:street': 'Busenbark Road', 'amenity': 'doctors', 'brand': 'Premier HealthNet', 'brand:wikidata': 'Q7240303', 'healthcare': 'doctor', 'healthcare:speciality': 'family_medicine', 'name': 'Trenton Family Medicine', 'website': 'https://www.premierphysiciannet.com/Trenton-Family-Medicine/Home/'}}"
"{'type': 'node', 'id': 6617862201, 'lat': 39.6889066, 'lon': -84.1689791, 'tags': {'addr:housenumber': '4021', 'addr:street': 'Far Hills Avenue', 'brand': 'Clarkson Eyecare', 'brand:wikidata': 'Q64027001', 'healthcare': 'optometrist', 'name': 'Clarkson Eyecare', 'opening_hours': 'Mo,Th 09:00-19:00; Tu 09:00-18:00; We 08:00-17:00; Fr 08:00-13:00', 'shop': 'optician', 'short_name': 'Clarkson'}}"
"{'type': 'node', 'id': 6630848845, 'lat': 39.2897766, 'lon': -83.9984131, 'tags': {'healthcare': 'physiotherapist', 'healthcare:speciality': 'physiotherapy'}}"
"{'type': 'node', 'id': 6630859658, 'lat': 39.2901093, 'lon': -83.997274, 'tags': {'healthcare': 'alternative', 'healthcare:speciality': 'chiropractic', 'name': 'Total Helath Chiropractic Center', 'website': 'https://www.dralbino.com/'}}"
"{'type': 'node', 'id': 6630877239, 'lat': 39.2905363, 'lon': -83.9957285, 'tags': {'amenity': 'dentist', 'healthcare': 'dentist', 'name': 'Jody Gundler Family Dentistry', 'website': 'http://www.jodygundlerdds.com/'}}"
"{'type': 'node', 'id': 6630877255, 'lat': 39.2898026, 'lon': -83.9983152, 'tags': {'healthcare': 'alternative', 'healthcare:speciality': 'chiropractic'}}"
"{'type': 'node', 'id': 6634288174, 'lat': 39.294316, 'lon': -83.9863059, 'tags': {'brand': 'Home Care by Black Stone', 'healthcare': 'nurse', 'name': 'Home Care by Black Stone', 'website': 'http://blackstonehc.com/office-locator/blanchester/'}}"
"{'type': 'node', 'id': 6642183032, 'lat': 39.5040136, 'lon': -84.3115795, 'tags': {'addr:housenumber': '5750', 'addr:street': 'Innovation Drive', 'healthcare': 'physiotherapist', 'name': 'Atrium Medical Center Physical Therapy', 'operator': 'Atrium Medical Center', 'operator:wikidata': 'Q7240303'}}"
"{'type': 'node', 'id': 6642183033, 'lat': 39.5040239, 'lon': -84.3116975, 'tags': {'addr:housenumber': '5750', 'addr:street': 'Innovation Drive', 'healthcare': 'physiotherapist', 'healthcare:speciality': 'sports', 'name': 'Atrium Medical Center Sports Medicine', 'operator': 'Atrium Medical Center', 'operator:wikidata': 'Q7240303'}}"
"{'type': 'node', 'id': 6645420003, 'lat': 39.1069941, 'lon': -84.3982358, 'tags': {'healthcare': 'alternative', 'healthcare:speciality': 'chiropractic'}}"
"{'type': 'node', 'id': 6704260440, 'lat': 39.668406, 'lon': -84.1648424, 'tags': {'amenity': 'doctors', 'healthcare': 'doctor', 'name': 'American Osteoporosis Services'}}"
"{'type': 'node', 'id': 6781632479, 'lat': 39.0168029, 'lon': -84.5995494, 'tags': {'healthcare': 'laboratory', 'name': 'Any Lab Test Now'}}"
"{'type': 'node', 'id': 6781642279, 'lat': 39.0038407, 'lon': -84.631409, 'tags': {'amenity': 'pharmacy', 'dispensing': 'yes', 'healthcare': 'pharmacy', 'name': 'Ruwe Family Pharmacy'}}"
"{'type': 'node', 'id': 6781684022, 'lat': 39.0203829, 'lon': -84.5946249, 'tags': {'alt_name': 'Weight Watchers', 'brand': 'WW Studio', 'brand:wikidata': 'Q1929466', 'healthcare': 'counselling', 'healthcare:counselling': 'dietitian', 'healthcare:speciality': 'weight_loss', 'name': 'WW Studio'}}"
"{'type': 'node', 'id': 6784112208, 'lat': 39.0370549, 'lon': -84.5604996, 'tags': {'brand': 'Clarkson Eyecare', 'brand:wikidata': 'Q64027001', 'healthcare': 'optometrist', 'name': 'Clarkson Eyecare', 'shop': 'optician', 'short_name': 'Clarkson'}}"
"{'type': 'node', 'id': 6784112213, 'lat': 39.0367151, 'lon': -84.5600237, 'tags': {'healthcare': 'alternative', 'healthcare:speciality': 'chiropractic', 'name': 'Access Chiropractic'}}"
"{'type': 'node', 'id': 6784112215, 'lat': 39.0371586, 'lon': -84.5593312, 'tags': {'amenity': 'dentist', 'healthcare': 'dentist', 'name': 'Cummings Dental'}}"
"{'type': 'node', 'id': 6784122803, 'lat': 39.0476644, 'lon': -84.553941, 'tags': {'healthcare': 'alternative', 'healthcare:speciality': 'chiropractic'}}"
"{'type': 'node', 'id': 6784122805, 'lat': 39.0489011, 'lon': -84.5525643, 'tags': {'amenity': 'pharmacy', 'dispensing': 'yes', 'healthcare': 'pharmacy', 'name': 'Kroger Pharmacy'}}"
"{'type': 'node', 'id': 6784122806, 'lat': 39.0490345, 'lon': -84.5526701, 'tags': {'amenity': 'doctors', 'brand': 'The Little Clinic', 'brand:wikidata': 'Q64138262', 'healthcare': 'doctor', 'healthcare:speciality': 'community', 'name': 'The Little Clinic'}}"
"{'type': 'node', 'id': 6784126678, 'lat': 39.0545929, 'lon': -84.5472612, 'tags': {'amenity': 'dentist', 'healthcare': 'dentist', 'name': 'Monteson Family Dental'}}"
"{'type': 'node', 'id': 6804163358, 'lat': 39.6683317, 'lon': -84.1646893, 'tags': {'amenity': 'doctors', 'healthcare': 'doctor', 'healthcare:speciality': 'oral surgery', 'level': '1', 'name': 'Bamidele J. Apapa D.D.S.', 'opening_hours': 'Mo-Tu,Th 08:00-17:00; We,Fr 08:00-13:30; PH closed', 'website': 'https://www.drapapa.com/', 'wheelchair': 'yes'}}"
"{'type': 'node', 'id': 6804163359, 'lat': 39.6682242, 'lon': -84.1648068, 'tags': {'amenity': 'social_facility', 'fax': '+19377325049', 'healthcare': 'doctor', 'level': '1', 'name': 'Sochi Home Health Agency LLC', 'opening_hours': 'Mo-Fr 09:00-16:30; PH closed', 'phone': '+19374344004', 'social_facility:for': 'senior', 'website': 'https://sochihomehealth.com/'}}"
"{'type': 'node', 'id': 6804163360, 'lat': 39.6683832, 'lon': -84.1646347, 'tags': {'amenity': 'dentist', 'healthcare': 'dentist', 'level': '2', 'name': 'Robert E. Van Etten D.D.S'}}"
"{'type': 'node', 'id': 6804163361, 'lat': 39.6684028, 'lon': -84.1646904, 'tags': {'amenity': 'doctors', 'healthcare': 'doctor', 'healthcare:speciality': 'chiropractic', 'level': '2', 'name': 'Alexander Chiropractic', 'phone': '+19374351194', 'wheelchair': 'yes'}}"
"{'type': 'node', 'id': 6804163362, 'lat': 39.6684441, 'lon': -84.1646926, 'tags': {'amenity': 'dentist', 'email': 'digitaldentalgroupllc@hotmail.com', 'fax': '+19377161132', 'healthcare': 'dentist', 'level': '1', 'name': 'Digital Dental Group', 'opening_hours': 'Mo,We 09:00-17:00; Fr 09:00-16:00; PH closed', 'phone': '+19377161130', 'wheelchair': 'yes'}}"
"{'type': 'node', 'id': 6818165966, 'lat': 39.0315432, 'lon': -84.4531293, 'tags': {'amenity': 'pharmacy', 'brand': 'Walgreens', 'brand:wikidata': 'Q1591889', 'dispensing': 'yes', 'healthcare': 'pharmacy', 'name': 'Walgreens'}}"
"{'type': 'node', 'id': 6818389762, 'lat': 39.2164353, 'lon': -84.5846564, 'tags': {'amenity': 'dentist', 'healthcare': 'dentist', 'name': '24/7 Dental'}}"
"{'type': 'node', 'id': 6842497081, 'lat': 39.4339557, 'lon': -84.190932, 'tags': {'amenity': 'pharmacy', 'dispensing': 'yes', 'healthcare': 'pharmacy', 'name': 'Bryan’s Family Pharmacy'}}"
"{'type': 'node', 'id': 6862922607, 'lat': 39.3351016, 'lon': -84.523239, 'tags': {'amenity': 'pharmacy', 'dispensing': 'yes', 'healthcare': 'pharmacy', 'level': '0', 'name': 'Jungle Jim’s Olde Fashioned Pharmacy', 'operator': 'Jungle Jim’s International Market'}}"
"{'type': 'node', 'id': 6862922609, 'lat': 39.3349769, 'lon': -84.5233395, 'tags': {'amenity': 'dentist', 'healthcare': 'dentist', 'level': '0', 'name': 'Family Dental Center'}}"
"{'type': 'node', 'id': 6862922611, 'lat': 39.335633, 'lon': -84.5227727, 'tags': {'amenity': 'doctors', 'healthcare': 'doctor', 'healthcare:speciality': 'paediatrics', 'level': '0', 'name': 'Pediatric Associates', 'website': 'https://pediatricassociates.us/'}}"
"{'type': 'node', 'id': 6868130114, 'lat': 39.6621777, 'lon': -84.1028406, 'tags': {'amenity': 'pharmacy', 'brand': 'Kroger Pharmacy', 'brand:wikidata': 'Q153417', 'dispensing': 'yes', 'drive_through': 'yes', 'healthcare': 'pharmacy', 'name': 'Kroger Pharmacy', 'website': 'https://www.kroger.com/stores/grocery/oh/centerville/centerville/014/00960'}}"
"{'type': 'node', 'id': 6874315571, 'lat': 39.7371774, 'lon': -84.085003, 'tags': {'amenity': 'dentist', 'healthcare': 'dentist', 'name': 'Brilliant Smiles', 'phone': '+19374293880'}}"
"{'type': 'node', 'id': 6879763130, 'lat': 39.669626, 'lon': -84.1624644, 'tags': {'amenity': 'doctors', 'healthcare': 'doctor', 'name': 'Dover Medical'}}"
"{'type': 'node', 'id': 6879992868, 'lat': 39.7634727, 'lon': -84.1685181, 'tags': {'addr:city': 'Dayton', 'addr:housenumber': '1725', 'addr:postcode': '45402', 'addr:state': 'OH', 'addr:street': 'East 3rd Street', 'email': 'info@ohiofullcircle.com', 'healthcare': 'rehabilitation', 'healthcare:speciality': 'substance_use', 'name': 'Full Circle Recovery Services', 'phone': '+1-937-387-6395', 'survey:date': '2019-10-10', 'website': 'https://ohiofullcircle.com/'}}"
"{'type': 'node', 'id': 6887718368, 'lat': 39.1251652, 'lon': -84.499609, 'tags': {'addiction': 'opioids;alcohol', 'addr:city': 'Cincinnati', 'addr:housenumber': '446', 'addr:postcode': '45206', 'addr:state': 'OH', 'addr:street': 'Morgan Street', 'amenity': 'clinic', 'brand': 'BrightView', 'healthcare': 'clinic', 'healthcare:speciality': 'addiction', 'name': 'BrightView', 'office': 'therapist', 'official_name': 'BrightView Cincinnati Addiction Treatment Center', 'operator': 'BrightView', 'operator:type': 'private', 'social_facility': 'healthcare', 'social_facility:for': 'drug_addicted', 'website': 'https://brightviewhealth.com/locations/cincinnati-addiction-treatment-center/'}}"
"{'type': 'node', 'id': 6900687321, 'lat': 39.1467923, 'lon': -84.6274258, 'tags': {'alt_name': 'Hoxworth West', 'healthcare': 'blood_donation', 'name': 'Hoxworth Blood Center', 'website': 'https://hoxworth.org/donors/locations/west.html'}}"
"{'type': 'node', 'id': 6900687322, 'lat': 39.1467652, 'lon': -84.627686, 'tags': {'amenity': 'doctors', 'brand': 'TriHealth Physician Partners', 'brand:wikidata': 'Q7839812', 'healthcare': 'doctor', 'name': 'The Family Medical Group', 'website': 'https://www.trihealth.com/hospitals-and-practices/the-family-medical-group'}}"
"{'type': 'node', 'id': 6907107659, 'lat': 38.9823356, 'lon': -84.6508542, 'tags': {'addr:city': 'Florence', 'addr:housenumber': '8193', 'addr:postcode': '41042', 'addr:state': 'KY', 'addr:street': 'Mall Road', 'amenity': 'pharmacy', 'brand': 'Walgreens', 'brand:wikidata': 'Q1591889', 'dispensing': 'yes', 'healthcare': 'pharmacy', 'name': 'Walgreens', 'ref': '5763'}}"
"{'type': 'node', 'id': 6907448179, 'lat': 38.9294106, 'lon': -84.5441991, 'tags': {'amenity': 'pharmacy', 'brand': 'Walgreens', 'brand:wikidata': 'Q1591889', 'dispensing': 'yes', 'healthcare': 'pharmacy', 'name': 'Walgreens'}}"
"{'type': 'node', 'id': 6913274867, 'lat': 39.6363876, 'lon': -84.3491072, 'tags': {'amenity': 'pharmacy', 'brand': 'CVS Pharmacy', 'brand:website': 'https://www.cvs.com/', 'brand:wikidata': 'Q2078880', 'brand:wikipedia': 'en:CVS Pharmacy', 'dispensing': 'yes', 'healthcare': 'pharmacy', 'name': 'CVS Pharmacy', 'short_name': 'CVS'}}"
"{'type': 'node', 'id': 6913357531, 'lat': 39.5628607, 'lon': -84.2767788, 'tags': {'addr:city': 'Franklin', 'addr:housenumber': '1300', 'addr:postcode': '45005', 'addr:state': 'OH', 'addr:street': 'East 2nd Street', 'amenity': 'pharmacy', 'brand': 'Walgreens', 'brand:wikidata': 'Q1591889', 'dispensing': 'yes', 'healthcare': 'pharmacy', 'name': 'Walgreens', 'ref': '9733'}}"
"{'type': 'node', 'id': 6916516835, 'lat': 39.4926128, 'lon': -84.3184966, 'tags': {'amenity': 'pharmacy', 'brand': 'CVS Pharmacy', 'brand:website': 'https://www.cvs.com/', 'brand:wikidata': 'Q2078880', 'brand:wikipedia': 'en:CVS Pharmacy', 'dispensing': 'yes', 'healthcare': 'pharmacy', 'name': 'CVS Pharmacy', 'short_name': 'CVS'}}"
"{'type': 'node', 'id': 6916520849, 'lat': 39.1889528, 'lon': -84.6023628, 'tags': {'addr:city': 'Cincinnati', 'addr:housenumber': '5403', 'addr:postcode': '45247', 'addr:state': 'OH', 'addr:street': 'North Bend Road', 'amenity': 'pharmacy', 'brand': 'Walgreens', 'brand:wikidata': 'Q1591889', 'dispensing': 'yes', 'healthcare': 'pharmacy', 'name': 'Walgreens', 'ref': '4245'}}"
"{'type': 'node', 'id': 6918495753, 'lat': 39.2511813, 'lon': -84.5973547, 'tags': {'amenity': 'dentist', 'brand': 'Aspen Dental', 'brand:wikidata': 'Q4807808', 'healthcare': 'dentist', 'name': 'Aspen Dental'}}"
"{'type': 'node', 'id': 6918495759, 'lat': 39.2521514, 'lon': -84.596729, 'tags': {'healthcare': 'alternative', 'healthcare:speciality': 'chiropractic', 'name': 'A Better Life Chiropractic'}}"
"{'type': 'node', 'id': 6919199884, 'lat': 39.2611775, 'lon': -84.5997317, 'tags': {'amenity': 'pharmacy', 'brand': 'Watsons', 'brand:wikidata': 'Q7974785', 'dispensing': 'yes', 'healthcare': 'pharmacy', 'name': 'Watsons'}}"
"{'type': 'node', 'id': 6919260504, 'lat': 39.2525207, 'lon': -84.6000515, 'tags': {'amenity': 'doctors', 'healthcare': 'urgent_care', 'name': 'Colerain Urgent Care'}}"
"{'type': 'node', 'id': 6919260508, 'lat': 39.2525475, 'lon': -84.6003978, 'tags': {'amenity': 'dentist', 'healthcare': 'dentist', 'name': 'Stone Creek Family Dental'}}"
"{'type': 'node', 'id': 6919260513, 'lat': 39.25261, 'lon': -84.6014867, 'tags': {'alt_name': 'Weight Watchers', 'brand': 'WW Studio', 'brand:wikidata': 'Q1929466', 'healthcare': 'counselling', 'healthcare:counselling': 'dietitian', 'healthcare:speciality': 'weight_loss', 'name': 'WW Studio'}}"
"{'type': 'node', 'id': 6919293372, 'lat': 39.2183993, 'lon': -84.5852911, 'tags': {'healthcare': 'alternative', 'healthcare:speciality': 'chiropractic', 'name': 'McCrossen Chiropractic & Therapy'}}"
"{'type': 'node', 'id': 6919297873, 'lat': 39.2245315, 'lon': -84.5882112, 'tags': {'amenity': 'doctors', 'healthcare': 'doctor', 'name': 'Hometown Urgent Care'}}"
"{'type': 'node', 'id': 6919300360, 'lat': 39.2227125, 'lon': -84.586557, 'tags': {'amenity': 'dentist', 'healthcare': 'dentist', 'name': 'ImmediaDent'}}"
"{'type': 'node', 'id': 6919419520, 'lat': 39.2964732, 'lon': -84.5235487, 'tags': {'healthcare': 'physiotherapist', 'name': 'Nova Care'}}"
"{'type': 'node', 'id': 6919419527, 'lat': 39.2956989, 'lon': -84.5199677, 'tags': {'amenity': 'dentist', 'healthcare': 'dentist', 'name': 'Affordable Dentures'}}"
"{'type': 'node', 'id': 6923762528, 'lat': 39.2872205, 'lon': -84.4725605, 'tags': {'amenity': 'doctors', 'healthcare': 'doctor', 'name': 'Mercy Health'}}"
"{'type': 'node', 'id': 6923767066, 'lat': 39.2892771, 'lon': -84.4674152, 'tags': {'amenity': 'dentist', 'healthcare': 'dentist', 'name': 'Asch Dental'}}"
"{'type': 'node', 'id': 6923769035, 'lat': 39.2850735, 'lon': -84.4845696, 'tags': {'amenity': 'pharmacy', 'dispensing': 'yes', 'healthcare': 'pharmacy', 'name': 'Econo Pharmacy'}}"
"{'type': 'node', 'id': 6923858741, 'lat': 39.1486027, 'lon': -84.4027685, 'tags': {'amenity': 'pharmacy', 'brand': 'Walmart', 'brand:wikidata': 'Q483551', 'dispensing': 'yes', 'healthcare': 'pharmacy', 'name': 'Walmart Pharmacy', 'website': 'https://www.walmart.com/store/2250-cincinnati-oh/pharmacy'}}"
"{'type': 'node', 'id': 6923877558, 'lat': 39.4256067, 'lon': -84.5994855, 'tags': {'amenity': 'pharmacy', 'brand': 'Walmart', 'brand:wikidata': 'Q483551', 'dispensing': 'yes', 'healthcare': 'pharmacy', 'name': 'Walmart Pharmacy', 'website': 'https://www.walmart.com/store/2441-hamilton-oh/pharmacy'}}"
"{'type': 'node', 'id': 6924054278, 'lat': 39.1862062, 'lon': -84.364514, 'tags': {'amenity': 'pharmacy', 'brand': 'Walgreens', 'brand:wikidata': 'Q1591889', 'dispensing': 'yes', 'drive_through': 'yes', 'healthcare': 'pharmacy', 'name': 'Walgreens'}}"
"{'type': 'node', 'id': 6925249068, 'lat': 39.2860736, 'lon': -84.4627266, 'tags': {'brand': 'Jenny Craig', 'brand:wikidata': 'Q6179221', 'healthcare': 'counselling', 'healthcare:counselling': 'dietitian', 'healthcare:speciality': 'weight_loss', 'name': 'Jenny Craig'}}"
"{'type': 'node', 'id': 6925260727, 'lat': 39.2874985, 'lon': -84.4662797, 'tags': {'amenity': 'dentist', 'brand': 'Aspen Dental', 'brand:wikidata': 'Q4807808', 'healthcare': 'dentist', 'name': 'Aspen Dental'}}"
"{'type': 'node', 'id': 6925815620, 'lat': 39.3196742, 'lon': -84.4244929, 'tags': {'amenity': 'dentist', 'healthcare': 'dentist', 'name': 'Urgent Dental'}}"
"{'type': 'node', 'id': 6925889131, 'lat': 39.3514271, 'lon': -84.3639558, 'tags': {'brand': 'Clarkson Eyecare', 'brand:wikidata': 'Q64027001', 'healthcare': 'optometrist', 'name': 'Clarkson Eyecare', 'shop': 'optician', 'short_name': 'Clarkson'}}"
"{'type': 'node', 'id': 6925918162, 'lat': 39.3580019, 'lon': -84.3650036, 'tags': {'brand': 'Quest Diagnostics', 'brand:wikidata': 'Q7271456', 'healthcare': 'laboratory', 'name': 'Quest Diagnostics'}}"
"{'type': 'node', 'id': 6925918168, 'lat': 39.3587809, 'lon': -84.3634863, 'tags': {'healthcare': 'alternative', 'healthcare:speciality': 'chiropractic', 'name': 'Baker Chiropractic'}}"
"{'type': 'node', 'id': 6928331619, 'lat': 39.4948275, 'lon': -84.3298854, 'tags': {'amenity': 'dentist', 'brand': 'Aspen Dental', 'brand:wikidata': 'Q4807808', 'healthcare': 'dentist', 'name': 'Aspen Dental'}}"
"{'type': 'node', 'id': 6928597078, 'lat': 39.5037576, 'lon': -84.3537598, 'tags': {'amenity': 'dentist', 'healthcare': 'dentist', 'name': 'All About Smiles'}}"
"{'type': 'node', 'id': 6928606787, 'lat': 39.5051445, 'lon': -84.3535781, 'tags': {'amenity': 'doctors', 'healthcare': 'doctor', 'name': 'CareFirst Urgent Care', 'wheelchair': 'yes'}}"
"{'type': 'node', 'id': 6943297939, 'lat': 39.637707, 'lon': -84.2259867, 'tags': {'amenity': 'dentist', 'brand': 'Bright Now! Dental', 'brand:wikidata': 'Q108286875', 'healthcare': 'dentist', 'name': 'Bright Now! Dental'}}"
"{'type': 'node', 'id': 6943309369, 'lat': 39.6353376, 'lon': -84.2151332, 'tags': {'amenity': 'dentist', 'brand': 'Aspen Dental', 'brand:wikidata': 'Q4807808', 'healthcare': 'dentist', 'name': 'Aspen Dental'}}"
"{'type': 'node', 'id': 6943312267, 'lat': 39.6415147, 'lon': -84.2266545, 'tags': {'amenity': 'dentist', 'healthcare': 'dentist', 'name': 'Affordable Dentures'}}"
"{'type': 'node', 'id': 6943767660, 'lat': 39.644503, 'lon': -84.1555408, 'tags': {'healthcare': 'alternative', 'healthcare:speciality': 'chiropractic', 'name': 'Freedom Family Chiropractic'}}"
"{'type': 'node', 'id': 6943767673, 'lat': 39.6453031, 'lon': -84.1541579, 'tags': {'healthcare': 'alternative', 'name': 'US Cryotherapy'}}"
"{'type': 'node', 'id': 6943987458, 'lat': 39.6374827, 'lon': -84.1083509, 'tags': {'amenity': 'pharmacy', 'dispensing': 'yes', 'healthcare': 'pharmacy', 'name': 'Discount Drug Mart'}}"
"{'type': 'node', 'id': 6944007458, 'lat': 39.6521917, 'lon': -84.1085197, 'tags': {'amenity': 'dentist', 'brand': 'Bright Now! Dental', 'brand:wikidata': 'Q108286875', 'healthcare': 'dentist', 'name': 'Bright Now! Dental'}}"
"{'type': 'node', 'id': 6944007461, 'lat': 39.6521863, 'lon': -84.1081263, 'tags': {'healthcare': 'laboratory', 'name': 'Peek a Boo HD Imaging'}}"
"{'type': 'node', 'id': 6944035114, 'lat': 39.6582468, 'lon': -84.1088451, 'tags': {'healthcare': 'alternative', 'healthcare:speciality': 'chiropractic', 'name': 'Gem City Chiropractic'}}"
"{'type': 'node', 'id': 6944035127, 'lat': 39.6596331, 'lon': -84.1067883, 'tags': {'amenity': 'doctors', 'healthcare': 'doctor', 'name': 'Medix Urgent Care'}}"
"{'type': 'node', 'id': 6944058020, 'lat': 39.6639687, 'lon': -84.1079662, 'tags': {'brand': 'Athletico Physical Therapy', 'brand:wikidata': 'Q85743525', 'healthcare': 'physiotherapist', 'name': 'Athletico Physical Therapy'}}"
"{'type': 'node', 'id': 6944185372, 'lat': 39.6930958, 'lon': -84.0999658, 'tags': {'amenity': 'doctors', 'healthcare': 'doctor', 'name': 'Pure M.D.'}}"
"{'type': 'node', 'id': 6946031253, 'lat': 39.7741972, 'lon': -84.079471, 'tags': {'amenity': 'dentist', 'healthcare': 'dentist'}}"
"{'type': 'node', 'id': 6946089800, 'lat': 39.0956508, 'lon': -84.2679942, 'tags': {'amenity': 'dentist', 'healthcare': 'dentist', 'name': 'Afinia Dental'}}"
"{'type': 'node', 'id': 6946267583, 'lat': 39.6642523, 'lon': -84.1596647, 'tags': {'amenity': 'dentist', 'healthcare': 'dentist', 'name': 'Rahn Dental Group'}}"
"{'type': 'node', 'id': 6946423751, 'lat': 39.7680678, 'lon': -84.0570906, 'tags': {'healthcare': 'alternative', 'level': '0', 'name': 'Heartfullness Center'}}"
"{'type': 'node', 'id': 6952361103, 'lat': 39.0523074, 'lon': -84.5765339, 'tags': {'amenity': 'pharmacy', 'brand': 'Walgreens', 'brand:wikidata': 'Q1591889', 'dispensing': 'yes', 'healthcare': 'pharmacy', 'name': 'Walgreens'}}"
"{'type': 'node', 'id': 7015771001, 'lat': 39.682889, 'lon': -84.1687826, 'tags': {'addr:city': 'Dayton', 'addr:housenumber': '4441', 'addr:street': 'Far Hills Avenue', 'amenity': 'doctors', 'healthcare': 'doctor', 'name': 'Primary Care Far Hills', 'operator': 'Kettering Physician Network', 'phone': '+1 937-298-7351'}}"
"{'type': 'node', 'id': 7106354417, 'lat': 39.0356382, 'lon': -84.561486, 'tags': {'amenity': 'dentist', 'healthcare': 'dentist', 'healthcare:speciality': 'family_dentistry;cosmetic_dentistry'}}"
"{'type': 'node', 'id': 7149258762, 'lat': 39.0458523, 'lon': -84.2430064, 'tags': {'addr:city': 'Amelia', 'addr:housenumber': '1268', 'addr:postcode': '45102', 'addr:state': 'OH', 'addr:street': 'Ohio Pike', 'addr:unit': 'A', 'amenity': 'dentist', 'email': 'buckeyedentalcare16@gmail.com', 'fax': '+1-513-752-3481', 'healthcare': 'dentist', 'healthcare:speciality': 'orthodontics;dentist;dentistry', 'name': 'Buckeye Dental Care', 'opening_hours': 'Mo 09:00-15:00; Tu,Th 09:00-13:00,14:00-17:00; We 10:00-13:00,14:00-18:00; Fr 08:00-14:00; Sa,Su closed', 'operator': 'Ghulam Fareed', 'payment:american_express': 'yes', 'payment:care_credit': 'yes', 'payment:cash': 'yes', 'payment:cheque': 'yes', 'payment:discover_card': 'yes', 'payment:mastercard': 'yes', 'payment:visa': 'yes', 'phone': '+1-513-947-2273', 'start_date': '2016', 'website': 'https://www.buckeyedentalohio.com'}}"
"{'type': 'node', 'id': 7262946135, 'lat': 39.3017548, 'lon': -84.3067237, 'tags': {'addr:city': 'Mason', 'addr:housenumber': '4605', 'addr:postcode': '45040', 'addr:state': 'OH', 'addr:street': 'Duke Drive', 'addr:unit': '220', 'email': 'info@queencitycare.com', 'healthcare': 'hospice', 'name': 'Queen City Hospice', 'opening_hours': '24/7', 'phone': '+1-513-510-4406', 'website': 'https://www.queencityhospice.com/'}}"
"{'type': 'node', 'id': 7263632641, 'lat': 39.629034, 'lon': -84.1980811, 'tags': {'addr:city': 'Dayton', 'addr:housenumber': '8039', 'addr:postcode': '45458', 'addr:state': 'OH', 'addr:street': 'Washington Village Drive', 'email': 'info@daycityhospice.com', 'healthcare': 'hospice', 'name': 'Day City Hospice', 'opening_hours': '24/7', 'phone': '+1-937-404-5490', 'website': 'https://daycityhospice.com/'}}"
"{'type': 'node', 'id': 7304671448, 'lat': 39.7747247, 'lon': -84.0659688, 'tags': {'addr:city': 'Fairborn', 'addr:housenumber': '2555', 'addr:state': 'OH', 'addr:street': 'University Boulevard', 'addr:unit': '1st Floor', 'amenity': 'clinic', 'healthcare': 'clinic', 'healthcare:speciality': 'psychiatry', 'name': 'Wright State Physicians Psychiatry Department', 'opening_hours': 'Mo-Fr 08:30-17:00'}}"
"{'type': 'node', 'id': 7310634237, 'lat': 39.7455516, 'lon': -84.1262524, 'tags': {'addr:city': 'Dayton', 'addr:postcode': '45432', 'addr:state': 'OH', 'addr:street': 'Linden Avenue', 'amenity': 'pharmacy', 'brand': 'CVS Pharmacy', 'brand:website': 'https://www.cvs.com/', 'brand:wikidata': 'Q2078880', 'brand:wikipedia': 'en:CVS Pharmacy', 'dispensing': 'yes', 'healthcare': 'pharmacy', 'name': 'CVS Pharmacy', 'short_name': 'CVS'}}"
"{'type': 'node', 'id': 7315997873, 'lat': 39.6889865, 'lon': -84.1436917, 'tags': {'amenity': 'doctors', 'healthcare': 'doctor', 'name': 'South Dayton Hearing Aids & Audiology', 'phone': '+1-937-299-2004', 'website': 'https://www.sdhaudiology.com/'}}"
"{'type': 'node', 'id': 7315997883, 'lat': 39.6889756, 'lon': -84.1427269, 'tags': {'addr:city': 'Kettering', 'addr:housenumber': '1349', 'addr:postcode': '45429', 'addr:state': 'OH', 'addr:street': 'East Stroop Road', 'amenity': 'doctors', 'healthcare': 'doctor', 'healthcare:speciality': 'psychiatry;child_psychiatry;mental_health;psychotherapist', 'name': 'South Community', 'website': 'https://www.southcommunity.com/'}}"
"{'type': 'node', 'id': 7323275112, 'lat': 39.7524352, 'lon': -84.1373286, 'tags': {'addr:city': 'Dayton', 'addr:housenumber': '1042', 'addr:postcode': '45403', 'addr:state': 'OH', 'addr:street': 'South Smithville Road', 'amenity': 'dentist', 'brand': 'Bright Now! Dental', 'brand:wikidata': 'Q108286875', 'healthcare': 'dentist', 'name': 'Bright Now! Dental', 'phone': '+1-937-258-0075', 'website': 'https://www.brightnow.com/dentist-near-me/dayton-dentist/24050'}}"
"{'type': 'node', 'id': 7447214003, 'lat': 39.7621917, 'lon': -84.0584635, 'tags': {'amenity': 'clinic', 'healthcare': 'clinic', 'name': 'Beavercreek Health Center', 'operator': 'Kettering Health Network'}}"
"{'type': 'node', 'id': 7447214005, 'lat': 39.7593434, 'lon': -84.0561901, 'tags': {'healthcare': 'alternative', 'healthcare:speciality': 'chiropractic', 'name': 'Dr. Sarah Teague'}}"
"{'type': 'node', 'id': 7447214006, 'lat': 39.758672, 'lon': -84.0564568, 'tags': {'amenity': 'doctors', 'healthcare': 'doctor', 'healthcare:speciality': 'allergology', 'name': 'Allergy & Asthma Associates'}}"
"{'type': 'node', 'id': 7447214010, 'lat': 39.7587496, 'lon': -84.056371, 'tags': {'amenity': 'doctors', 'healthcare': 'doctor', 'healthcare:speciality': 'dermatology', 'name': 'Advanced Dermatology of Ohio'}}"
"{'type': 'node', 'id': 7447214023, 'lat': 39.7592463, 'lon': -84.056028, 'tags': {'amenity': 'dentist', 'healthcare': 'dentist', 'name': 'Beavercreek Dental Group'}}"
"{'type': 'node', 'id': 7447214025, 'lat': 39.7559334, 'lon': -84.055876, 'tags': {'amenity': 'doctors', 'healthcare': 'doctor', 'healthcare:speciality': 'orthodontics', 'name': 'Beavercreek Orthodontics'}}"
"{'type': 'node', 'id': 7447214029, 'lat': 39.758266, 'lon': -84.0548604, 'tags': {'amenity': 'doctors', 'healthcare': 'doctor', 'healthcare:speciality': 'Psychologist', 'name': 'Robert J. Kurzhals Clinical Psychologist'}}"
"{'type': 'node', 'id': 7447214036, 'lat': 39.759643, 'lon': -84.0549297, 'tags': {'healthcare': 'nurse', 'name': 'Clincare Home Health'}}"
"{'type': 'node', 'id': 7447214040, 'lat': 39.7584583, 'lon': -84.0542131, 'tags': {'amenity': 'doctors', 'healthcare': 'doctor', 'name': 'Smith Orthodontics'}}"
"{'type': 'node', 'id': 7496263749, 'lat': 39.3100449, 'lon': -85.2159504, 'tags': {'amenity': 'clinic', 'healthcare': 'clinic', 'name': 'AccuDoc Urgent Care', 'operator': 'AccuDoc Urgent Care', 'operator:type': 'private_for_profit', 'urgent_care': 'yes', 'walk-in': 'yes'}}"
"{'type': 'node', 'id': 7527375414, 'lat': 39.7542075, 'lon': -84.0586361, 'tags': {'amenity': 'doctors', 'healthcare': 'doctor', 'name': 'Beavercreek Health Park Primary Care'}}"
"{'type': 'node', 'id': 7527375415, 'lat': 39.7548344, 'lon': -84.0586388, 'tags': {'amenity': 'doctors', 'healthcare': 'doctor', 'name': 'Kettering Health Network Urgent Care'}}"
"{'type': 'node', 'id': 7556827680, 'lat': 39.7333008, 'lon': -84.066145, 'tags': {'amenity': 'dentist', 'healthcare': 'dentist', 'name': 'Beavercreek Family Dental'}}"
"{'type': 'node', 'id': 7556871205, 'lat': 39.7339845, 'lon': -84.0670624, 'tags': {'amenity': 'doctors', 'healthcare': 'doctor', 'name': 'Buckeye Heart & Vascular Institutel'}}"
"{'type': 'node', 'id': 7556871208, 'lat': 39.7306637, 'lon': -84.0610805, 'tags': {'amenity': 'dentist', 'healthcare': 'dentist', 'name': 'S. Marc DiBenedetto D.D.S. Family Dentistry'}}"
"{'type': 'node', 'id': 7556871211, 'lat': 39.733828, 'lon': -84.0671803, 'tags': {'amenity': 'doctors', 'healthcare': 'doctor', 'healthcare:speciality': 'dermatology', 'name': 'Beavercreek Dermatology'}}"
"{'type': 'node', 'id': 7594376485, 'lat': 39.0880365, 'lon': -84.5077075, 'tags': {'addr:city': 'Covington', 'addr:housenumber': '322', 'addr:postcode': '41011', 'addr:state': 'KY', 'addr:street': 'Greenup Street', 'amenity': 'dentist', 'description': 'Located in the historic riverside district in Covington, NY, Applegate Dentistry is your top choice for comprehensive, spa-like dentistry! Dr. Barry Applegate and his friendly staff will help you gain the confidence of a brighter smile and optimal dental', 'healthcare': 'dentist', 'healthcare:speciality': 'dentistry', 'name': 'Applegate Dentistry & Medspa', 'opening_hours': 'Mo 12:00-19:00; Tu 08:00-17:00; We 08:00-17:00; Th 08:00-17:00', 'operator': 'Dr. Barry Applegate DMD', 'phone': '+1 859-291-8600', 'website': 'https://www.drbarryapplegate.com/'}}"
"{'type': 'node', 'id': 7594472617, 'lat': 38.9419038, 'lon': -84.5441829, 'tags': {'amenity': 'doctors', 'healthcare': 'doctor', 'name': 'Independence Family Practice', 'website': 'https://independencefamilypractice.com/'}}"
"{'type': 'node', 'id': 7594472620, 'lat': 38.941065, 'lon': -84.5442647, 'tags': {'amenity': 'dentist', 'healthcare': 'dentist', 'name': 'Independence Family Dentistry'}}"
"{'type': 'node', 'id': 7638292934, 'lat': 39.7579853, 'lon': -84.051348, 'tags': {'healthcare': 'laboratory', 'name': 'CompuNet'}}"
"{'type': 'node', 'id': 7638292937, 'lat': 39.7620942, 'lon': -84.0526291, 'tags': {'amenity': 'clinic', 'healthcare': 'clinic', 'healthcare:speciality': 'general', 'name': 'Premier Health Urgent Care'}}"
"{'type': 'node', 'id': 7638292944, 'lat': 39.7579927, 'lon': -84.0515812, 'tags': {'amenity': 'doctors', 'healthcare': 'doctor', 'healthcare:speciality': 'general', 'name': 'Premier Health'}}"
"{'type': 'node', 'id': 7787687262, 'lat': 39.7762057, 'lon': -84.1833833, 'tags': {'addr:city': 'Dayton', 'addr:housenumber': '901', 'addr:postcode': '45404', 'addr:state': 'OH', 'addr:street': 'North Keowee Street', 'healthcare': 'alternative', 'healthcare:speciality': 'reiki;aromatherapy;oxygen_bar;light_therapy', 'name': 'Mindful Magic', 'phone': '+1-937-313-6585', 'survey:date': '2020-08-04', 'website': 'https://jadesgems.art/'}}"
"{'type': 'node', 'id': 7859216612, 'lat': 39.7668189, 'lon': -84.060395, 'tags': {'amenity': 'doctors', 'healthcare': 'doctor', 'healthcare:speciality': 'cardiology', 'name': 'Premeir Cardiovascular Institute'}}"
"{'type': 'node', 'id': 7859216613, 'lat': 39.7673679, 'lon': -84.0601749, 'tags': {'amenity': 'doctors', 'healthcare': 'doctor', 'healthcare:speciality': 'general', 'name': 'Family Health Connections Inc'}}"
"{'type': 'node', 'id': 7859216618, 'lat': 39.7652977, 'lon': -84.0605686, 'tags': {'amenity': 'doctors', 'healthcare': 'doctor', 'name': 'Bone & Joint Surgeons'}}"
"{'type': 'node', 'id': 7859216619, 'lat': 39.7675215, 'lon': -84.0601616, 'tags': {'amenity': 'doctors', 'healthcare': 'doctor', 'name': 'DeVore Katz Michaelson ENT'}}"
"{'type': 'node', 'id': 7859216625, 'lat': 39.7757313, 'lon': -84.0647525, 'tags': {'amenity': 'clinic', 'brand': 'DaVita Dialysis', 'healthcare': 'dialysis', 'healthcare:speciality': 'dialysis', 'name': 'DaVita Dialysis'}}"
"{'type': 'node', 'id': 7859216644, 'lat': 39.7677109, 'lon': -84.0601748, 'tags': {'healthcare': 'rehabilitation', 'name': 'Nova Care Rehabilitation'}}"
"{'type': 'node', 'id': 7859216648, 'lat': 39.7674519, 'lon': -84.0601676, 'tags': {'amenity': 'doctors', 'healthcare': 'doctor', 'name': 'Centerville Hearing Associates'}}"
"{'type': 'node', 'id': 7859282136, 'lat': 39.1260946, 'lon': -84.4945731, 'tags': {'addr:city': 'Cincinnati', 'addr:housenumber': '711', 'addr:postcode': '45206', 'addr:state': 'OH', 'addr:street': 'East McMillan Street', 'email': 'ajadc66@hotmail.com', 'healthcare': 'alternative', 'healthcare:speciality': 'chiropractic', 'name': 'Clifton Chiropractic', 'phone': '+1-513-559-1200'}}"
"{'type': 'node', 'id': 7879150784, 'lat': 39.1308507, 'lon': -84.1026496, 'tags': {'addr:city': 'Batavia', 'addr:housenumber': '5327', 'addr:postcode': '45103', 'addr:state': 'OH', 'addr:street': 'Newtonsville Hutchinson Road', 'healthcare': 'centre', 'name': 'Clermont Northeastern School Health Center', 'opening_hours': 'Mo-Fr 07:30-16:30', 'operator': 'MercyHealth', 'website': 'https://www.cneschools.org/o/clermont-northeastern-schools/page/school-based-health-care--3'}}"
"{'type': 'node', 'id': 7918124851, 'lat': 39.7235428, 'lon': -84.1497747, 'tags': {'amenity': 'clinic', 'healthcare': 'clinic', 'name': 'Patterson Park Health Center'}}"
"{'type': 'node', 'id': 7990376104, 'lat': 39.8212646, 'lon': -84.0199959, 'tags': {'addr:city': 'Fairborn', 'addr:housenumber': '26', 'addr:postcode': '45324', 'addr:state': 'OH', 'addr:street': 'East Main Street', 'amenity': 'dentist', 'healthcare': 'dentist', 'name': 'M.A. Blumenschein Family Dentistry', 'survey:date': '2020-10-08'}}"
"{'type': 'node', 'id': 8038445601, 'lat': 39.2165565, 'lon': -84.5174625, 'tags': {'amenity': 'pharmacy', 'brand': 'Walgreens', 'brand:wikidata': 'Q1591889', 'dispensing': 'yes', 'healthcare': 'pharmacy', 'name': 'Walgreens'}}"
"{'type': 'node', 'id': 8144611939, 'lat': 39.7251375, 'lon': -84.0515883, 'tags': {'addr:city': 'Beavercreek', 'addr:housenumber': '1244', 'addr:postcode': '45434', 'addr:state': 'OH', 'addr:street': 'Meadow Bridge Drive', 'check_date': '2024-10-04', 'healthcare': 'yes', 'name': 'Beavercreek Family Physicians', 'operator': 'Premier Health', 'phone': '+1-937-208-7600'}}"
"{'type': 'node', 'id': 8224870484, 'lat': 39.625171, 'lon': -84.2003853, 'tags': {'addr:city': 'Centerville', 'addr:housenumber': '8371', 'addr:postcode': '45458', 'addr:state': 'OH', 'addr:street': 'Yankee Street', 'amenity': 'clinic', 'healthcare': 'clinic', 'name': 'Lung Center of America', 'website': 'https://www.lungcenterofamerica.org/'}}"
"{'type': 'node', 'id': 8224923920, 'lat': 39.6252201, 'lon': -84.200579, 'tags': {'addr:city': 'Centerville', 'addr:housenumber': '8367', 'addr:postcode': '45458', 'addr:state': 'OH', 'addr:street': 'Yankee Street', 'amenity': 'clinic', 'healthcare': 'clinic', 'name': 'Ace Dermatology', 'website': 'https://www.acederm.com/'}}"
"{'type': 'node', 'id': 8224923921, 'lat': 39.6250217, 'lon': -84.2003183, 'tags': {'addr:city': 'Centerville', 'addr:housenumber': '8375', 'addr:postcode': '45458', 'addr:state': 'OH', 'addr:street': 'Yankee Street', 'amenity': 'clinic', 'healthcare': 'clinic', 'name': 'Spire Health Center', 'website': 'https://spirehealthcenter.com/'}}"
"{'type': 'node', 'id': 8224923923, 'lat': 39.624263, 'lon': -84.2002198, 'tags': {'addr:city': 'Centerville', 'addr:housenumber': '8439', 'addr:postcode': '45458', 'addr:state': 'OH', 'addr:street': 'Yankee Street', 'amenity': 'clinic', 'healthcare': 'clinic', 'name': 'Dayton Sinus Institute', 'website': 'https://daytonsinusinstitute.com/'}}"
"{'type': 'node', 'id': 8224923924, 'lat': 39.62451, 'lon': -84.2002439, 'tags': {'addr:city': 'Centerville', 'addr:housenumber': '8419', 'addr:postcode': '45458', 'addr:state': 'OH', 'addr:street': 'Yankee Street', 'amenity': 'clinic', 'healthcare': 'clinic', 'name': 'Facial Aesthetics of Dayton', 'website': 'https://bestfaceofdayton.com/'}}"
"{'type': 'node', 'id': 8268221305, 'lat': 39.625368, 'lon': -84.1984992, 'tags': {'addr:city': 'Centerville', 'addr:housenumber': '1504', 'addr:postcode': '45458', 'addr:state': 'OH', 'addr:street': 'Yankee Park Place', 'amenity': 'clinic', 'healthcare': 'clinic', 'name': 'Integrative Physical Medicine of Dayton', 'website': 'https://www.ipmdohio.com/'}}"
"{'type': 'node', 'id': 8268221306, 'lat': 39.6251063, 'lon': -84.198472, 'tags': {'addr:city': 'Centerville', 'addr:housenumber': '1516', 'addr:postcode': '45458', 'addr:state': 'OH', 'addr:street': 'Yankee Park Place', 'amenity': 'clinic', 'healthcare': 'clinic', 'name': 'Contemporary Pediatrics', 'website': 'https://www.provmedgroup.com/contemporarypediatrics.html'}}"
"{'type': 'node', 'id': 8272151785, 'lat': 39.6271449, 'lon': -84.2078356, 'tags': {'addr:city': 'Miamisburg', 'addr:housenumber': '2029', 'addr:postcode': '45342', 'addr:state': 'OH', 'addr:street': 'Lyons Road', 'amenity': 'clinic', 'healthcare': 'clinic', 'name': 'Apria Healthcare', 'website': 'https://www.apria.com/'}}"
"{'type': 'node', 'id': 8272707480, 'lat': 39.6201023, 'lon': -84.2226354, 'tags': {'addr:city': 'Miamisburg', 'addr:housenumber': '3449', 'addr:postcode': '45342', 'addr:state': 'OH', 'addr:street': 'Newmark Drive', 'addr:unit': '200', 'amenity': 'clinic', 'healthcare': 'clinic', 'healthcare:speciality': 'paediatrics', 'name': 'ABC Pediatric Therapy Network', 'website': 'https://www.abcpediatrictherapy.com/'}}"
"{'type': 'node', 'id': 8274439549, 'lat': 39.6201597, 'lon': -84.2227816, 'tags': {'addr:city': 'Miamisburg', 'addr:housenumber': '3451', 'addr:postcode': '45342', 'addr:state': 'OH', 'addr:street': 'Newmark Drive', 'amenity': 'clinic', 'healthcare': 'clinic', 'healthcare:speciality': 'radiology', 'name': 'Kettering Network Radiologists, Inc.', 'website': 'http://www.kriview.com/'}}"
"{'type': 'node', 'id': 8275180066, 'lat': 39.6290179, 'lon': -84.2253436, 'tags': {'addr:city': 'Miamisburg', 'addr:housenumber': '8316', 'addr:postcode': '45342', 'addr:state': 'OH', 'addr:street': 'Springboro Pike', 'brand': 'Athletico Physical Therapy', 'brand:wikidata': 'Q85743525', 'healthcare': 'physiotherapist', 'name': 'Athletico Physical Therapy', 'website': 'https://www.athletico.com/locations/dayton-south/'}}"
"{'type': 'node', 'id': 8282910707, 'lat': 39.1930713, 'lon': -84.3995254, 'tags': {'amenity': 'pharmacy', 'brand': 'CVS Pharmacy', 'brand:website': 'https://www.cvs.com/', 'brand:wikidata': 'Q2078880', 'brand:wikipedia': 'en:CVS Pharmacy', 'dispensing': 'yes', 'healthcare': 'pharmacy', 'name': 'CVS Pharmacy', 'short_name': 'CVS', 'website': 'https://www.cvs.com/store-locator/cincinnati-oh-pharmacies/7314-montgomery-rd-cincinnati-oh-45236/storeid=2764'}}"
"{'type': 'node', 'id': 8521158581, 'lat': 39.3133463, 'lon': -84.5163311, 'tags': {'addr:housenumber': '3050', 'addr:street': 'Mack', 'healthcare': 'yes', 'name': 'Mercy medical building'}}"
"{'type': 'node', 'id': 8544824498, 'lat': 39.728442, 'lon': -84.0564307, 'tags': {'addr:housenumber': '1342', 'addr:street': 'North Fairfield Road', 'addr:unit': 'B', 'healthcare': 'alternative', 'healthcare:speciality': 'ayurveda', 'name': 'Ayurveda Natural Health Center'}}"
"{'type': 'node', 'id': 8544886353, 'lat': 39.7299629, 'lon': -84.0565992, 'tags': {'healthcare': 'home', 'name': 'Aylin Six Angles'}}"
"{'type': 'node', 'id': 8544886358, 'lat': 39.7299485, 'lon': -84.0562665, 'tags': {'healthcare': 'audiologist', 'name': 'Acute Hearing'}}"
"{'type': 'node', 'id': 8556933212, 'lat': 39.3391088, 'lon': -84.5563379, 'tags': {'addr:housenumber': '5150', 'addr:street': 'Sandy Ln', 'healthcare': 'yes', 'name': 'Mercy Health Physicians'}}"
"{'type': 'node', 'id': 8558243136, 'lat': 39.6825363, 'lon': -84.1687093, 'tags': {'addr:housenumber': '4475', 'addr:street': 'Far Hills Avenue', 'healthcare': 'laboratory', 'name': ""Dayton Children's Lab & Imaging""}}"
"{'type': 'node', 'id': 8558273057, 'lat': 39.6834258, 'lon': -84.168841, 'tags': {'addr:housenumber': '4403', 'addr:street': 'Far Hills Avenue', 'amenity': 'doctors', 'healthcare': 'doctor', 'healthcare:speciality': 'general', 'name': 'Kettering Sports Medicine'}}"
"{'type': 'node', 'id': 8558331301, 'lat': 39.681903, 'lon': -84.1686695, 'tags': {'addr:city': 'Dayton', 'addr:housenumber': '4491', 'addr:street': 'Far Hills Avenue', 'amenity': 'dentist', 'healthcare': 'dentist', 'name': 'Merit Dental'}}"
"{'type': 'node', 'id': 8640177848, 'lat': 39.2911987, 'lon': -84.2974165, 'tags': {'addr:city': 'Loveland', 'addr:housenumber': '9520', 'addr:postcode': '45140', 'addr:state': 'OH', 'addr:street': 'Fields Ertel Road', 'amenity': 'pharmacy', 'brand': 'Walgreens', 'brand:wikidata': 'Q1591889', 'dispensing': 'yes', 'drive_through': 'yes', 'healthcare': 'pharmacy', 'name': 'Walgreens', 'ref': '3792'}}"
"{'type': 'node', 'id': 8659567400, 'lat': 39.3037282, 'lon': -84.3136064, 'tags': {'addr:street': 'Parkway Drive', 'amenity': 'clinic', 'healthcare': 'clinic', 'name': 'Proscan Imaging'}}"
"{'type': 'node', 'id': 8691192070, 'lat': 39.306534, 'lon': -84.3182847, 'tags': {'addr:city': 'Mason', 'addr:housenumber': '5485', 'addr:postcode': '45040', 'addr:state': 'OH', 'addr:street': 'Deerfield Boulevard', 'beauty': 'spa;massage;skin_care;nails;waxing', 'healthcare': 'clinic', 'healthcare:for': 'women', 'healthcare:speciality': 'ultrasound', 'name': 'Becoming Mom', 'shop': 'beauty', 'survey:date': '2021-03-27', 'website': 'https://www.becomingmomspa.com/'}}"
"{'type': 'node', 'id': 8722059016, 'lat': 39.6408911, 'lon': -84.1605874, 'tags': {'addr:city': 'Centerville', 'addr:housenumber': '7034', 'addr:state': 'OH', 'addr:street': 'Corporate Way', 'healthcare': 'optometrist', 'healthcare:speciality': 'ophthalmology', 'name': 'Comprehensive Eye Care'}}"
"{'type': 'node', 'id': 8860522408, 'lat': 39.3529177, 'lon': -84.3061265, 'tags': {'addr:housenumber': '6030', 'addr:street': 'Mason Montgomery', 'healthcare': 'doctor', 'healthcare:speciality': 'internal_medicine', 'name': 'Group Health Mason'}}"
"{'type': 'node', 'id': 8902791044, 'lat': 39.3189866, 'lon': -84.3136386, 'tags': {'amenity': 'dentist', 'healthcare': 'dentist', 'name': 'Pacific Dental'}}"
"{'type': 'node', 'id': 8922956756, 'lat': 39.1101426, 'lon': -84.4783986, 'tags': {'addr:city': 'Dayton', 'addr:housenumber': '201', 'addr:postcode': '41074', 'addr:state': 'KY', 'addr:street': '6th Avenue', 'amenity': 'pharmacy', 'healthcare': 'pharmacy', 'name': 'Avenue Pharmacy', 'opening_hours': 'Mo-Fr 09:00-19:00; Sa 09:00-16:00; Su off', 'phone': '+1-859-491-1700'}}"
"{'type': 'node', 'id': 8944633646, 'lat': 39.1066206, 'lon': -84.4827125, 'tags': {'amenity': 'dentist', 'healthcare': 'dentist', 'healthcare:speciality': 'paediatric_dentistry', 'name': 'Bellevue Family Dentistry', 'phone': '+1-859-291-7621'}}"
"{'type': 'node', 'id': 8944633665, 'lat': 39.102997, 'lon': -84.4808004, 'tags': {'health_facility:type': 'office', 'healthcare': 'psychotherapist', 'name': 'MWC Mainspring', 'phone': '+1-859-349-0700', 'website': 'https://www.mainspringnky.com/'}}"
"{'type': 'node', 'id': 8960915882, 'lat': 38.962441, 'lon': -84.6786636, 'tags': {'amenity': 'dentist', 'healthcare': 'dentist', 'name': 'Pacific Dental'}}"
"{'type': 'node', 'id': 8980700774, 'lat': 39.1108181, 'lon': -84.4769702, 'tags': {'addr:city': 'Dayton', 'addr:postcode': '41074', 'addr:state': 'KY', 'addr:street': '6th Avenue', 'healthcare': 'podiatrist', 'name': 'America’s Foot Center', 'phone': '+1-859-757-8262'}}"
"{'type': 'node', 'id': 9089001325, 'lat': 39.1311901, 'lon': -84.5149533, 'tags': {'amenity': 'pharmacy', 'dispensing': 'yes', 'drive_through': 'no', 'healthcare': 'pharmacy', 'name': 'University Health Services', 'website': 'https://med.uc.edu/landing-pages/university-health'}}"
"{'type': 'node', 'id': 9089001326, 'lat': 39.1313212, 'lon': -84.514956, 'tags': {'healthcare': 'clinic', 'name': 'University Health Services', 'website': 'https://med.uc.edu/landing-pages/university-health'}}"
"{'type': 'node', 'id': 9142838631, 'lat': 39.2316863, 'lon': -84.3762365, 'tags': {'amenity': 'pharmacy', 'brand': 'Walgreens', 'brand:wikidata': 'Q1591889', 'dispensing': 'yes', 'drive_through': 'yes', 'healthcare': 'pharmacy', 'name': 'Walgreens'}}"
"{'type': 'node', 'id': 9196656242, 'lat': 38.9910373, 'lon': -84.6521838, 'tags': {'addr:city': 'Florence', 'addr:housenumber': '7921', 'addr:postcode': '41042', 'addr:state': 'KY', 'addr:street': 'Mall Road', 'addr:unit': 'Suite B', 'email': 'arnettvisioncare@yahoo.com', 'fax': '+18595250297', 'healthcare': 'optometrist', 'name': 'Arnett Vision Care', 'opening_hours': 'Mo 09:00-17:00; Tu,Th 09:30-17:00; We 10:00-17:30; Fr 09:00-16:00; Sa 09:00-13:00', 'operator': 'Dr. Kimberly Arnett', 'phone': '+18595250234', 'website': 'https://www.arnettvisioncare.com/contact.html'}}"
"{'type': 'node', 'id': 9198170953, 'lat': 39.7675845, 'lon': -84.6337401, 'tags': {'amenity': 'pharmacy', 'brand': 'Walmart', 'brand:wikidata': 'Q483551', 'dispensing': 'yes', 'healthcare': 'pharmacy', 'name': 'Walmart Pharmacy', 'website': 'https://www.walmart.com/store/5374-eaton-oh/pharmacy'}}"
"{'type': 'node', 'id': 9276440950, 'lat': 39.0967441, 'lon': -84.2675056, 'tags': {'amenity': 'dentist', 'brand': 'Aspen Dental', 'brand:wikidata': 'Q4807808', 'healthcare': 'dentist', 'name': 'Aspen Dental'}}"
"{'type': 'node', 'id': 9333153407, 'lat': 39.2898537, 'lon': -84.5226316, 'tags': {'addr:city': 'Forest Park', 'addr:housenumber': '1198', 'addr:postcode': '45240', 'addr:street': 'West Kemper Road', 'amenity': 'clinic', 'dispensing': 'yes', 'healthcare': 'dialysis', 'healthcare:speciality': 'nephrology', 'name': 'Liberty Dialysis', 'not:brand:wikidata': 'Q1591889'}}"
"{'type': 'node', 'id': 9339303734, 'lat': 39.001201, 'lon': -84.6398409, 'tags': {'healthcare': 'alternative', 'healthcare:speciality': 'chiropractic', 'name': 'Rettay Chiropractor'}}"
"{'type': 'node', 'id': 9346162958, 'lat': 39.0421571, 'lon': -84.5069271, 'tags': {'addr:city': 'Covington', 'addr:housenumber': '3299', 'addr:postcode': '41015', 'addr:state': 'KY', 'addr:street': 'Winston Avenue', 'amenity': 'pharmacy', 'brand': 'Walgreens', 'brand:wikidata': 'Q1591889', 'dispensing': 'yes', 'healthcare': 'pharmacy', 'name': 'Walgreens', 'ref': '13055'}}"
"{'type': 'node', 'id': 9349072325, 'lat': 38.9728705, 'lon': -84.661122, 'tags': {'addr:city': 'Florence', 'addr:housenumber': '8453', 'addr:postcode': '41042', 'addr:state': 'KY', 'addr:street': 'US Highway 42', 'amenity': 'pharmacy', 'brand': 'CVS Pharmacy', 'brand:website': 'https://www.cvs.com/', 'brand:wikidata': 'Q2078880', 'brand:wikipedia': 'en:CVS Pharmacy', 'dispensing': 'yes', 'healthcare': 'pharmacy', 'name': 'CVS Pharmacy', 'ref': '7648', 'short_name': 'CVS', 'website': 'https://www.cvs.com/store-locator/florence-ky-pharmacies/8559-us-42-hwy-florence-ky-41042/storeid=7648'}}"
"{'type': 'node', 'id': 9359949241, 'lat': 39.19559, 'lon': -84.236221, 'tags': {'amenity': 'clinic', 'healthcare': 'clinic', 'name': 'Hometown Urgent Care', 'urgent_care': 'yes'}}"
"{'type': 'node', 'id': 9359949244, 'lat': 39.1945767, 'lon': -84.2393715, 'tags': {'amenity': 'dentist', 'healthcare': 'dentist', 'name': 'Cincinnati Dental Services', 'short_name': 'CDS', 'website': 'https://www.cincinnatidentalservices.com/practices/cincinnati-dental-services-milford/'}}"
"{'type': 'node', 'id': 9395747935, 'lat': 40.052981, 'lon': -84.2392367, 'tags': {'addr:city': 'Troy', 'addr:housenumber': '45', 'addr:postcode': '45373', 'addr:state': 'OH', 'addr:street': 'South Stanfield Road', 'addr:unit': '102', 'amenity': 'doctors', 'healthcare': 'doctor', 'healthcare:speciality': 'dermatology', 'name': 'Dermatologists of Southwest Ohio'}}"
"{'type': 'node', 'id': 9438042362, 'lat': 39.5069928, 'lon': -84.745165, 'tags': {'amenity': 'pharmacy', 'brand': 'CVS Pharmacy', 'brand:website': 'https://www.cvs.com/', 'brand:wikidata': 'Q2078880', 'brand:wikipedia': 'en:CVS Pharmacy', 'healthcare': 'pharmacy', 'name': 'CVS Pharmacy', 'short_name': 'CVS', 'website': 'https://www.cvs.com/store-locator/oxford-oh-pharmacies/123-w-spring-st-oxford-oh-45056/storeid=6084'}}"
"{'type': 'node', 'id': 9459023679, 'lat': 39.5060968, 'lon': -84.7507185, 'tags': {'amenity': 'dentist', 'healthcare': 'dentist', 'healthcare:speciality': 'paediatrics', 'name': 'Richard Kennedy, DMD & Brad Skelton, DMD'}}"
"{'type': 'node', 'id': 9459023683, 'lat': 39.5062694, 'lon': -84.7504476, 'tags': {'amenity': 'dentist', 'healthcare': 'dentist', 'name': 'Nathan Lloyd, D.M.D.', 'opening_hours': 'Mo-Th 08:00-16:00; We 07:00-15:00; Fr ""by appointment""', 'phone': '+1 513-523-7515', 'website': 'www.DentalCareOxford.com'}}"
"{'type': 'node', 'id': 9459023686, 'lat': 39.5075967, 'lon': -84.7510331, 'tags': {'amenity': 'doctors', 'healthcare': 'doctor', 'name': 'Mercy Health The Health Institute Oxford OH', 'operator': 'Mercy Health', 'operator:wikidata': 'Q5053169', 'operator:wikipedia': 'en:Mercy Health (Ohio and Kentucky)'}}"
"{'type': 'node', 'id': 9495056754, 'lat': 39.8316761, 'lon': -84.8507635, 'tags': {'addr:city': 'Richmond', 'addr:housenumber': '3700', 'addr:postcode': '47374', 'addr:state': 'IN', 'addr:street': 'National Road East', 'amenity': 'pharmacy', 'brand': 'Walgreens', 'brand:wikidata': 'Q1591889', 'dispensing': 'yes', 'healthcare': 'pharmacy', 'name': 'Walgreens', 'ref': '9128'}}"
"{'type': 'node', 'id': 9499675982, 'lat': 39.6408977, 'lon': -85.1423867, 'tags': {'addr:city': 'Connersville', 'addr:housenumber': '301', 'addr:postcode': '47331', 'addr:state': 'IN', 'addr:street': 'North Grand Avenue', 'amenity': 'pharmacy', 'brand': 'CVS Pharmacy', 'brand:website': 'https://www.cvs.com/', 'brand:wikidata': 'Q2078880', 'brand:wikipedia': 'en:CVS Pharmacy', 'dispensing': 'yes', 'drive_through': 'yes', 'healthcare': 'pharmacy', 'name': 'CVS Pharmacy', 'ref': '6652', 'short_name': 'CVS', 'website': 'https://www.cvs.com/store-locator/connersville-in-pharmacies/301-n-grand-ave-connersville-in-47331/storeid=6652'}}"
"{'type': 'node', 'id': 9536026913, 'lat': 39.2287881, 'lon': -84.27692, 'tags': {'addr:city': 'Loveland', 'addr:housenumber': '550', 'addr:postcode': '45140', 'addr:state': 'OH', 'addr:street': 'Wards Corner Road', 'addr:unit': '101', 'healthcare': 'alternative', 'healthcare:speciality': 'chiropractic', 'level': '0', 'name': 'Wards Corner Chiropractic & Sports Rehab', 'owner': 'Doctor Douglas Portmann, D.C.', 'phone': '+1-513-677-6787', 'website': 'https://www.wardscornerchiro.com/'}}"
"{'type': 'node', 'id': 9620468581, 'lat': 38.9645473, 'lon': -84.0876667, 'tags': {'addr:city': 'Bethel', 'addr:housenumber': '592', 'addr:postcode': '45106', 'addr:state': 'OH', 'addr:street': 'West Plane Street', 'amenity': 'pharmacy', 'brand': 'CVS Pharmacy', 'brand:website': 'https://www.cvs.com/', 'brand:wikidata': 'Q2078880', 'brand:wikipedia': 'en:CVS Pharmacy', 'dispensing': 'yes', 'healthcare': 'pharmacy', 'name': 'CVS Pharmacy', 'ref': '5431', 'short_name': 'CVS', 'website': 'https://www.cvs.com/store-locator/bethel-oh-pharmacies/592-west-plane-street-bethel-oh-45106/storeid=5431'}}"
"{'type': 'node', 'id': 9627766135, 'lat': 39.095706, 'lon': -84.6059693, 'tags': {'amenity': 'clinic', 'healthcare': 'clinic', 'name': 'CareFirst Urgent Care - Delhi'}}"
"{'type': 'node', 'id': 9646893819, 'lat': 38.9347165, 'lon': -84.3936199, 'tags': {'amenity': 'clinic', 'healthcare:speciality': 'chiropractic', 'name': 'Total Car Chiropractic', 'phone': '+1-859-448-0858', 'website': 'https://nkytotalcare.com'}}"
"{'type': 'node', 'id': 9646893821, 'lat': 38.9345976, 'lon': -84.3936226, 'tags': {'amenity': 'clinic', 'name': 'Total Care Weight Loss', 'phone': '+1-859-609-3407', 'website': 'https://nkytotalcareweightloss.com'}}"
"{'type': 'node', 'id': 9685220401, 'lat': 39.1216972, 'lon': -84.6012355, 'tags': {'addr:city': 'Cincinnati', 'addr:housenumber': '4998', 'addr:postcode': '45238', 'addr:state': 'OH', 'addr:street': 'Glenway Avenue', 'amenity': 'dentist', 'description': 'Our team members are technically competent with warm personalities, and we consider ourselves lucky to have found such great people.', 'healthcare': 'dentist', 'healthcare:speciality': 'dentist', 'image': 'https://fdb.clinicstandard.com/api/fdb/imgprofile?int_type=1&sysimg=branch&ref_assignto=97a42707-c6de-4f04-943a-f32c40b4eea3&systype=8', 'name': 'Hagen Dental Practice', 'opening_hours': 'Mo-Fr 09:00-18:00', 'operator': 'Dr. Elizabeth Kandel', 'payment:care_credit': 'yes', 'payment:credit_cards': 'yes', 'payment:insurance_plans': 'yes', 'payment:lending_club': 'yes', 'payment:wells_fargo': 'yes', 'phone': '+1 513-251-5500', 'website': 'https://www.hagendds.com/'}}"
"{'type': 'node', 'id': 9747858164, 'lat': 39.7100729, 'lon': -84.1714609, 'tags': {'addr:city': 'Dayton', 'addr:postcode': '45419', 'addr:state': 'OH', 'addr:street': '2319 Far Hills Ave', 'country': 'USA', 'healthcare': 'optometrist', 'name': 'Eye 1', 'opening_hours': 'Mo 10:00-17:00, Tu-Th 10:00-18:00, Fr 10:00-17:00, Sa 10:00-16:00', 'operator': 'David Brown', 'payment:american_express': 'yes', 'payment:cash': 'yes', 'payment:mastercard': 'yes', 'payment:visa': 'yes', 'phone': '+1-937-294-1010', 'website': 'https://eye-1.com'}}"
"{'type': 'node', 'id': 9780483098, 'lat': 39.959914, 'lon': -84.1856385, 'tags': {'addr:city': 'Tipp City', 'addr:housenumber': '914', 'addr:postcode': '45371', 'addr:state': 'OH', 'addr:street': 'West Main Street', 'amenity': 'pharmacy', 'brand': 'CVS Pharmacy', 'brand:website': 'https://www.cvs.com/', 'brand:wikidata': 'Q2078880', 'brand:wikipedia': 'en:CVS Pharmacy', 'dispensing': 'yes', 'healthcare': 'pharmacy', 'name': 'CVS Pharmacy', 'ref': '3476', 'short_name': 'CVS', 'website': 'https://www.cvs.com/store-locator/tipp-city-oh-pharmacies/914-w-main-st-tipp-city-oh-45371/storeid=3476'}}"
"{'type': 'node', 'id': 9784249043, 'lat': 39.7560531, 'lon': -84.0545665, 'tags': {'addr:city': 'Dayton', 'addr:housenumber': '2269', 'addr:postcode': '45431', 'addr:state': 'OH', 'addr:street': 'North Fairfield Road', 'amenity': 'pharmacy', 'brand': 'Walgreens', 'brand:wikidata': 'Q1591889', 'dispensing': 'yes', 'healthcare': 'pharmacy', 'name': 'Walgreens', 'ref': '11510'}}"
"{'type': 'node', 'id': 9789381277, 'lat': 39.7886736, 'lon': -84.0202374, 'tags': {'addr:city': 'Fairborn', 'addr:housenumber': '200', 'addr:postcode': '45324', 'addr:state': 'OH', 'addr:street': 'East Dayton Yellow Springs Road', 'amenity': 'pharmacy', 'brand': 'CVS Pharmacy', 'brand:website': 'https://www.cvs.com/', 'brand:wikidata': 'Q2078880', 'brand:wikipedia': 'en:CVS Pharmacy', 'dispensing': 'yes', 'healthcare': 'pharmacy', 'name': 'CVS Pharmacy', 'ref': '3411', 'short_name': 'CVS', 'website': 'https://www.cvs.com/store-locator/fairborn-oh-pharmacies/200-e-dayton-yellow-springs-rd-fairborn-oh-45324/storeid=3411'}}"
"{'type': 'node', 'id': 9789381278, 'lat': 39.7898948, 'lon': -84.0200286, 'tags': {'addr:city': 'Fairborn', 'addr:housenumber': '183', 'addr:postcode': '45324', 'addr:state': 'OH', 'addr:street': 'East Dayton Yellow Springs Road', 'amenity': 'pharmacy', 'brand': 'Walgreens', 'brand:wikidata': 'Q1591889', 'dispensing': 'yes', 'healthcare': 'pharmacy', 'name': 'Walgreens', 'ref': '6990'}}"
"{'type': 'node', 'id': 9799896436, 'lat': 39.7579357, 'lon': -84.6371765, 'tags': {'addr:city': 'Eaton', 'addr:housenumber': '1213', 'addr:postcode': '45320', 'addr:state': 'OH', 'addr:street': 'North Barron Street', 'amenity': 'pharmacy', 'brand': 'Walgreens', 'brand:wikidata': 'Q1591889', 'dispensing': 'yes', 'healthcare': 'pharmacy', 'name': 'Walgreens', 'ref': '11846'}}"
"{'type': 'node', 'id': 9813542619, 'lat': 39.847415, 'lon': -84.1403146, 'tags': {'addr:city': 'Huber Heights', 'addr:housenumber': '6495', 'addr:postcode': '45424', 'addr:state': 'OH', 'addr:street': 'Troy Pike', 'amenity': 'pharmacy', 'brand': 'Walgreens', 'brand:wikidata': 'Q1591889', 'dispensing': 'yes', 'healthcare': 'pharmacy', 'name': 'Walgreens', 'ref': '4521'}}"
"{'type': 'node', 'id': 9818778235, 'lat': 39.257937, 'lon': -84.8039, 'tags': {'addr:city': 'Harrison', 'addr:housenumber': '1032', 'addr:postcode': '45030', 'addr:state': 'OH', 'addr:street': 'Harrison Avenue', 'amenity': 'pharmacy', 'brand': 'Walgreens', 'brand:wikidata': 'Q1591889', 'dispensing': 'yes', 'healthcare': 'pharmacy', 'name': 'Walgreens', 'ref': '7470'}}"
"{'type': 'node', 'id': 9818779307, 'lat': 39.5082273, 'lon': -84.7499889, 'tags': {'addr:city': 'Oxford', 'addr:housenumber': '200', 'addr:postcode': '45056', 'addr:state': 'OH', 'addr:street': 'South Locust Street', 'amenity': 'pharmacy', 'brand': 'Walgreens', 'brand:wikidata': 'Q1591889', 'dispensing': 'yes', 'healthcare': 'pharmacy', 'name': 'Walgreens', 'ref': '9906'}}"
"{'type': 'node', 'id': 9818781539, 'lat': 39.0310922, 'lon': -84.2209849, 'tags': {'addr:city': 'Amelia', 'addr:housenumber': '57', 'addr:postcode': '45102', 'addr:state': 'OH', 'addr:street': 'West Main Street', 'amenity': 'pharmacy', 'brand': 'Walgreens', 'brand:wikidata': 'Q1591889', 'dispensing': 'yes', 'healthcare': 'pharmacy', 'name': 'Walgreens', 'ref': '7489'}}"
"{'type': 'node', 'id': 9818825851, 'lat': 39.8123735, 'lon': -84.2283033, 'tags': {'addr:city': 'Dayton', 'addr:housenumber': '4855', 'addr:postcode': '45405', 'addr:state': 'OH', 'addr:street': 'North Main Street', 'amenity': 'pharmacy', 'brand': 'Walgreens', 'brand:wikidata': 'Q1591889', 'dispensing': 'yes', 'healthcare': 'pharmacy', 'name': 'Walgreens', 'ref': '4613'}}"
"{'type': 'node', 'id': 9818825856, 'lat': 39.8131564, 'lon': -84.2289846, 'tags': {'addr:city': 'Dayton', 'addr:housenumber': '4901', 'addr:postcode': '45415', 'addr:state': 'OH', 'addr:street': 'North Main Street', 'amenity': 'pharmacy', 'brand': 'CVS Pharmacy', 'brand:website': 'https://www.cvs.com/', 'brand:wikidata': 'Q2078880', 'brand:wikipedia': 'en:CVS Pharmacy', 'dispensing': 'yes', 'healthcare': 'pharmacy', 'name': 'CVS Pharmacy', 'ref': '3447', 'short_name': 'CVS', 'website': 'https://www.cvs.com/store-locator/dayton-oh-pharmacies/4901-n-main-st-dayton-oh-45415/storeid=3447'}}"
"{'type': 'node', 'id': 9854620312, 'lat': 39.612575, 'lon': -84.161177, 'tags': {'addr:city': 'Centerville', 'addr:housenumber': '911', 'addr:postcode': '45458', 'addr:state': 'OH', 'addr:street': 'South Main Street', 'amenity': 'pharmacy', 'brand': 'Walgreens', 'brand:wikidata': 'Q1591889', 'check_date': '2024-12-29', 'dispensing': 'yes', 'healthcare': 'pharmacy', 'name': 'Walgreens', 'ref': '9873'}}"
"{'type': 'node', 'id': 9854626423, 'lat': 39.641443, 'lon': -84.2695154, 'tags': {'addr:city': 'Miamisburg', 'addr:housenumber': '1205', 'addr:postcode': '45342', 'addr:state': 'OH', 'addr:street': 'East Central Avenue', 'amenity': 'pharmacy', 'brand': 'CVS Pharmacy', 'brand:website': 'https://www.cvs.com/', 'brand:wikidata': 'Q2078880', 'brand:wikipedia': 'en:CVS Pharmacy', 'dispensing': 'yes', 'healthcare': 'pharmacy', 'name': 'CVS Pharmacy', 'ref': '6138', 'short_name': 'CVS', 'website': 'https://www.cvs.com/store-locator/miamisburg-oh-pharmacies/1205-east-central-avenue-miamisburg-oh-45342/storeid=6138'}}"
"{'type': 'node', 'id': 9854626445, 'lat': 39.6396532, 'lon': -84.2664725, 'tags': {'addr:city': 'Miamisburg', 'addr:housenumber': '1280', 'addr:postcode': '45342', 'addr:state': 'OH', 'addr:street': 'East Central Avenue', 'amenity': 'pharmacy', 'brand': 'Walgreens', 'brand:wikidata': 'Q1591889', 'dispensing': 'yes', 'healthcare': 'pharmacy', 'name': 'Walgreens', 'ref': '4520'}}"
"{'type': 'node', 'id': 9873326085, 'lat': 39.4416658, 'lon': -84.1955139, 'tags': {'addr:city': 'Lebanon', 'addr:housenumber': '605', 'addr:postcode': '45036', 'addr:state': 'OH', 'addr:street': 'Columbus Avenue', 'amenity': 'pharmacy', 'brand': 'CVS Pharmacy', 'brand:website': 'https://www.cvs.com/', 'brand:wikidata': 'Q2078880', 'brand:wikipedia': 'en:CVS Pharmacy', 'dispensing': 'yes', 'healthcare': 'pharmacy', 'name': 'CVS Pharmacy', 'ref': '6086', 'short_name': 'CVS', 'website': 'https://www.cvs.com/store-locator/lebanon-oh-pharmacies/605-columbus-ave-lebanon-oh-45036/storeid=6086'}}"
"{'type': 'node', 'id': 9876913096, 'lat': 39.4803653, 'lon': -84.4207035, 'tags': {'addr:city': 'Middletown', 'addr:housenumber': '440', 'addr:postcode': '45044', 'addr:state': 'OH', 'addr:street': 'Oxford State Road', 'amenity': 'pharmacy', 'brand': 'CVS Pharmacy', 'brand:website': 'https://www.cvs.com/', 'brand:wikidata': 'Q2078880', 'brand:wikipedia': 'en:CVS Pharmacy', 'dispensing': 'yes', 'healthcare': 'pharmacy', 'name': 'CVS Pharmacy', 'ref': '6133', 'short_name': 'CVS', 'website': 'https://www.cvs.com/store-locator/middletown-oh-pharmacies/440-oxford-state-rd-middletown-oh-45044/storeid=6133'}}"
