OSM_Data
"{'type': 'node', 'id': 27269823, 'lat': 50.8313153, 'lon': 4.347231, 'tags': {'amenity': 'pharmacy', 'changing_table': 'no', 'changing_table:adult': 'no', 'check_date': '2024-08-27', 'dispensing': 'yes', 'entrance:step_count': '0', 'entrance:width': '1.03', 'healthcare': 'pharmacy', 'name': 'Victoire', 'opening_hours': 'Mo-Fr 09:00-13:00,14:00-18:30; Sa 09:00-12:30; Su off', 'wheelchair:turning_circle': 'no'}}"
"{'type': 'node', 'id': 97499497, 'lat': 51.0111154, 'lon': 4.3351179, 'tags': {'amenity': 'pharmacy', 'created_by': 'JOSM', 'name': 'Prikken'}}"
"{'type': 'node', 'id': 192578075, 'lat': 50.8528368, 'lon': 4.3555072, 'tags': {'amenity': 'pharmacy', 'dispensing': 'yes', 'healthcare': 'pharmacy', 'name': 'Deroisy', 'opening_hours': 'Mo-Sa 10:00-18:00'}}"
"{'type': 'node', 'id': 231403522, 'lat': 50.8322047, 'lon': 4.3522097, 'tags': {'amenity': 'pharmacy', 'check_date': '2024-02-02', 'dispensing': 'yes', 'healthcare': 'pharmacy', 'name': 'Regniers', 'opening_hours': 'Mo-Fr 09:00-19:00; Sa 09:30-13:00', 'wheelchair': 'no'}}"
"{'type': 'node', 'id': 231405868, 'lat': 50.8305121, 'lon': 4.345792, 'tags': {'amenity': 'pharmacy', 'brand': 'Multipharma', 'brand:wikidata': 'Q62565018', 'changing_table': 'no', 'changing_table:adult': 'no', 'dispensing': 'yes', 'entrance:kerb:height': '0.05', 'entrance:step_count': '1', 'entrance:width': '0.89', 'healthcare': 'pharmacy', 'name': 'multiPharma', 'operator': 'multiPharma', 'ramp:wheelchair': 'yes', 'website': 'https://www.multipharma.be', 'wheelchair': 'yes', 'wheelchair:turning_circle': 'no'}}"
"{'type': 'node', 'id': 246559302, 'lat': 50.8988228, 'lon': 4.6745043, 'tags': {'amenity': 'pharmacy', 'dispensing': 'yes', 'healthcare': 'pharmacy', 'name': 'DUMALIN'}}"
"{'type': 'node', 'id': 247026189, 'lat': 51.0229289, 'lon': 4.4717095, 'tags': {'amenity': 'pharmacy', 'healthcare': 'pharmacy'}}"
"{'type': 'node', 'id': 248701820, 'lat': 51.2196979, 'lon': 4.41493, 'tags': {'amenity': 'pharmacy', 'entrance:kerb:height': '0.05', 'entrance:ramp': 'no', 'entrance:step_count': '1', 'entrance:width': '1.04', 'healthcare': 'pharmacy', 'name': 'Apotheek Roosevelt', 'opening_hours': 'Mo-Fr 09:00-18:30; Sa 10:30-17:30; Su off', 'toilets:wheelchair': 'no', 'wheelchair': 'no', 'wheelchair:turning_circle': 'no'}}"
"{'type': 'node', 'id': 248701898, 'lat': 51.2249239, 'lon': 4.4097546, 'tags': {'amenity': 'pharmacy', 'healthcare': 'pharmacy', 'name': 'Apotheek Krols', 'website': 'https://apotheek-krols.business.site'}}"
"{'type': 'node', 'id': 248702004, 'lat': 51.2267041, 'lon': 4.414979, 'tags': {'amenity': 'pharmacy', 'healthcare': 'pharmacy', 'name': 'Shipping Dispensary', 'operator': 'AFS'}}"
"{'type': 'node', 'id': 250213806, 'lat': 50.8324222, 'lon': 4.7270845, 'tags': {'amenity': 'pharmacy', 'name': 'Apotheek Gillias', 'name:nl': 'Apotheek Gillias'}}"
"{'type': 'node', 'id': 251109567, 'lat': 50.9845741, 'lon': 4.4634676, 'tags': {'addr:housenumber': '128', 'addr:street': 'Brusselsesteenweg', 'amenity': 'pharmacy', 'changing_table': 'no', 'entrance:kerb:height': '0.05', 'entrance:ramp': 'no', 'entrance:step_count': '1', 'entrance:width': '1.2', 'name': 'Pharma Zemst', 'note': 'addr source from website - Not in CRAB', 'toilets:wheelchair': 'no', 'website': 'http://www.pharmazemst.be/contact.php', 'wheelchair:turning_circle': 'no'}}"
"{'type': 'node', 'id': 270937025, 'lat': 50.8691756, 'lon': 3.8101509, 'tags': {'addr:city': 'Zottegem', 'addr:housenumber': '10', 'addr:postcode': '9620', 'addr:street': 'Hoogstraat', 'amenity': 'pharmacy', 'contact:facebook': 'https://www.facebook.com/apotheekdegeyterveerle', 'dispensing': 'yes', 'drive_through': 'no', 'healthcare': 'pharmacy', 'name': 'Apotheek De Geyter Veerle', 'opening_hours': 'Mo-Fr 08:30-12:30,13:30-18:30; Sa 08:30-12:30', 'phone': '+32 9 360 00 08', 'website': 'https://degeyterveerle.apotheek.be/'}}"
"{'type': 'node', 'id': 278795007, 'lat': 51.0905179, 'lon': 4.5517328, 'tags': {'amenity': 'pharmacy'}}"
"{'type': 'node', 'id': 278883149, 'lat': 51.103323, 'lon': 4.7168381, 'tags': {'amenity': 'pharmacy', 'dispensing': 'yes', 'healthcare': 'pharmacy'}}"
"{'type': 'node', 'id': 280282697, 'lat': 51.0046672, 'lon': 4.7077999, 'tags': {'amenity': 'pharmacy', 'dispensing': 'yes', 'healthcare': 'pharmacy'}}"
"{'type': 'node', 'id': 280287384, 'lat': 51.0483681, 'lon': 4.7250769, 'tags': {'amenity': 'pharmacy', 'dispensing': 'yes'}}"
"{'type': 'node', 'id': 280395082, 'lat': 51.0515881, 'lon': 4.7763983, 'tags': {'amenity': 'pharmacy', 'dispensing': 'yes'}}"
"{'type': 'node', 'id': 291159468, 'lat': 51.1008514, 'lon': 4.7328582, 'tags': {'addr:city': 'Heist-op-den-Berg', 'addr:country': 'BE', 'addr:housenumber': '7', 'addr:postcode': '2222', 'addr:province': 'Antwerpen', 'addr:street': 'Nieuwendijk', 'addr:suburb': 'Itegem', 'amenity': 'pharmacy', 'healthcare': 'pharmacy', 'name': 'Apotheker H. Keersmaekers', 'phone': '+32 15 24 17 32'}}"
"{'type': 'node', 'id': 291966325, 'lat': 50.9764842, 'lon': 4.6381047, 'tags': {'amenity': 'pharmacy', 'dispensing': 'yes', 'wheelchair': 'no'}}"
"{'type': 'node', 'id': 291967367, 'lat': 50.9765744, 'lon': 4.6373373, 'tags': {'amenity': 'pharmacy', 'dispensing': 'yes', 'wheelchair': 'no'}}"
"{'type': 'node', 'id': 292082330, 'lat': 50.9895217, 'lon': 4.6448673, 'tags': {'amenity': 'pharmacy', 'dispensing': 'yes', 'healthcare': 'pharmacy'}}"
"{'type': 'node', 'id': 293768788, 'lat': 50.5797143, 'lon': 4.5295141, 'tags': {'amenity': 'pharmacy', 'name': 'Pharmacie Balza'}}"
"{'type': 'node', 'id': 298757765, 'lat': 51.0967408, 'lon': 4.3739668, 'tags': {'addr:housenumber': '46', 'addr:street': 'Peter Benoitstraat', 'amenity': 'pharmacy', 'healthcare': 'pharmacy', 'name': 'Apotheek Pharmamax'}}"
"{'type': 'node', 'id': 299327027, 'lat': 51.1513579, 'lon': 4.6173683, 'tags': {'amenity': 'pharmacy', 'dispensing': 'yes', 'healthcare': 'pharmacy', 'name': 'Apotheek De Statie'}}"
"{'type': 'node', 'id': 305672463, 'lat': 50.8672985, 'lon': 4.4486772, 'tags': {'amenity': 'pharmacy', 'brand': 'Multipharma', 'brand:wikidata': 'Q62565018', 'dispensing': 'yes', 'healthcare': 'pharmacy', 'name': 'Multipharma'}}"
"{'type': 'node', 'id': 305753470, 'lat': 51.1855731, 'lon': 4.3424064, 'tags': {'amenity': 'pharmacy', 'created_by': 'Merkaartor 0.11'}}"
"{'type': 'node', 'id': 306484558, 'lat': 51.1787307, 'lon': 4.3782537, 'tags': {'amenity': 'pharmacy', 'dispensing': 'yes', 'email': 'apotheek.wilrijk-bauwenslaan@benu.be', 'healthcare': 'pharmacy', 'name': 'BENU', 'old_name': 'LloydsPharma', 'opening_hours': 'Mo-Fr 09:00-12:30,13:30-18:30', 'phone': '+32 3 827 81 97', 'website': 'https://storelocator.benu.be/nl/apotheek-benu-wilrijk-bauwenslaan'}}"
"{'type': 'node', 'id': 309767554, 'lat': 51.3298498, 'lon': 4.5516832, 'tags': {'amenity': 'hospital', 'healthcare': 'hospital', 'name': 'Medisch centrum Nottebohm'}}"
"{'type': 'node', 'id': 311741074, 'lat': 50.8767295, 'lon': 4.4770281, 'tags': {'amenity': 'pharmacy', 'dispensing': 'yes', 'name': 'Vandensteen Martens'}}"
"{'type': 'node', 'id': 313170114, 'lat': 50.8623465, 'lon': 4.463817, 'tags': {'amenity': 'pharmacy', 'dispensing': 'yes', 'name': 'Wils E.', 'opening_hours': 'Mo-Fr 08:30-12:15,13:30-19:00, Sa 08:30-12:15', 'wheelchair': 'yes'}}"
"{'type': 'node', 'id': 315759395, 'lat': 50.8610593, 'lon': 4.469355, 'tags': {'addr:city': 'Kraainem', 'addr:country': 'BE', 'addr:housenumber': '35', 'addr:postcode': '1950', 'addr:street': 'Arthur Dezangrélaan', 'amenity': 'pharmacy', 'dispensing': 'yes'}}"
"{'type': 'node', 'id': 316230225, 'lat': 50.8487641, 'lon': 4.466237, 'tags': {'amenity': 'pharmacy', 'dispensing': 'yes'}}"
"{'type': 'node', 'id': 316679903, 'lat': 50.9122435, 'lon': 4.4329297, 'tags': {'addr:city': 'Machelen', 'addr:housenumber': '12', 'addr:postcode': '1830', 'addr:street': 'Woluwestraat', 'amenity': 'pharmacy', 'dispensing': 'yes', 'drive_through': 'no', 'healthcare': 'pharmacy', 'name': 'Ameloot', 'phone': '+32 2 251 19 01'}}"
"{'type': 'node', 'id': 319152431, 'lat': 50.9265663, 'lon': 4.4261614, 'tags': {'amenity': 'pharmacy', 'name': 'Upharma'}}"
"{'type': 'node', 'id': 321620647, 'lat': 50.8587753, 'lon': 4.4522018, 'tags': {'amenity': 'pharmacy', 'dispensing': 'yes'}}"
"{'type': 'node', 'id': 332360133, 'lat': 51.1343388, 'lon': 4.4756792, 'tags': {'addr:city': 'Kontich', 'addr:country': 'BE', 'addr:housenumber': '17', 'addr:postcode': '2550', 'addr:street': 'Stationsplein', 'amenity': 'pharmacy', 'dispensing': 'yes', 'name': 'Kathleen Verbeeck'}}"
"{'type': 'node', 'id': 332542323, 'lat': 50.8561441, 'lon': 4.3693307, 'tags': {'amenity': 'clinic', 'contact:website': 'https://www.clstjean.be/', 'emergency': 'yes', 'full_name:fr': 'Clinique Saint-Jean – Site Méridien', 'full_name:nl': 'Kliniek St.-Jan – Site Middaglijn', 'healthcare': 'clinic', 'name': 'Clinique Saint-Jean (Méridien) - Kliniek St.-Jan (Middaglijn)', 'name:fr': 'Clinique Saint-Jean (Méridien)', 'name:nl': 'Kliniek St.-Jan (Middaglijn)'}}"
"{'type': 'node', 'id': 344847065, 'lat': 50.8351942, 'lon': 4.3879043, 'tags': {'check_date:opening_hours': '2024-08-05', 'healthcare': 'alternative', 'healthcare:speciality': 'osteopathy', 'name': 'Posturalhub', 'opening_hours:signed': 'no'}}"
"{'type': 'node', 'id': 344923183, 'lat': 50.8328133, 'lon': 4.3824412, 'tags': {'amenity': 'pharmacy', 'dispensing': 'yes', 'healthcare': 'pharmacy', 'name': 'Van Innis', 'opening_hours': 'Mo-Fr 09:00-12:30,14:00-19:00; Sa 09:30-12:30'}}"
"{'type': 'node', 'id': 345273027, 'lat': 50.9805428, 'lon': 4.5730568, 'tags': {'addr:housenumber': '4', 'addr:street': 'Dorpsstraat', 'amenity': 'pharmacy', 'dispensing': 'yes', 'drive_through': 'no', 'healthcare': 'pharmacy', 'name': 'Apotheek Bossers', 'wheelchair': 'yes'}}"
"{'type': 'node', 'id': 346085422, 'lat': 51.139758, 'lon': 4.7592225, 'tags': {'addr:city': 'Herenthout', 'addr:housenumber': '38', 'addr:postcode': '2270', 'addr:street': 'Molenstraat', 'amenity': 'pharmacy', 'dispensing': 'yes', 'healthcare': 'pharmacy', 'name': 'Apotheek Van Daele', 'phone': '+32 14 51 21 59'}}"
"{'type': 'node', 'id': 347364104, 'lat': 50.6078409, 'lon': 4.2220311, 'tags': {'amenity': 'pharmacy'}}"
"{'type': 'node', 'id': 347364160, 'lat': 50.6086877, 'lon': 4.1374306, 'tags': {'amenity': 'pharmacy', 'brand': 'Multipharma', 'brand:wikidata': 'Q62565018', 'dispensing': 'yes', 'healthcare': 'pharmacy', 'name': 'Multipharma'}}"
"{'type': 'node', 'id': 347364165, 'lat': 50.6065889, 'lon': 4.1379682, 'tags': {'amenity': 'pharmacy', 'dispensing': 'yes', 'healthcare': 'pharmacy', 'name': 'Ghislain'}}"
"{'type': 'node', 'id': 347364361, 'lat': 50.6124236, 'lon': 4.1361312, 'tags': {'amenity': 'pharmacy', 'created_by': 'Potlatch 0.10f', 'dispensing': 'yes', 'name': 'Druart'}}"
"{'type': 'node', 'id': 347364416, 'lat': 50.610646, 'lon': 4.1366873, 'tags': {'amenity': 'pharmacy', 'dispensing': 'yes', 'name': 'Multipharma', 'opening_hours': 'Mo-Fr 08:30-18:30; Sa 08:30-12:30'}}"
"{'type': 'node', 'id': 347364614, 'lat': 50.6093339, 'lon': 4.1345352, 'tags': {'amenity': 'pharmacy', 'created_by': 'Potlatch 0.10f', 'dispensing': 'yes', 'name': 'Lheureux'}}"
"{'type': 'node', 'id': 348128584, 'lat': 50.8392112, 'lon': 4.3356163, 'tags': {'amenity': 'pharmacy', 'contact:phone': '+32 2 520 66 55', 'dispensing': 'yes', 'drive_through': 'no', 'healthcare': 'pharmacy', 'name': 'Selfpharma', 'opening_hours': 'Mo-Fr 08:30-18:30; Sa 09:00-12:30', 'wheelchair': 'yes'}}"
"{'type': 'node', 'id': 350832570, 'lat': 50.8344495, 'lon': 4.3691074, 'tags': {'amenity': 'pharmacy', 'dispensing': 'yes', 'healthcare': 'pharmacy', 'name': 'Nicolas', 'opening_hours': 'Mo-Fr 09:00-13:00,14:00-19:00; Sa 09:00-12:30', 'wheelchair': 'yes'}}"
"{'type': 'node', 'id': 351493998, 'lat': 50.9223449, 'lon': 4.5145878, 'tags': {'amenity': 'pharmacy', 'dispensing': 'yes'}}"
"{'type': 'node', 'id': 353287766, 'lat': 50.7063958, 'lon': 4.3728078, 'tags': {'amenity': 'pharmacy', 'created_by': 'Potlatch 0.10f'}}"
"{'type': 'node', 'id': 353405444, 'lat': 50.8303419, 'lon': 4.4004807, 'tags': {'amenity': 'pharmacy', 'dispensing': 'yes', 'drive_through': 'no', 'healthcare': 'pharmacy', 'name': 'Farmalia Etterbeek', 'opening_hours': 'Mo-Fr 09:00-12:30, 14:00-19:00', 'operator': 'Grace Karim', 'wheelchair': 'limited'}}"
"{'type': 'node', 'id': 354039965, 'lat': 50.6391829, 'lon': 4.6141198, 'tags': {'addr:city': 'Mont-Saint-Guibert', 'addr:housenumber': '19C', 'addr:postcode': '1435', 'addr:street': 'Rue Saint-Jean', 'amenity': 'pharmacy', 'dispensing': 'yes', 'healthcare': 'pharmacy', 'name': 'Pharmacie Fontaine', 'opening_hours': 'Mo-Fr 08:30-12:30,13:30-19:00; Sa 08:45-12:30'}}"
"{'type': 'node', 'id': 354446813, 'lat': 51.0055038, 'lon': 3.8863263, 'tags': {'amenity': 'pharmacy', 'name': 'Verhamme'}}"
"{'type': 'node', 'id': 354619056, 'lat': 50.8287308, 'lon': 4.3932815, 'tags': {'amenity': 'pharmacy', 'dispensing': 'yes', 'name': 'Pharma City Chasse', 'opening_hours': 'Mo-Fr 08:30-19:00; Sa 09:00-12:30'}}"
"{'type': 'node', 'id': 354659476, 'lat': 50.6362785, 'lon': 4.6115017, 'tags': {'addr:city': 'Mont-Saint-Guibert', 'addr:housenumber': '38A', 'addr:postcode': '1435', 'addr:street': ""Grand'Rue"", 'amenity': 'pharmacy', 'name': 'Pharmacie Bouché', 'opening_hours': 'Mo-Fr 08:30-19:00; Sa 09:00-13:00'}}"
"{'type': 'node', 'id': 355251206, 'lat': 50.9101801, 'lon': 4.5130344, 'tags': {'addr:city': 'Steenokkerzeel', 'addr:housenumber': '6', 'addr:postcode': '1820', 'addr:street': 'Fuerisonplaats', 'addr:unit': '1', 'amenity': 'pharmacy', 'brand': 'Goed', 'brand:wikidata': 'Q130234412', 'dispensing': 'yes', 'healthcare': 'pharmacy', 'name': 'Goed', 'phone': '+32 2 751 86 99', 'website': 'https://www.goed.be/nl/vestigingen/goed-steenokkerzeel'}}"
"{'type': 'node', 'id': 355251301, 'lat': 50.9046032, 'lon': 4.5687953, 'tags': {'amenity': 'pharmacy', 'dispensing': 'yes'}}"
"{'type': 'node', 'id': 355251349, 'lat': 50.8873399, 'lon': 4.5399247, 'tags': {'amenity': 'pharmacy', 'dispensing': 'yes'}}"
"{'type': 'node', 'id': 356772055, 'lat': 50.8333152, 'lon': 4.4028034, 'tags': {'amenity': 'pharmacy', 'dispensing': 'yes', 'name': ""Pharmacie de l'Escadron"", 'opening_hours': 'Mo-Fr 08:30-19:00; Sa 09:00-13:00', 'wheelchair': 'yes'}}"
"{'type': 'node', 'id': 359943384, 'lat': 50.8870052, 'lon': 4.5937558, 'tags': {'amenity': 'pharmacy', 'dispensing': 'yes', 'name': 'Vandenplas I.'}}"
"{'type': 'node', 'id': 359958112, 'lat': 50.8774934, 'lon': 4.5684457, 'tags': {'amenity': 'pharmacy', 'dispensing': 'yes'}}"
"{'type': 'node', 'id': 360662918, 'lat': 50.8602434, 'lon': 4.5136838, 'tags': {'addr:housenumber': '160', 'addr:street': 'Mechelsesteenweg', 'amenity': 'pharmacy', 'dispensing': 'yes'}}"
"{'type': 'node', 'id': 362658945, 'lat': 50.9311513, 'lon': 4.539156, 'tags': {'amenity': 'pharmacy', 'dispensing': 'yes'}}"
"{'type': 'node', 'id': 364336256, 'lat': 50.8285567, 'lon': 4.4075866, 'tags': {'amenity': 'pharmacy', 'check_date:opening_hours': '2024-06-16', 'dispensing': 'yes', 'name:signed': 'no', 'opening_hours': 'Mo-Fr 08:30-12:30,14:00-19:00; Sa 09:30-12:30', 'opening_hours:signed': 'no'}}"
"{'type': 'node', 'id': 364653180, 'lat': 50.8579691, 'lon': 4.3994594, 'tags': {'amenity': 'pharmacy', 'dispensing': 'yes', 'name': 'Appart', 'opening_hours': 'Mo-Fr 09:00-12:30,14:00-19:00, Sa 09:00-12:30'}}"
"{'type': 'node', 'id': 364672320, 'lat': 50.8370855, 'lon': 4.4297216, 'tags': {'amenity': 'pharmacy', 'dispensing': 'yes'}}"
"{'type': 'node', 'id': 367906823, 'lat': 50.860112, 'lon': 4.5346346, 'tags': {'addr:city': 'Tervuren', 'addr:housenumber': '320', 'addr:postcode': '3080', 'addr:street': 'Moorselstraat', 'amenity': 'pharmacy', 'check_date': '2024-09-04', 'dispensing': 'yes', 'drive_through': 'no', 'healthcare': 'pharmacy', 'name': 'Vitaal Moorsel', 'wheelchair': 'limited'}}"
"{'type': 'node', 'id': 373527892, 'lat': 50.4793638, 'lon': 4.2092027, 'tags': {'addr:city': 'La Louvière', 'addr:housenumber': '187', 'addr:postcode': '7100', 'addr:street': 'Rue de Longtain', 'amenity': 'pharmacy', 'healthcare': 'pharmacy', 'name': 'Pharmacie Dolmans', 'operator': 'Yves Dolmans'}}"
"{'type': 'node', 'id': 373887034, 'lat': 50.8384115, 'lon': 4.5398983, 'tags': {'addr:city': 'Tervuren', 'addr:housenumber': '62', 'addr:postcode': '3080', 'addr:street': 'Waalse Baan', 'amenity': 'pharmacy', 'brand': 'Multipharma', 'brand:wikidata': 'Q62565018', 'dispensing': 'yes', 'healthcare': 'pharmacy', 'name': 'Multipharma', 'wheelchair': 'yes'}}"
"{'type': 'node', 'id': 376877472, 'lat': 50.8622306, 'lon': 4.5151944, 'tags': {'amenity': 'pharmacy', 'dispensing': 'yes', 'healthcare': 'pharmacy', 'name': 'De Coster', 'wheelchair': 'no'}}"
"{'type': 'node', 'id': 380849091, 'lat': 50.8407295, 'lon': 4.4944217, 'tags': {'amenity': 'pharmacy', 'dispensing': 'yes'}}"
"{'type': 'node', 'id': 380849127, 'lat': 50.8516634, 'lon': 4.4881575, 'tags': {'amenity': 'pharmacy', 'dispensing': 'yes', 'healthcare': 'pharmacy', 'name': 'Jansen-Ceuppens'}}"
"{'type': 'node', 'id': 383593628, 'lat': 50.8398531, 'lon': 4.4936199, 'tags': {'addr:housenumber': '130', 'amenity': 'pharmacy', 'dispensing': 'yes'}}"
"{'type': 'node', 'id': 383664685, 'lat': 50.8418085, 'lon': 4.4656917, 'tags': {'amenity': 'pharmacy', 'dispensing': 'yes', 'drive_through': 'no', 'healthcare': 'pharmacy', 'name': 'Pharma Stockel', 'opening_hours': 'Mo-Fr 08:30-19:00; Sa 09:00-13:00'}}"
"{'type': 'node', 'id': 383740935, 'lat': 50.8457658, 'lon': 4.4670894, 'tags': {'addr:housenumber': '313', 'amenity': 'pharmacy', 'dispensing': 'yes'}}"
"{'type': 'node', 'id': 385137177, 'lat': 50.8384046, 'lon': 4.4421343, 'tags': {'amenity': 'pharmacy', 'dispensing': 'yes', 'healthcare': 'pharmacy', 'name': 'Vandecasteele'}}"
"{'type': 'node', 'id': 388120856, 'lat': 50.8315506, 'lon': 4.4365853, 'tags': {'addr:housenumber': '18B', 'addr:street': 'Avenue Edmond Parmentier - Edmond Parmentierlaan', 'amenity': 'pharmacy', 'dispensing': 'yes'}}"
"{'type': 'node', 'id': 388139306, 'lat': 50.8314591, 'lon': 4.4517814, 'tags': {'amenity': 'pharmacy', 'dispensing': 'yes'}}"
"{'type': 'node', 'id': 389493171, 'lat': 50.8328809, 'lon': 4.4483646, 'tags': {'amenity': 'pharmacy', 'brand': 'Multipharma', 'brand:wikidata': 'Q62565018', 'dispensing': 'yes', 'healthcare': 'pharmacy', 'name': 'MultiPharma'}}"
"{'type': 'node', 'id': 389524966, 'lat': 50.8281307, 'lon': 4.4614338, 'tags': {'amenity': 'pharmacy', 'check_date:opening_hours': '2024-05-01', 'contact:phone': '+32 2 770 49 27', 'dispensing': 'yes', 'healthcare': 'pharmacy', 'name': 'Pharmacie du Parvis', 'opening_hours': 'Mo-Fr 08:30-13:00,14:00-19:00; Sa 08:30-13:00'}}"
"{'type': 'node', 'id': 392823592, 'lat': 50.76853, 'lon': 4.4723572, 'tags': {'amenity': 'pharmacy', 'brand': 'Multipharma', 'brand:wikidata': 'Q62565018', 'healthcare': 'pharmacy', 'name': 'Multipharma'}}"
"{'type': 'node', 'id': 392825132, 'lat': 50.7677199, 'lon': 4.4753543, 'tags': {'amenity': 'pharmacy'}}"
"{'type': 'node', 'id': 394760115, 'lat': 50.8449315, 'lon': 4.4858264, 'tags': {'addr:housenumber': '124', 'addr:street': 'Louis Marcelisstraat - Rue Louis Marcelis', 'amenity': 'pharmacy', 'dispensing': 'yes', 'healthcare': 'pharmacy', 'name': 'Apopharma'}}"
"{'type': 'node', 'id': 399484664, 'lat': 50.7487345, 'lon': 4.5201702, 'tags': {'amenity': 'pharmacy'}}"
"{'type': 'node', 'id': 401237486, 'lat': 50.8421982, 'lon': 4.4160552, 'tags': {'amenity': 'pharmacy', 'dispensing': 'yes', 'name': 'Druais', 'opening_hours': 'Mo-Fr 08:00-19:00; Sa 09:00-18:00'}}"
"{'type': 'node', 'id': 401274249, 'lat': 50.8369933, 'lon': 4.4190064, 'tags': {'amenity': 'pharmacy', 'contact:phone': '+32 2 770 22 19', 'dispensing': 'yes', 'healthcare': 'pharmacy', 'name': 'Anciaux'}}"
"{'type': 'node', 'id': 402491444, 'lat': 50.8478245, 'lon': 4.4075809, 'tags': {'amenity': 'pharmacy', 'dispensing': 'yes', 'name': 'Pharmacie Square Levie', 'opening_hours': 'Mo-Fr 09:00-13:00,14:30-18:30; Sa 09:00-13:00'}}"
"{'type': 'node', 'id': 402491470, 'lat': 50.842872, 'lon': 4.4138528, 'tags': {'amenity': 'pharmacy', 'dispensing': 'yes', 'name': 'Blanche', 'opening_hours': 'Mo-Fr 08:00-12:30,14:00-19:00; Sa 09:15-12:30'}}"
"{'type': 'node', 'id': 408863479, 'lat': 50.8190795, 'lon': 4.5055975, 'tags': {'addr:housenumber': '2', 'addr:postcode': '3080', 'addr:street': 'Jezus-Eiklaan', 'amenity': 'pharmacy', 'dispensing': 'yes', 'name': 'Apotheek Boone', 'opening_hours': 'Mo-Fr 08:30-12:30, 13:30-19:00; Sa 09:00-00:30', 'website': 'https://apotheekboone.be/'}}"
"{'type': 'node', 'id': 408990438, 'lat': 50.816553, 'lon': 4.4341879, 'tags': {'amenity': 'pharmacy', 'dispensing': 'yes', 'healthcare': 'pharmacy', 'name': 'Godin'}}"
"{'type': 'node', 'id': 409003601, 'lat': 50.661028, 'lon': 4.4223427, 'tags': {'amenity': 'pharmacy'}}"
"{'type': 'node', 'id': 409773808, 'lat': 50.8344971, 'lon': 4.5570966, 'tags': {'amenity': 'pharmacy', 'dispensing': 'yes', 'healthcare': 'pharmacy', 'name': 'Apotheker Inge Annaert'}}"
"{'type': 'node', 'id': 410452633, 'lat': 50.894715, 'lon': 4.4360417, 'tags': {'addr:housenumber': '13', 'addr:street': 'Alfons De Cockplein', 'amenity': 'pharmacy', 'dispensing': 'yes', 'name': 'Nysen'}}"
"{'type': 'node', 'id': 410487467, 'lat': 50.948668, 'lon': 4.4601702, 'tags': {'addr:city': 'Vilvoorde', 'addr:housenumber': '1', 'addr:postcode': '1800', 'addr:street': 'Hooigaardestraat', 'amenity': 'pharmacy', 'dispensing': 'yes', 'healthcare': 'pharmacy', 'name': 'Apotheek Keymoken'}}"
"{'type': 'node', 'id': 412437206, 'lat': 50.9304602, 'lon': 4.4219186, 'tags': {'addr:city': 'Vilvoorde', 'addr:housenumber': '17', 'addr:postcode': '1800', 'addr:street': 'Mechelsestraat', 'amenity': 'pharmacy', 'dispensing': 'yes', 'healthcare': 'pharmacy', 'name': 'Apotheek Vandeneede'}}"
"{'type': 'node', 'id': 413941654, 'lat': 50.8167365, 'lon': 4.5522276, 'tags': {'amenity': 'pharmacy', 'dispensing': 'yes', 'healthcare': 'pharmacy'}}"
"{'type': 'node', 'id': 417672900, 'lat': 50.8372625, 'lon': 4.4154829, 'tags': {'amenity': 'pharmacy', 'dispensing': 'yes', 'name': 'Pharmacie de Gribaumont'}}"
"{'type': 'node', 'id': 417672912, 'lat': 50.8305811, 'lon': 4.4156661, 'tags': {'amenity': 'pharmacy', 'contact:email': 'info@pharma-lefebure.be', 'contact:phone': '+32 2 770 35 25', 'contact:website': 'https://lefebure.pharmacie.be/', 'dispensing': 'yes', 'name': 'Lefébure', 'opening_hours': 'Mo-Fr 09:00-12:30,14:00-19:00; Sa 09:00-12:30', 'wheelchair': 'yes'}}"
"{'type': 'node', 'id': 417672919, 'lat': 50.8306648, 'lon': 4.413974, 'tags': {'amenity': 'clinic', 'contact:email': 'info@centrestepbystep.be', 'contact:phone': '+32 498 69 43 41', 'contact:website': 'http://www.centrestepbystep.be', 'healthcare': 'clinic', 'healthcare:speciality': 'orthopaedics;physiatry;psychotherapist', 'name': 'Step by Step'}}"
"{'type': 'node', 'id': 417681377, 'lat': 50.8276459, 'lon': 4.4187892, 'tags': {'addr:housenumber': '4', 'addr:street': 'Avenue des Franciscains - Franciskanenlaan', 'amenity': 'pharmacy', 'dispensing': 'yes', 'noname': 'yes', 'opening_hours': 'Mo-Fr 08:30-12:30,14:00-19:00; Sa 09:00-12:30'}}"
"{'type': 'node', 'id': 417856227, 'lat': 50.4995399, 'lon': 4.0039126, 'tags': {'addr:housenumber': '163A', 'addr:street': 'Rue Brisée', 'amenity': 'pharmacy', 'contact:email': 'pharmaciedelabrisee@gmail.com', 'contact:facebook': 'https://www.facebook.com/pharmaciedelabrisee', 'contact:phone': '+32 65 72 88 61', 'dispensing': 'yes', 'name': 'Pharmacie de la Brisée', 'opening_hours': 'Mo-Fr 08:30-12:30,13:30-18:30; Sa 09:00-12:30'}}"
"{'type': 'node', 'id': 418893915, 'lat': 50.8233914, 'lon': 4.4080014, 'tags': {'amenity': 'pharmacy', 'contact:email': 'info@neweuropa.be', 'contact:phone': '+32 2 673 12 00', 'contact:website': 'http://www.neweuropa.be/', 'dispensing': 'yes', 'healthcare': 'pharmacy', 'name': 'New Europa', 'opening_hours': 'Mo-Fr 08:45-12:30,14:00-18:45; Sa 09:00-12:30'}}"
"{'type': 'node', 'id': 420149367, 'lat': 50.7780608, 'lon': 4.5214514, 'tags': {'amenity': 'pharmacy', 'dispensing': 'yes'}}"
"{'type': 'node', 'id': 420174600, 'lat': 50.7729845, 'lon': 4.5369655, 'tags': {'amenity': 'pharmacy', 'dispensing': 'yes', 'healthcare': 'pharmacy', 'name': 'Apotheek Retour'}}"
"{'type': 'node', 'id': 421862058, 'lat': 50.8051354, 'lon': 4.3448792, 'tags': {'amenity': 'clinic', 'contact:phone': '+32 2 431 76 00', 'contact:website': 'http://www.laramee.be', 'description:fr': 'Clinique psychiatrique La Ramée', 'emergency': 'no', 'healthcare:speciality': 'psychiatry', 'name': 'Clinique La Ramée', 'operator': 'Epsylon ASBL'}}"
"{'type': 'node', 'id': 423335846, 'lat': 50.8241011, 'lon': 4.3502665, 'tags': {'amenity': 'pharmacy', 'check_date': '2024-09-04', 'dispensing': 'yes', 'name': 'Van Elwyck'}}"
"{'type': 'node', 'id': 428817824, 'lat': 50.6830563, 'lon': 4.2092309, 'tags': {'amenity': 'pharmacy', 'dispensing': 'no', 'name': 'Jonckheere D'}}"
"{'type': 'node', 'id': 428817825, 'lat': 50.6924125, 'lon': 4.2082663, 'tags': {'addr:housenumber': '50', 'addr:street': 'Rue de la Déportation', 'amenity': 'pharmacy', 'dispensing': 'no', 'name': 'Vandersteen J'}}"
"{'type': 'node', 'id': 428825954, 'lat': 50.6868591, 'lon': 4.2233741, 'tags': {'amenity': 'pharmacy', 'dispensing': 'no', 'name': 'De Ruydts E'}}"
"{'type': 'node', 'id': 429284469, 'lat': 51.7366408, 'lon': 3.8391035, 'tags': {'addr:city': 'Scharendijke', 'addr:housenumber': '32', 'addr:postcode': '4322AB', 'addr:street': 'Dijkstraat', 'amenity': 'pharmacy', 'check_date:opening_hours': '2024-07-12', 'contact:fax': '+31 111 692 629', 'contact:phone': '+31 111 691 280', 'contact:phone:emergency': '+31 111 691 280 1', 'contact:website': 'https://www.hapdewaag.nl/', 'healthcare': 'pharmacy', 'name': 'Apotheek de Waag', 'opening_hours': 'Mo-Fr 10:30-12:00; PH,Sa,Su off', 'source': 'https://www.hapdewaag.nl/'}}"
"{'type': 'node', 'id': 429503475, 'lat': 50.8504608, 'lon': 4.3941542, 'tags': {'amenity': 'pharmacy', 'brand': 'Multipharma', 'brand:wikidata': 'Q62565018', 'check_date': '2024-10-10', 'check_date:opening_hours': '2024-10-10', 'dispensing': 'yes', 'drive_through': 'no', 'healthcare': 'pharmacy', 'level': '0', 'name': 'Multipharma', 'opening_hours': 'Mo-Fr 09:00-13:00,13:30-18:30; Sa 09:00-12:30', 'payment:cash': 'yes', 'payment:credit_cards': 'yes', 'payment:debit_cards': 'yes'}}"
"{'type': 'node', 'id': 430123333, 'lat': 50.7724663, 'lon': 4.5386151, 'tags': {'addr:city': 'Overijse', 'addr:housenumber': '22', 'addr:postcode': '3090', 'addr:street': 'Waversesteenweg', 'amenity': 'pharmacy', 'dispensing': 'yes', 'healthcare': 'pharmacy', 'name': 'Farmacenter Maisin', 'phone': '+32 2 687 73 08', 'website': 'https://www.farmacenter.be/'}}"
"{'type': 'node', 'id': 430402076, 'lat': 50.8607462, 'lon': 4.4669528, 'tags': {'addr:city': 'Kraainem', 'addr:country': 'BE', 'addr:housenumber': '20', 'addr:postcode': '1950', 'addr:street': 'Arthur Dezangrélaan', 'amenity': 'doctors', 'healthcare': 'doctor', 'healthcare:speciality': 'general', 'name': 'P. & S. van Mulders', 'opening_hours': 'Mo 08:30-10:00, We 08:30-10:00, Fr 08:30-10:00, Sa 09:30-11:00', 'phone': '+32 2 720 10 51'}}"
"{'type': 'node', 'id': 430402078, 'lat': 50.8600713, 'lon': 4.4664403, 'tags': {'addr:city': 'Kraainem', 'addr:country': 'BE', 'addr:housenumber': '32', 'addr:postcode': '1950', 'addr:street': 'Koningin Astridlaan', 'amenity': 'doctors', 'healthcare': 'doctor', 'healthcare:speciality': 'paediatrics', 'name': 'Dr. Catherine de Roy', 'phone': '+32 2 720 80 84'}}"
"{'type': 'node', 'id': 430860156, 'lat': 50.8946284, 'lon': 4.4341023, 'tags': {'addr:housenumber': '50', 'addr:street': 'Oude Haachtsesteenweg', 'amenity': 'pharmacy', 'dispensing': 'yes', 'name': ""'t Pleintje""}}"
"{'type': 'node', 'id': 430866017, 'lat': 50.5663987, 'lon': 4.1656409, 'tags': {'amenity': 'pharmacy', 'brand': 'Multipharma', 'brand:wikidata': 'Q62565018', 'healthcare': 'pharmacy', 'name': 'Multipharma', 'operator': 'Multipharma'}}"
"{'type': 'node', 'id': 434341232, 'lat': 50.789905, 'lon': 4.5881871, 'tags': {'amenity': 'pharmacy', 'dispensing': 'yes'}}"
"{'type': 'node', 'id': 440179897, 'lat': 51.2107121, 'lon': 4.5980279, 'tags': {'addr:city': 'Oelegem', 'addr:housenumber': '25', 'addr:postcode': '2520', 'addr:street': 'Torenplein', 'amenity': 'pharmacy', 'name': 'Buphar'}}"
"{'type': 'node', 'id': 441170477, 'lat': 51.2072236, 'lon': 4.4296429, 'tags': {'addr:housenumber': '25', 'addr:postcode': '2018', 'addr:street': 'Dageraadplaats', 'amenity': 'pharmacy', 'check_date': '2024-02-17', 'dispensing': 'yes', 'email': 'pharmalux@zwitserseapotheek.be', 'healthcare': 'pharmacy', 'name': 'Zwitserse Apotheek', 'opening_hours': 'Mo-Fr 09:00-12:30,14:00-18:30; Sa,Su,PH off', 'phone': '+32 3 236 28 71', 'website': 'http://www.zwitserseapotheek.be/'}}"
"{'type': 'node', 'id': 442453677, 'lat': 50.4866602, 'lon': 4.7551935, 'tags': {'amenity': 'pharmacy', 'healthcare': 'pharmacy', 'name': 'Bou Sleiman', 'opening_hours': 'Mo-Sa 09:00-12:30, Mo-Fr 14:00-19:00'}}"
"{'type': 'node', 'id': 443058677, 'lat': 50.8819049, 'lon': 4.7119064, 'tags': {'addr:city': 'Leuven', 'addr:housenumber': '223', 'addr:postcode': '3000', 'addr:street': 'Diestsestraat', 'amenity': 'pharmacy', 'entrance:kerb:height': '0', 'entrance:step_count': '0', 'entrance:width': '1.21', 'name': 'Apotheek Davidts', 'wheelchair:turning_circle': 'yes'}}"
"{'type': 'node', 'id': 447956780, 'lat': 50.8023245, 'lon': 4.3163316, 'tags': {'amenity': 'pharmacy', 'contact:phone': '+32 2 332 30 64', 'dispensing': 'yes', 'healthcare': 'pharmacy', 'name': 'Pharmacie du Bempt', 'opening_hours': 'Mo-Fr 09:00-19:00; Sa 09:00-12:30'}}"
"{'type': 'node', 'id': 447959256, 'lat': 50.8049066, 'lon': 4.3192659, 'tags': {'amenity': 'pharmacy', 'contact:phone': '+32 2 376 52 81', 'dispensing': 'yes', 'name': 'Van Durme Hancisse'}}"
"{'type': 'node', 'id': 451704995, 'lat': 51.0293477, 'lon': 3.8493142, 'tags': {'addr:housenumber': '29', 'addr:street': 'Dorpsstraat', 'amenity': 'pharmacy', 'email': 'apotheeksuys@skynet.be', 'name': 'Suys', 'opening_hours': 'Mo-Fr 08:30-12:15,14:00-19:00; We,Sa 08:30-12:30', 'phone': '+32 9 369 14 83', 'website': 'https://apotheeksuys.be/'}}"
"{'type': 'node', 'id': 452587818, 'lat': 50.880355, 'lon': 4.7102871, 'tags': {'addr:city': 'Leuven', 'addr:housenumber': '88', 'addr:postcode': '3000', 'addr:street': 'Bondgenotenlaan', 'amenity': 'pharmacy', 'changing_table': 'no', 'drive_through': 'no', 'entrance:kerb:height': '0.11', 'entrance:ramp': 'no', 'entrance:step_count': '1', 'entrance:width': '0.77', 'healthcare': 'pharmacy', 'level': '0', 'name': 'Medi-Market', 'opening_hours': 'Mo-Fr 09:00-18:30; Sa 10:00-18:00', 'operator': 'Medi-Market Group', 'phone': '+32 16 22 23 37', 'toilets:wheelchair': 'no', 'website': 'https://stores.medi-market.be/nl/apotheek-pharmacy-medi-market-leuven', 'wheelchair:turning_circle': 'yes'}}"
"{'type': 'node', 'id': 455023486, 'lat': 50.8861188, 'lon': 4.4710892, 'tags': {'amenity': 'pharmacy', 'changing_table': 'no', 'dispensing': 'yes', 'drive_through': 'no', 'entrance:kerb:height': '0', 'entrance:step_count': '0', 'entrance:width': '0.85', 'healthcare': 'pharmacy', 'image': 'https://www.flickr.com/photos/193328260@N06/51268924070', 'name': 'Descheemaeker', 'opening_hours': 'Mo-Fr 08:30-12:30,13:30-19:00; PH closed', 'toilets:wheelchair': 'no', 'wheelchair': 'yes', 'wheelchair:turning_circle': 'no'}}"
"{'type': 'node', 'id': 455023492, 'lat': 50.8819116, 'lon': 4.4721128, 'tags': {'amenity': 'pharmacy', 'name': 'Kestemont'}}"
"{'type': 'node', 'id': 455896233, 'lat': 51.0242048, 'lon': 4.4753847, 'tags': {'amenity': 'pharmacy', 'healthcare': 'pharmacy', 'name': 'Els Geukens'}}"
"{'type': 'node', 'id': 455940259, 'lat': 51.0120419, 'lon': 4.4737082, 'tags': {'amenity': 'pharmacy', 'healthcare': 'pharmacy'}}"
"{'type': 'node', 'id': 456847054, 'lat': 51.0295921, 'lon': 4.4736539, 'tags': {'amenity': 'pharmacy', 'entrance:kerb:height': '0.05', 'entrance:step_count': '1', 'entrance:width': '1.43', 'healthcare': 'pharmacy', 'toilets:wheelchair': 'no'}}"
"{'type': 'node', 'id': 457481343, 'lat': 50.8092695, 'lon': 4.4036134, 'tags': {'amenity': 'pharmacy', 'dispensing': 'yes', 'healthcare': 'pharmacy', 'name': 'Penninckx', 'opening_hours': 'Mo-Fr 09:00-13:00,14:00-18:30; Sa 09:00-12:30'}}"
"{'type': 'node', 'id': 457953520, 'lat': 50.7146136, 'lon': 4.384955, 'tags': {'addr:city': 'Waterloo', 'addr:country': 'BE', 'addr:housenumber': '119', 'addr:postcode': '1410', 'addr:street': 'Rue de la Station', 'amenity': 'pharmacy', 'email': 'pharmaciegarewaterloo@gmail.com', 'healthcare': 'pharmacy', 'name': 'Pharmacie de la gare', 'opening_hours': 'Mo-Fr 09:00-13:00, 14:00-19:00; Sa 09:00-12:00', 'phone': '+32 2 354 73 72', 'wheelchair': 'yes'}}"
"{'type': 'node', 'id': 462202516, 'lat': 50.9233564, 'lon': 4.409628, 'tags': {'amenity': 'pharmacy', 'dispensing': 'yes', 'name': 'Evn Pharma'}}"
"{'type': 'node', 'id': 462214426, 'lat': 50.9252084, 'lon': 4.398411, 'tags': {'amenity': 'pharmacy', 'dispensing': 'yes', 'healthcare': 'pharmacy', 'name': 'Apotheek Molenveld'}}"
"{'type': 'node', 'id': 462349489, 'lat': 51.2153226, 'lon': 4.6600105, 'tags': {'addr:housenumber': '1', 'addr:street': 'Liersebaan', 'amenity': 'pharmacy', 'dispensing': 'yes', 'entrance:kerb:height': '0', 'entrance:step_count': '0', 'entrance:width': '1.01', 'healthcare': 'pharmacy', 'name': 'Denys'}}"
"{'type': 'node', 'id': 465233462, 'lat': 50.7955729, 'lon': 4.1151726, 'tags': {'amenity': 'pharmacy', 'healthcare': 'pharmacy'}}"
"{'type': 'node', 'id': 469195298, 'lat': 50.7575049, 'lon': 4.3800673, 'tags': {'amenity': 'pharmacy', 'dispensing': 'yes', 'healthcare': 'pharmacy', 'name': 'Espidec'}}"
"{'type': 'node', 'id': 469196799, 'lat': 50.7484936, 'lon': 4.3611258, 'tags': {'amenity': 'pharmacy', 'dispensing': 'yes', 'email': 'apotheek.follon@skynet.be', 'healthcare': 'pharmacy', 'name': 'Follon', 'opening_hours': 'Mo-Fr 08:30-12:30, 14:00-19:00; Sa 08:30-13:00'}}"
"{'type': 'node', 'id': 470889362, 'lat': 50.7350112, 'lon': 4.6499499, 'tags': {'addr:housenumber': '408C', 'addr:street': 'Chaussée de Wavre', 'amenity': 'pharmacy', 'dispensing': 'yes', 'healthcare': 'pharmacy', 'name': 'Pharmacie du Parc', 'phone': '+32 10 84 15 45'}}"
"{'type': 'node', 'id': 471064541, 'lat': 50.7983579, 'lon': 4.4020404, 'tags': {'amenity': 'pharmacy', 'contact:phone': '+32 2 672 63 20', 'dispensing': 'yes', 'drive_through': 'no', 'healthcare': 'pharmacy', 'name': 'Corthouts', 'opening_hours': 'Mo-Fr 08:30-18:30; Sa 09:00-12:30', 'payment:cash': 'yes', 'payment:credit_cards': 'yes', 'payment:debit_cards': 'yes'}}"
"{'type': 'node', 'id': 471072464, 'lat': 50.8153245, 'lon': 4.3892475, 'tags': {'amenity': 'pharmacy', 'brand': 'Multipharma', 'brand:wikidata': 'Q62565018', 'contact:email': 'multipharma.0083@multipharma.be', 'dispensing': 'yes', 'drive_through': 'no', 'healthcare': 'pharmacy', 'name': 'Multipharma', 'opening_hours': 'Mo-Fr 09:00-18:30; Sa 09:00-17:00', 'operator': 'Multipharma'}}"
"{'type': 'node', 'id': 471352348, 'lat': 50.8553447, 'lon': 4.3153641, 'tags': {'amenity': 'pharmacy', 'contact:email': 'apo.molenbeek@goed.be', 'contact:phone': '+32 2 414 49 10', 'dispensing': 'yes', 'healthcare': 'pharmacy', 'name': 'Goed', 'opening_hours': 'Mo-Fr 08:30-12:30,13:15-18:00; Sa 08:30-12:00'}}"
"{'type': 'node', 'id': 472272004, 'lat': 51.2536198, 'lon': 4.4632788, 'tags': {'addr:housenumber': '2', 'addr:street': 'Merksemheidelaan', 'amenity': 'pharmacy', 'dispensing': 'yes', 'healthcare': 'pharmacy', 'name': 'Apotheek De Ferm', 'opening_hours': 'Mo-Fr 09:00-12:30,14:00-18:30', 'phone': '+32 3 645 88 00', 'website': 'https://apotheekdeferm.apotheek.be/'}}"
"{'type': 'node', 'id': 475606243, 'lat': 50.8403243, 'lon': 4.464834, 'tags': {'amenity': 'pharmacy', 'dispensing': 'yes', 'drive_through': 'no', 'healthcare': 'pharmacy'}}"
"{'type': 'node', 'id': 476703341, 'lat': 50.9477859, 'lon': 4.4124293, 'tags': {'addr:housenumber': '150', 'addr:street': 'Westvaartdijk', 'amenity': 'pharmacy', 'dispensing': 'yes', 'name': 'Haemels'}}"
"{'type': 'node', 'id': 481004314, 'lat': 50.9734023, 'lon': 4.3857189, 'tags': {'addr:housenumber': '129-131', 'addr:street': 'Kerkstraat', 'amenity': 'pharmacy', 'dispensing': 'yes', 'name': 'Humbeek Pharma'}}"
"{'type': 'node', 'id': 482449786, 'lat': 50.6077089, 'lon': 4.1376672, 'tags': {'amenity': 'pharmacy', 'healthcare': 'pharmacy', 'name': 'Deltenre'}}"
"{'type': 'node', 'id': 483071463, 'lat': 50.9330891, 'lon': 4.3702043, 'tags': {'addr:housenumber': '4', 'addr:street': 'Kerkplein', 'amenity': 'pharmacy', 'healthcare': 'pharmacy', 'name': 'De Helm', 'wheelchair': 'yes'}}"
"{'type': 'node', 'id': 483703335, 'lat': 51.1281923, 'lon': 4.4732078, 'tags': {'addr:city': 'Kontich', 'addr:country': 'BE', 'addr:housenumber': '39', 'addr:postcode': '2550', 'addr:street': 'Kapelstraat', 'email': 'info@geboortepraktijk.be', 'healthcare': 'midwife', 'name': 'De Geboortepraktijk', 'phone': '+32 493 32 14 52', 'website': 'https://www.geboortepraktijk.be/'}}"
"{'type': 'node', 'id': 485996369, 'lat': 50.8491689, 'lon': 4.3836181, 'tags': {'amenity': 'pharmacy', 'check_date': '2024-11-14', 'dispensing': 'yes', 'name': 'Jade', 'opening_hours': 'Mo-Fr 08:30-13:00,14:00-19:00; Sa 09:15-13:00'}}"
"{'type': 'node', 'id': 488330333, 'lat': 50.8509333, 'lon': 4.3769295, 'tags': {'amenity': 'pharmacy', 'check_date': '2024-09-24', 'dispensing': 'yes', 'healthcare': 'pharmacy', 'name': 'Saint-Josse'}}"
"{'type': 'node', 'id': 493193906, 'lat': 50.8885403, 'lon': 4.3288842, 'tags': {'addr:housenumber': '15', 'addr:street': 'Avenue Jean Joseph Crocq - Jean Joseph Crocqlaan', 'amenity': 'hospital', 'contact:phone': '+32 2 477 33 11', 'contact:website': 'https://www.huderf.be/', 'emergency': 'yes', 'healthcare': 'hospital', 'name': 'Hôpital Universitaire des Enfants Reine Fabiola - Universitair Kinderziekenhuis Koninging Fabiola', 'name:etymology:wikidata': 'Q231171', 'name:fr': 'Hôpital Universitaire des Enfants Reine Fabiola', 'name:nl': 'Universitair Kinderziekenhuis Koninging Fabiola', 'wheelchair': 'yes', 'wikidata': 'Q19951059'}}"
"{'type': 'node', 'id': 494491028, 'lat': 51.1397876, 'lon': 4.4540402, 'tags': {'amenity': 'pharmacy', 'dispensing': 'yes', 'healthcare': 'pharmacy', 'name': 'Vranken Luc', 'opening_hours': 'Mo-Fr 09:00-12:30,14:00-18:30; Sa 09:00-12:30', 'wheelchair': 'yes'}}"
"{'type': 'node', 'id': 494491031, 'lat': 51.132654, 'lon': 4.4511712, 'tags': {'addr:housenumber': '4', 'addr:street': ""'s Herenlei"", 'amenity': 'doctors', 'healthcare': 'doctor', 'name': 'Van der Cam K. & Maximus An', 'phone': '+32 3 457 12 47', 'website': 'https://www.huisartsenkontich.be'}}"
"{'type': 'node', 'id': 494790017, 'lat': 51.1032709, 'lon': 4.2663956, 'tags': {'amenity': 'pharmacy', 'healthcare': 'pharmacy'}}"
"{'type': 'node', 'id': 494941037, 'lat': 50.9600252, 'lon': 4.4970642, 'tags': {'addr:city': 'Elewijt', 'addr:housenumber': '772', 'addr:postcode': '1982', 'addr:street': 'Tervuursesteenweg', 'amenity': 'pharmacy', 'dispensing': 'yes', 'entrance:kerb:height': '0', 'entrance:step_count': '0', 'entrance:width': '0.83', 'healthcare': 'pharmacy', 'name': 'Apotheek Apelec', 'website': 'https://www.apotheekopzak.be/apotheek-apelec'}}"
"{'type': 'node', 'id': 494962829, 'lat': 50.9121326, 'lon': 4.4769401, 'tags': {'amenity': 'pharmacy', 'dispensing': 'yes'}}"
"{'type': 'node', 'id': 495045077, 'lat': 50.9788065, 'lon': 4.3523482, 'tags': {'addr:city': 'Nieuwenrode', 'addr:housenumber': '59', 'addr:postcode': '1880', 'addr:street': 'Paddegatstraat', 'amenity': 'pharmacy', 'healthcare': 'pharmacy', 'name': 'Apotheek', 'opening_hours': 'Mo-Fr 08:30-12:30,13:30-19:00; Sa 09:30-12:00', 'operator': 'Joke Van Den Brande', 'phone': '+32 15 71 33 39'}}"
"{'type': 'node', 'id': 495189769, 'lat': 51.2073868, 'lon': 4.4199025, 'tags': {'amenity': 'pharmacy', 'check_date': '2024-08-24', 'dispensing': 'yes', 'healthcare': 'pharmacy', 'name': 'Apotheek Bek', 'website': 'https://apotheekbek.be'}}"
"{'type': 'node', 'id': 495190058, 'lat': 51.2057336, 'lon': 4.4175826, 'tags': {'amenity': 'pharmacy', 'check_date': '2024-08-24', 'dispensing': 'yes', 'healthcare': 'pharmacy', 'name': 'Kruispunt Apotheek'}}"
"{'type': 'node', 'id': 498292140, 'lat': 50.5611591, 'lon': 4.6839645, 'tags': {'amenity': 'dentist', 'healthcare': 'dentist', 'name': 'Olivier Loriau'}}"
"{'type': 'node', 'id': 498292208, 'lat': 50.5676729, 'lon': 4.6823889, 'tags': {'amenity': 'doctors', 'healthcare': 'doctor', 'name': 'Chantal Compère'}}"
"{'type': 'node', 'id': 498292271, 'lat': 50.5587476, 'lon': 4.6948755, 'tags': {'amenity': 'dentist', 'healthcare': 'dentist', 'name': 'A Vandegaer'}}"
"{'type': 'node', 'id': 498292306, 'lat': 50.5615552, 'lon': 4.6990548, 'tags': {'amenity': 'doctors', 'healthcare': 'doctor', 'name': 'Dominique Notte'}}"
"{'type': 'node', 'id': 498292354, 'lat': 50.5617772, 'lon': 4.6985225, 'tags': {'amenity': 'dentist', 'healthcare': 'dentist', 'name': 'Nicole Cordier'}}"
"{'type': 'node', 'id': 500350892, 'lat': 51.2225909, 'lon': 4.4586056, 'tags': {'amenity': 'pharmacy', 'healthcare': 'pharmacy', 'name': 'De Beul'}}"
"{'type': 'node', 'id': 501883781, 'lat': 50.5677404, 'lon': 4.6794942, 'tags': {'amenity': 'doctors', 'healthcare': 'doctor', 'name': 'Françoise Morsomme'}}"
"{'type': 'node', 'id': 501883787, 'lat': 50.5485794, 'lon': 4.7151442, 'tags': {'amenity': 'doctors', 'healthcare': 'doctor', 'name': 'Nikolaos CARO'}}"
"{'type': 'node', 'id': 502370393, 'lat': 50.9407539, 'lon': 4.553792, 'tags': {'amenity': 'pharmacy', 'changing_table': 'no', 'dispensing': 'yes', 'entrance:kerb:height': '0.06', 'entrance:ramp': 'no', 'entrance:step_count': '1', 'entrance:width': '1.02', 'name': 'Van Hamme', 'toilets:wheelchair': 'no', 'wheelchair:turning_circle': 'yes'}}"
"{'type': 'node', 'id': 503605825, 'lat': 50.6158743, 'lon': 4.5090527, 'tags': {'amenity': 'dentist', 'healthcare': 'dentist', 'name': 'Anne Delporte'}}"
"{'type': 'node', 'id': 506116554, 'lat': 51.2132962, 'lon': 4.4574944, 'tags': {'amenity': 'pharmacy', 'healthcare': 'pharmacy', 'name': 'Ter Rivieren'}}"
"{'type': 'node', 'id': 506266539, 'lat': 50.4795454, 'lon': 3.6931756, 'tags': {'amenity': 'pharmacy'}}"
"{'type': 'node', 'id': 506266540, 'lat': 50.4780523, 'lon': 3.6919631, 'tags': {'amenity': 'pharmacy'}}"
"{'type': 'node', 'id': 510283083, 'lat': 50.9804182, 'lon': 4.5297668, 'tags': {'addr:city': 'Schiplaken', 'addr:housenumber': '302', 'addr:postcode': '3191', 'addr:street': 'Bieststraat', 'amenity': 'pharmacy', 'branch': 'Schiplaken', 'dispensing': 'yes', 'email': 'schiplaken@kinget.net', 'healthcare': 'pharmacy', 'name': 'Apotheek Kinget', 'opening_hours': 'Mo-Fr 08:30-12:30,14:00-18:30; Sa 09:00-12:00', 'phone': '+32 15 61 20 92', 'website': 'https://www.apotheek-kinget.be/apotheken/apotheek-kinget-schiplaken/'}}"
"{'type': 'node', 'id': 517883413, 'lat': 51.1629724, 'lon': 4.6050235, 'tags': {'amenity': 'pharmacy', 'dispensing': 'yes', 'name': 'Apotheek J.Moonen BV'}}"
"{'type': 'node', 'id': 528778800, 'lat': 50.9769449, 'lon': 4.5044543, 'tags': {'amenity': 'pharmacy', 'dispensing': 'yes'}}"
"{'type': 'node', 'id': 538848198, 'lat': 51.0037221, 'lon': 3.8003523, 'tags': {'addr:housenumber': '301', 'addr:street': 'Brusselsesteenweg', 'amenity': 'pharmacy', 'changing_table': 'no', 'email': 'eva@apotheekvanheel.be', 'entrance:kerb:height': '0.25', 'entrance:ramp': 'no', 'entrance:step_count': '2', 'entrance:width': '0.91', 'name': 'Eva Vanheel', 'phone': '+32 9 252 14 69', 'toilets:wheelchair': 'no', 'website': 'https://apotheekvanheel.apotheek.be/', 'wheelchair:turning_circle': 'no'}}"
"{'type': 'node', 'id': 549770863, 'lat': 50.8644269, 'lon': 4.6252879, 'tags': {'addr:housenumber': '171', 'addr:street': 'Tervuursesteenweg', 'amenity': 'pharmacy', 'dispensing': 'yes', 'healthcare': 'pharmacy', 'name': 'Apotheek Bollen-Van Bladel', 'opening_hours': 'Mo-Fr 08:30-12:30,13:30-19:00; Sa 09:00-13:00', 'phone': '+32 16 48 91 72', 'website': 'https://bollen-vanbladel.be/', 'wheelchair': 'yes'}}"
"{'type': 'node', 'id': 549788512, 'lat': 50.8624685, 'lon': 4.6593359, 'tags': {'addr:housenumber': '242', 'addr:street': 'Sint-Jansbergsesteenweg', 'amenity': 'pharmacy', 'dispensing': 'yes', 'email': 'apotheek.egenhoven@skynet.be', 'name': 'Apotheek Egenhoven', 'opening_hours': 'Mo-Fr 08:30-19:00; Th,Sa 08:30-13:00', 'operator': 'Kristien Abels', 'phone': '+32 16 23 04 09', 'website': 'https://apotheekegenhoven.be/nl/#contact'}}"
"{'type': 'node', 'id': 551620251, 'lat': 51.6511232, 'lon': 4.0018166, 'tags': {'amenity': 'pharmacy', 'contact:website': 'https://hapnieuwerkerk.praktijkinfo.nl/apotheek/', 'healthcare': 'pharmacy', 'name': 'Huisartsenpraktijk Nieuwerkerk', 'opening_hours': 'Mo,We-Fr 08:00-12:00,13:00-17:30, Tu 08:00-12:00; PH,Sa,Su off, easter -2 days 08:00-12:00,13:00-17:30'}}"
"{'type': 'node', 'id': 553221120, 'lat': 50.8118075, 'lon': 4.3929418, 'tags': {'amenity': 'pharmacy', 'dispensing': 'yes'}}"
"{'type': 'node', 'id': 559760712, 'lat': 51.0020139, 'lon': 3.642839, 'tags': {'addr:city': 'Sint-Martens-Latem', 'addr:housenumber': '30', 'addr:postcode': '9830', 'addr:street': 'Keistraat', 'amenity': 'pharmacy', 'dispensing': 'yes', 'email': 'info@apotheekmoentjens.be', 'healthcare': 'pharmacy', 'name': 'Apotheek Moentjens Katrien', 'opening_hours': 'Mo-Sa 08:30-12:30,13:30-19:00', 'phone': '+32 9 282 86 64', 'website': 'https://www.apotheekmoentjens.be/'}}"
"{'type': 'node', 'id': 562809589, 'lat': 50.8643913, 'lon': 4.3939577, 'tags': {'amenity': 'pharmacy', 'dispensing': 'yes', 'healthcare': 'pharmacy', 'name': 'Gilisquet'}}"
"{'type': 'node', 'id': 562825168, 'lat': 50.87175, 'lon': 4.4052619, 'tags': {'amenity': 'pharmacy', 'dispensing': 'yes', 'name': 'Laperche'}}"
"{'type': 'node', 'id': 563976555, 'lat': 50.8690337, 'lon': 4.3943542, 'tags': {'amenity': 'pharmacy', 'dispensing': 'yes'}}"
"{'type': 'node', 'id': 564884058, 'lat': 50.8530952, 'lon': 4.3311645, 'tags': {'amenity': 'pharmacy', 'dispensing': 'yes'}}"
"{'type': 'node', 'id': 564930834, 'lat': 50.8500856, 'lon': 4.3292324, 'tags': {'amenity': 'doctors', 'healthcare': 'doctor'}}"
"{'type': 'node', 'id': 567185628, 'lat': 50.7080188, 'lon': 3.5978267, 'tags': {'amenity': 'pharmacy', 'dispensing': 'yes'}}"
"{'type': 'node', 'id': 571127775, 'lat': 50.8491947, 'lon': 4.350226, 'tags': {'amenity': 'pharmacy', 'contact:phone': '+32 2 218 06 40', 'dispensing': 'yes', 'name': 'Pharma City', 'opening_hours': 'Mo-Fr 09:00-19:00; Sa 09:30-19:00', 'wheelchair': 'yes'}}"
"{'type': 'node', 'id': 571836780, 'lat': 50.8726823, 'lon': 4.3904712, 'tags': {'amenity': 'pharmacy', 'dispensing': 'yes', 'healthcare': 'pharmacy'}}"
"{'type': 'node', 'id': 571853945, 'lat': 50.8732728, 'lon': 4.3771373, 'tags': {'amenity': 'pharmacy', 'dispensing': 'yes', 'drive_through': 'no', 'name': 'De Ruiter'}}"
"{'type': 'node', 'id': 571880932, 'lat': 50.894885, 'lon': 4.3867268, 'tags': {'amenity': 'pharmacy', 'contact:email': 'Pharmacie.Neder-Over-Heembeek@benu.be', 'contact:phone': '+32 2 262 02 08', 'contact:website': 'https://storelocator.benu.be/fr/pharmacie-benu-neder-over-heembeek', 'dispensing': 'yes', 'healthcare': 'pharmacy', 'name': 'BENU', 'opening_hours': 'Mo-Fr 08:30-12:30,13:30-19:00; Sa 08:30-12:30', 'operator': 'BENU'}}"
"{'type': 'node', 'id': 574849311, 'lat': 50.8730568, 'lon': 4.3826658, 'tags': {'amenity': 'pharmacy', 'contact:phone': '+32 2 215 70 87', 'dispensing': 'yes'}}"
"{'type': 'node', 'id': 587753465, 'lat': 50.8769454, 'lon': 4.3853744, 'tags': {'amenity': 'pharmacy', 'dispensing': 'yes'}}"
"{'type': 'node', 'id': 588439688, 'lat': 50.9128635, 'lon': 4.3729521, 'tags': {'addr:housenumber': '2', 'addr:street': 'Vinkenlaan', 'amenity': 'pharmacy', 'brand': 'Multipharma', 'brand:wikidata': 'Q62565018', 'contact:email': 'multipharma.0414@multipharma.be', 'contact:facebook': 'https://www.facebook.com/MultipharmaKoningslo/', 'dispensing': 'yes', 'healthcare': 'pharmacy', 'name': 'Multipharma', 'opening_hours': 'Mo-Fr 08:30-12:30,14:00-19:00; Sa 10:00-12:30', 'website': 'https://www.multipharma.be/on/demandware.store/Sites-Multipharma-Webshop-BE-Site/nl_BE/Stores-Detail?location=MULTIPHARMA-VILVOORDE-414'}}"
"{'type': 'node', 'id': 599605617, 'lat': 50.9047887, 'lon': 4.373034, 'tags': {'addr:housenumber': '96', 'addr:street': 'Steenstraat', 'amenity': 'pharmacy', 'contact:email': 'joostjappens@gmail.com', 'contact:phone': '+32 2 267 00 71', 'dispensing': 'yes', 'healthcare': 'pharmacy', 'name': 'Ten Voorde', 'opening_hours': 'Mo-Fr 08:30-12:30,14:00-19:00; Sa 09:00-12:30', 'website': 'https://apotheektenvoorde.pharmacollective.com/'}}"
"{'type': 'node', 'id': 599605656, 'lat': 50.9127858, 'lon': 4.3711505, 'tags': {'amenity': 'pharmacy', 'contact:phone': '+32 2 267 86 50', 'dispensing': 'yes', 'healthcare': 'pharmacy', 'name': 'Masy', 'opening_hours': 'Mo-Fr 08:30-12:30,14:00-19:00; Sa 08:30-13:00', 'website': 'https://masy.be/'}}"
"{'type': 'node', 'id': 600112202, 'lat': 50.9046462, 'lon': 4.3605686, 'tags': {'addr:housenumber': '159', 'addr:street': 'Bloemendallaan', 'amenity': 'pharmacy', 'contact:email': 'apotheekjaspers@gmail.com', 'contact:phone': '+32 2 267 04 15', 'contact:whatsapp': '+32 477 56 37 18', 'dispensing': 'yes', 'healthcare': 'pharmacy', 'name': 'Jaspers', 'opening_hours': 'Mo-Fr 09:00-12:30,14:00-19:00; Sa 09:00-12:30', 'website': 'https://apotheekjaspers.pharmacollective.com/'}}"
"{'type': 'node', 'id': 602500329, 'lat': 50.9014589, 'lon': 4.3538839, 'tags': {'addr:housenumber': '450', 'addr:street': 'Chaussée Romaine - Romeinsesteenweg', 'amenity': 'pharmacy', 'changing_table': 'no', 'contact:email': 'info@ringfarma.be', 'contact:facebook': 'https://www.facebook.com/Ringfarma/', 'contact:phone': '+32 2 267 75 04', 'dispensing': 'yes', 'entrance:kerb:height': '0.03', 'entrance:ramp': 'yes', 'entrance:step_count': '1', 'entrance:width': '0.95', 'healthcare': 'pharmacy', 'opening_hours': 'Mo-Fr 09:00-18:30; Sa 09:00-12:30', 'toilets:wheelchair': 'no', 'wheelchair': 'yes', 'wheelchair:turning_circle': 'yes'}}"
"{'type': 'node', 'id': 604316036, 'lat': 50.7044292, 'lon': 4.4397537, 'tags': {'amenity': 'pharmacy', 'dispensing': 'yes', 'name': 'Pharmacie Servais'}}"
"{'type': 'node', 'id': 604688760, 'lat': 50.8240781, 'lon': 4.3335968, 'tags': {'amenity': 'pharmacy', 'check_date:opening_hours': '2024-10-23', 'dispensing': 'yes', 'name': 'Pharmacie du Parc de Forest', 'opening_hours': 'Mo-Fr 09:00-18:30; Sa 09:00-13:00; Su off'}}"
"{'type': 'node', 'id': 609383701, 'lat': 50.8553395, 'lon': 4.3991284, 'tags': {'amenity': 'pharmacy', 'check_date': '2022-08-22', 'dispensing': 'yes', 'name': 'LloydsPharma', 'opening_hours': 'Mo-Fr 08:30-18:30; Sa 09:00-14:00; Su off'}}"
"{'type': 'node', 'id': 609977007, 'lat': 50.8640854, 'lon': 4.695751, 'tags': {'addr:housenumber': '160', 'addr:street': 'Naamsesteenweg', 'amenity': 'pharmacy', 'dispensing': 'yes', 'healthcare': 'pharmacy', 'name': 'Kerre', 'opening_hours': 'Mo-Fr 08:30-12:30,13:30-18:30; Sa 08:30-12:30', 'phone': '+32 16 22 51 75'}}"
"{'type': 'node', 'id': 614053198, 'lat': 50.5353534, 'lon': 4.4438534, 'tags': {'amenity': 'pharmacy', 'name': 'Pharmacie Dumont'}}"
"{'type': 'node', 'id': 614053201, 'lat': 50.5346554, 'lon': 4.4472887, 'tags': {'amenity': 'pharmacy'}}"
"{'type': 'node', 'id': 614583182, 'lat': 51.2583559, 'lon': 3.7183659, 'tags': {'amenity': 'pharmacy', 'name': 'Franck'}}"
"{'type': 'node', 'id': 615362989, 'lat': 50.9091536, 'lon': 4.3558421, 'tags': {'addr:housenumber': '1', 'addr:street': 'Wemmelsestraat', 'amenity': 'pharmacy', 'contact:email': 'apotheek.wille@gmail.com', 'contact:facebook': 'https://www.facebook.com/apotheekwille/', 'contact:phone': '+32 2 267 85 48', 'dispensing': 'yes', 'drive_through': 'yes', 'name': 'Wille', 'opening_hours': 'Mo-Fr 09:00-19:00; Sa 09:00-12:00', 'website': 'http://www.apotheekwille.be/', 'wheelchair': 'yes'}}"
"{'type': 'node', 'id': 616919554, 'lat': 51.1499606, 'lon': 4.4557066, 'tags': {'addr:city': 'Edegem', 'addr:country': 'BE', 'addr:housenumber': '20', 'addr:postcode': '2650', 'addr:street': 'Opstal', 'amenity': 'doctors', 'healthcare': 'doctor', 'name': 'B. Janssens'}}"
"{'type': 'node', 'id': 619163799, 'lat': 50.893245, 'lon': 4.3708903, 'tags': {'amenity': 'pharmacy', 'contact:email': 'pharmacie.des.pagodes@gmail.com', 'contact:facebook': 'https://www.facebook.com/pharmaciedespagodes/', 'contact:phone': '+32 2 268 04 65', 'dispensing': 'yes', 'healthcare': 'pharmacy', 'name': 'Pharmacie des Pagodes', 'opening_hours': 'Mo-Fr 09:00-12:30,14:00-19:00; Sa 09:00-12:30', 'wheelchair': 'yes'}}"
"{'type': 'node', 'id': 619181543, 'lat': 50.8971193, 'lon': 4.3568707, 'tags': {'amenity': 'pharmacy', 'contact:phone': '+32 2 262 09 72', 'dispensing': 'yes', 'name': 'Mutsaerd', 'opening_hours': 'Mo-Fr 09:00-19:00; Sa 09:00-13:00'}}"
"{'type': 'node', 'id': 621124999, 'lat': 51.1555496, 'lon': 4.447032, 'tags': {'amenity': 'pharmacy', 'healthcare': 'pharmacy', 'name': 'Cortebeeck', 'wheelchair': 'yes'}}"
"{'type': 'node', 'id': 623423095, 'lat': 50.4635073, 'lon': 4.0444912, 'tags': {'addr:housenumber': '1190', 'addr:street': 'Chaussée du Rœulx', 'amenity': 'pharmacy', 'dispensing': 'yes', 'drive_through': 'no', 'email': 'pharmaciemeurant@gmail.com', 'healthcare': 'pharmacy', 'name': 'Meurant', 'opening_hours': 'Mo-Fr 08:30-12:00,13:30-18:30; Sa 08:30-12:00', 'phone': '+32 65 87 11 85', 'website': 'https://www.pharmaciemeurant.be/'}}"
"{'type': 'node', 'id': 632497598, 'lat': 51.1260205, 'lon': 4.4942707, 'tags': {'addr:city': 'Lint', 'addr:housenumber': '9', 'addr:postcode': '2547', 'addr:street': 'Kardinaal Cardijnlaan', 'amenity': 'pharmacy', 'dispensing': 'yes', 'healthcare': 'pharmacy', 'name': 'Smeets'}}"
"{'type': 'node', 'id': 634997324, 'lat': 50.9655014, 'lon': 4.7901737, 'tags': {'addr:city': 'Gelrode', 'addr:housenumber': '11', 'addr:postcode': '3200', 'addr:street': 'Pastoor Dergentstraat', 'amenity': 'pharmacy', 'changing_table': 'no', 'entrance:kerb:height': '0', 'entrance:step_count': '0', 'entrance:width': '1.49', 'healthcare': 'pharmacy', 'name': 'Apotheek LloydsPharma Gelrode', 'phone': '+32 16 56 93 77', 'toilets:wheelchair': 'no', 'website': 'https://storelocator.lloydspharma.be/nl/pharma/apotheek-lloydspharma-gelrode', 'wheelchair:turning_circle': 'no'}}"
"{'type': 'node', 'id': 639059237, 'lat': 50.8282456, 'lon': 4.3852721, 'tags': {'amenity': 'pharmacy', 'check_date:opening_hours': '2024-04-14', 'dispensing': 'yes', 'name': 'Medsam', 'opening_hours:signed': 'no'}}"
"{'type': 'node', 'id': 639059243, 'lat': 50.8300033, 'lon': 4.3910357, 'tags': {'amenity': 'pharmacy', 'dispensing': 'yes', 'name': 'Maxpharma'}}"
"{'type': 'node', 'id': 639059251, 'lat': 50.8359263, 'lon': 4.3809745, 'tags': {'amenity': 'pharmacy', 'contact:fax': '+32 2 647 14 99', 'contact:phone': '+32 2 647 14 99', 'contact:website': 'https://www.pharmaciegoffin.be/etterbeek.html', 'dispensing': 'yes', 'healthcare': 'pharmacy', 'name': 'Goffin', 'opening_hours': 'Mo-Fr 09:00-19:00; Sa 09:30-13:00', 'payment:maestro': 'yes', 'payment:mastercard': 'yes', 'payment:payconiq': 'yes', 'payment:visa': 'yes'}}"
"{'type': 'node', 'id': 639059254, 'lat': 50.8373781, 'lon': 4.3817684, 'tags': {'amenity': 'pharmacy', 'check_date': '2023-08-26', 'contact:phone': '+32 2 231 00 86', 'dispensing': 'yes', 'healthcare': 'pharmacy', 'name': 'Jourdan', 'opening_hours': 'Mo-Fr 08:30-19:00; Sa 09:00-12:30'}}"
"{'type': 'node', 'id': 639059257, 'lat': 50.8375095, 'lon': 4.3954731, 'tags': {'alt_name': 'Universal Pharma Etterbeek', 'amenity': 'pharmacy', 'contact:phone': '+32 2 733 11 13', 'contact:website': 'https://universalpharma.be', 'dispensing': 'yes', 'healthcare': 'pharmacy', 'name': 'Pharmacie St-Pierre', 'opening_hours': 'Mo-Fr 09:00-19:00; Sa 09:00-13:00', 'wheelchair': 'no'}}"
"{'type': 'node', 'id': 639059265, 'lat': 50.8398001, 'lon': 4.4000499, 'tags': {'amenity': 'pharmacy', 'contact:phone': '+32 2 733 51 82', 'dispensing': 'yes', 'healthcare': 'pharmacy', 'name': 'Ghispharma', 'opening_hours': 'Mo-Fr 08:30-19:00; Sa 09:00-18:00', 'wheelchair': 'no'}}"
"{'type': 'node', 'id': 639059268, 'lat': 50.843213, 'lon': 4.3989558, 'tags': {'amenity': 'pharmacy', 'dispensing': 'yes', 'healthcare': 'pharmacy'}}"
"{'type': 'node', 'id': 639059271, 'lat': 50.8406957, 'lon': 4.4007929, 'tags': {'amenity': 'pharmacy', 'contact:phone': '+32 2 734 75 02', 'dispensing': 'yes', 'healthcare': 'pharmacy', 'name': 'Beeckmans W.', 'opening_hours': 'Mo-Fr 08:30-19:00; Sa 09:00-18:00', 'wheelchair': 'limited'}}"
"{'type': 'node', 'id': 639114100, 'lat': 50.8310147, 'lon': 4.3901058, 'tags': {'amenity': 'pharmacy', 'contact:email': 'info@pharmaciedelachasse.be', 'contact:phone': '+32 2 647 43 93', 'contact:website': 'https://pharmaciedelachasse.be/', 'dispensing': 'yes', 'name': 'Pharmacie de la Chasse', 'opening_hours': 'Mo-Fr 08:30-18:30; Sa 09:00-13:00', 'wheelchair': 'yes'}}"
"{'type': 'node', 'id': 639114101, 'lat': 50.833009, 'lon': 4.394367, 'tags': {'amenity': 'pharmacy', 'contact:email': 'secundum.artem@skynet.be', 'contact:phone': '+32 2 734 17 12', 'contact:website': 'https://secundumartem.pharmacie.be', 'dispensing': 'yes', 'healthcare': 'pharmacy', 'name': 'Secundum Artem', 'opening_hours': 'Mo-Fr 08:30-19:00; Sa 08:30-16:30'}}"
"{'type': 'node', 'id': 639114102, 'lat': 50.8391598, 'lon': 4.3824232, 'tags': {'amenity': 'pharmacy', 'contact:phone': '+32 2 231 16 47', 'dispensing': 'yes', 'healthcare': 'pharmacy', 'name': 'Mon Ange', 'opening_hours': 'Mo-Fr 09:00-18:30', 'wheelchair': 'yes'}}"
"{'type': 'node', 'id': 639114104, 'lat': 50.8307144, 'lon': 4.4005894, 'tags': {'amenity': 'pharmacy', 'contact:email': 'info@phduroivainqueur.be', 'contact:phone': '+32 2 733 03 36', 'contact:website': 'https://www.phduroivainqueur.be/', 'dispensing': 'yes', 'healthcare': 'pharmacy', 'name': 'Pharmacie du Roi Vainqueur', 'opening_hours': 'Mo-Fr 09:00-19:00; Sa 09:00-13:00'}}"
"{'type': 'node', 'id': 644901082, 'lat': 50.7918767, 'lon': 4.3525006, 'tags': {'amenity': 'pharmacy', 'contact:email': 'uccle.st.job@pharmacie-familia.be', 'contact:phone': '+32 2 374 50 10', 'contact:website': 'https://www.pharmacie-familia.be/', 'full_name': 'Familia Pharmacie Conseil', 'healthcare': 'pharmacy', 'name': 'Familia', 'opening_hours': 'Mo-Fr 08:30-18:30; Sa 08:30-12:30'}}"
"{'type': 'node', 'id': 651904674, 'lat': 50.8360403, 'lon': 4.3790324, 'tags': {'amenity': 'doctors', 'check_date': '2023-10-16', 'contact:phone': '+32 491 13 37 56', 'description': 'Osthéopathie, kinésithérapie, personal training', 'healthcare': 'doctor', 'healthcare:speciality': 'orthopaedics', 'name:signed': 'no'}}"
"{'type': 'node', 'id': 652406440, 'lat': 51.000503, 'lon': 4.1489789, 'tags': {'addr:housenumber': '5', 'addr:postcode': '9280', 'addr:street': 'Heizijdestraat', 'amenity': 'pharmacy', 'dispensing': 'no', 'name': 'Apotheek De Decker'}}"
"{'type': 'node', 'id': 652772452, 'lat': 51.0003374, 'lon': 4.129918, 'tags': {'addr:housenumber': '3', 'addr:postcode': '9280', 'addr:street': 'Kerkplein', 'amenity': 'pharmacy', 'name': 'Lloydspharma A. Lamoot'}}"
"{'type': 'node', 'id': 652772488, 'lat': 50.9841883, 'lon': 4.1438913, 'tags': {'amenity': 'pharmacy', 'name': 'Goossens'}}"
"{'type': 'node', 'id': 653272089, 'lat': 51.0013807, 'lon': 4.1278027, 'tags': {'addr:housenumber': '13', 'addr:postcode': '9280', 'addr:street': 'Dendermondsesteenweg', 'amenity': 'pharmacy', 'name': 'Duopharm'}}"
"{'type': 'node', 'id': 654136213, 'lat': 50.9373956, 'lon': 4.3334222, 'tags': {'amenity': 'pharmacy', 'name': 'Florentz'}}"
"{'type': 'node', 'id': 662186967, 'lat': 50.93658, 'lon': 4.3228521, 'tags': {'amenity': 'pharmacy', 'dispensing': 'yes'}}"
"{'type': 'node', 'id': 665851846, 'lat': 50.9505806, 'lon': 4.3084733, 'tags': {'amenity': 'pharmacy', 'changing_table': 'no', 'dispensing': 'yes', 'entrance:kerb:height': '0.11', 'entrance:ramp': 'no', 'entrance:step_count': '1', 'entrance:width': '0.95', 'toilets:wheelchair': 'no', 'wheelchair:turning_circle': 'yes'}}"
"{'type': 'node', 'id': 666808125, 'lat': 51.0285513, 'lon': 3.799206, 'tags': {'amenity': 'pharmacy'}}"
"{'type': 'node', 'id': 666808126, 'lat': 51.0321004, 'lon': 3.802949, 'tags': {'addr:housenumber': '63', 'addr:street': 'Tramstraat', 'amenity': 'pharmacy', 'healthcare': 'pharmacy', 'name': 'Beirnaert'}}"
"{'type': 'node', 'id': 667988237, 'lat': 50.8168765, 'lon': 4.4138655, 'tags': {'amenity': 'pharmacy', 'dispensing': 'yes', 'name': 'Ponthot-Claux', 'opening_hours': 'Mo-Fr 09:00-19:00; Sa 09:30-12:30', 'wheelchair': 'yes'}}"
"{'type': 'node', 'id': 668184224, 'lat': 50.9169492, 'lon': 4.6857973, 'tags': {'amenity': 'pharmacy', 'name': 'Apotheek Haegemans'}}"
"{'type': 'node', 'id': 674131115, 'lat': 50.8636066, 'lon': 4.6949176, 'tags': {'addr:housenumber': '1', 'addr:street': 'Lodewijk Engelbertus Van Arenbergplein', 'amenity': 'doctors', 'healthcare': 'doctor', 'name': 'J. Regal'}}"
"{'type': 'node', 'id': 677512024, 'lat': 50.9529997, 'lon': 4.2355773, 'tags': {'amenity': 'pharmacy'}}"
"{'type': 'node', 'id': 677579021, 'lat': 51.0074624, 'lon': 3.8889576, 'tags': {'amenity': 'pharmacy', 'dispensing': 'yes', 'name': 'De Lindeboom'}}"
"{'type': 'node', 'id': 683084143, 'lat': 51.0099744, 'lon': 3.8797496, 'tags': {'addr:city': 'Wetteren', 'addr:housenumber': '43', 'addr:postcode': '9230', 'addr:street': 'Molenstraatje', 'amenity': 'pharmacy', 'dispensing': 'yes', 'healthcare': 'pharmacy', 'name': 'Maudens', 'opening_hours': 'Mo-Th 08:30-12:15,14:00-18:30; Fr,Sa 08:30-12:15; PH off'}}"
"{'type': 'node', 'id': 683084144, 'lat': 51.0068252, 'lon': 3.8845615, 'tags': {'addr:city': 'Wetteren', 'addr:housenumber': '14', 'addr:postcode': '9230', 'addr:street': 'Markt', 'amenity': 'pharmacy', 'dispensing': 'yes', 'drive_through': 'no', 'healthcare': 'pharmacy', 'name': 'Markt 14', 'website': 'https://www.markt14.be/', 'wheelchair': 'yes'}}"
"{'type': 'node', 'id': 684721627, 'lat': 51.2273396, 'lon': 4.5222054, 'tags': {'addr:housenumber': '351', 'addr:street': 'Turnhoutsebaan', 'amenity': 'pharmacy', 'email': 'info@apotheekmeeussen.be', 'fax': '+32 3 354 01 47', 'healthcare': 'pharmacy', 'name': 'Apotheek Meeussen', 'phone': '+32 3 353 61 31', 'website': 'https://www.apotheekmeeussen.be/'}}"
"{'type': 'node', 'id': 689412670, 'lat': 50.9584515, 'lon': 4.3428378, 'tags': {'amenity': 'pharmacy', 'dispensing': 'yes', 'wheelchair': 'limited'}}"
"{'type': 'node', 'id': 693288471, 'lat': 50.8308797, 'lon': 4.2889109, 'tags': {'amenity': 'pharmacy', 'dispensing': 'yes', 'name': 'Lloydspharma Duchene', 'opening_hours': 'Mo-Fr 08:30-19:00, Sa 09:00-13:00'}}"
"{'type': 'node', 'id': 695930609, 'lat': 51.0656937, 'lon': 4.4572549, 'tags': {'amenity': 'pharmacy', 'dispensing': 'Renova', 'healthcare': 'pharmacy'}}"
"{'type': 'node', 'id': 700177665, 'lat': 50.9938582, 'lon': 4.5328164, 'tags': {'amenity': 'pharmacy', 'dispensing': 'yes', 'healthcare': 'pharmacy'}}"
"{'type': 'node', 'id': 700760734, 'lat': 50.8332202, 'lon': 4.388563, 'tags': {'amenity': 'clinic', 'contact:website': 'https://www.mceonline.org/', 'healthcare': 'clinic', 'name': 'Medical Centre Etterbeek', 'short_name': 'MCE'}}"
"{'type': 'node', 'id': 702251793, 'lat': 50.9846297, 'lon': 3.526949, 'tags': {'amenity': 'pharmacy', 'name': 'Apothekers Mathys'}}"
"{'type': 'node', 'id': 703169109, 'lat': 50.9925311, 'lon': 4.4916777, 'tags': {'amenity': 'pharmacy', 'dispensing': 'yes'}}"
"{'type': 'node', 'id': 703185571, 'lat': 51.0090346, 'lon': 4.4852252, 'tags': {'amenity': 'pharmacy', 'dispensing': 'yes'}}"
"{'type': 'node', 'id': 703185577, 'lat': 51.0010018, 'lon': 4.4878829, 'tags': {'amenity': 'pharmacy', 'brand': 'Goed', 'brand:wikidata': 'Q130234412', 'check_date': '2023-10-29', 'dispensing': 'yes', 'entrance': 'main', 'name': 'Goed Apotheek', 'website': 'https://www.goed.be/nl/vestigingen/goed-hofstade'}}"
"{'type': 'node', 'id': 703199602, 'lat': 51.0064698, 'lon': 4.5135938, 'tags': {'addr:housenumber': '645', 'addr:street': 'Leuvensesteenweg', 'amenity': 'pharmacy', 'dispensing': 'yes', 'name': 'Den Lindebloom'}}"
"{'type': 'node', 'id': 704804778, 'lat': 51.014617, 'lon': 3.5859446, 'tags': {'addr:housenumber': '234', 'addr:street': 'Leernsesteenweg', 'amenity': 'pharmacy', 'changing_table': 'no', 'changing_table:adult': 'no', 'dispensing': 'yes', 'email': 'info@apotheekhoornaert.be', 'entrance:kerb:height': '0.01', 'entrance:step_count': '1', 'entrance:width': '1.18', 'healthcare': 'pharmacy', 'name': 'Apotheek Hoornaert', 'opening_hours': 'Mo-Fr 08:30-12:00,13:30-18:30; Sa 08:30-12:00', 'phone': '+32 9 282 68 12', 'ramp:wheelchair': 'yes', 'website': 'https://apotheekhoornaert.be/', 'wheelchair:turning_circle': 'no'}}"
"{'type': 'node', 'id': 705225093, 'lat': 51.0315811, 'lon': 4.0948962, 'tags': {'amenity': 'pharmacy'}}"
"{'type': 'node', 'id': 705327773, 'lat': 50.9493385, 'lon': 4.5804415, 'tags': {'addr:city': 'Kampenhout', 'addr:housenumber': '512', 'addr:postcode': '1910', 'addr:street': 'Haachtsesteenweg', 'amenity': 'pharmacy', 'dispensing': 'yes', 'healthcare': 'pharmacy', 'name': 'Relst Pharma', 'phone': '+32 16 65 67 06', 'website': 'https://www.relstpharma.be/'}}"
"{'type': 'node', 'id': 705368155, 'lat': 50.962026, 'lon': 4.6056663, 'tags': {'amenity': 'pharmacy', 'dispensing': 'yes', 'healthcare': 'pharmacy', 'name': 'Hastapharma'}}"
"{'type': 'node', 'id': 707011604, 'lat': 51.6624516, 'lon': 4.5332918, 'tags': {'addr:city': 'Klundert', 'addr:housenumber': '43', 'addr:postcode': '4791HT', 'addr:street': 'Westerstraat', 'amenity': 'pharmacy', 'name': 'Mediq Apotheek De Eendracht', 'operator': 'Mediq', 'website': 'https://www.mediq-apotheek.nl/apotheek/21/mediq-apotheek-de-eendracht.aspx', 'wheelchair': 'yes'}}"
"{'type': 'node', 'id': 712712789, 'lat': 50.8385917, 'lon': 4.3857284, 'tags': {'amenity': 'clinic', 'contact:phone': '+32 2 445 02 74', 'name': ""Cabinet médical d'Etterbeek""}}"
"{'type': 'node', 'id': 712712792, 'lat': 50.838463, 'lon': 4.3857963, 'tags': {'amenity': 'doctors', 'contact:mobile': '+32 476 67 01 27', 'contact:phone': '+32 2 644 59 19', 'healthcare': 'doctor', 'healthcare:speciality': 'general', 'name': 'Katja Keller'}}"
"{'type': 'node', 'id': 713481738, 'lat': 50.5667399, 'lon': 3.7549987, 'tags': {'amenity': 'pharmacy', 'dispensing': 'no', 'opening_hours': 'Mo-Fr 08:30-20:00'}}"
"{'type': 'node', 'id': 717707853, 'lat': 51.218283, 'lon': 4.4020381, 'tags': {'addr:city': 'Antwerpen', 'addr:country': 'BE', 'addr:housenumber': '42', 'addr:postcode': '2000', 'addr:province': 'Antwerpen', 'addr:street': 'Groenplaats', 'amenity': 'pharmacy', 'changing_table': 'no', 'changing_table:adult': 'no', 'entrance:step_count': '0', 'entrance:width': '1.44', 'fax': '+32 3 225 11 74', 'healthcare': 'pharmacy', 'name': 'Europa', 'opening_hours': 'Mo-Fr 09:00-18:30; Sa 10:00-17:00', 'operator': 'Mees', 'phone': '+32 3 233 26 27', 'website': 'https://www.apotheekmees.be/', 'wheelchair:turning_circle': 'no'}}"
"{'type': 'node', 'id': 717707999, 'lat': 51.2193546, 'lon': 4.3977824, 'tags': {'amenity': 'pharmacy', 'entrance:kerb:height': '0.05', 'entrance:ramp': 'no', 'entrance:step_count': '1', 'entrance:width': '0.92', 'healthcare': 'pharmacy', 'name': 'Strobbe', 'toilets:wheelchair': 'no', 'wheelchair:turning_circle': 'yes'}}"
"{'type': 'node', 'id': 726747093, 'lat': 51.0946618, 'lon': 4.5122784, 'tags': {'amenity': 'pharmacy', 'healthcare': 'pharmacy', 'name': 'Apotheek Frayman'}}"
"{'type': 'node', 'id': 727343561, 'lat': 50.951785, 'lon': 4.3099742, 'tags': {'amenity': 'pharmacy', 'dispensing': 'yes'}}"
"{'type': 'node', 'id': 730895797, 'lat': 51.0098904, 'lon': 3.5794839, 'tags': {'amenity': 'pharmacy', 'wheelchair': 'yes'}}"
"{'type': 'node', 'id': 734455097, 'lat': 51.0761905, 'lon': 4.2764656, 'tags': {'amenity': 'pharmacy', 'healthcare': 'pharmacy', 'name': 'Verstuyft'}}"
"{'type': 'node', 'id': 734455159, 'lat': 51.0758636, 'lon': 4.2825495, 'tags': {'addr:housenumber': '94', 'addr:postcode': '2870', 'addr:street': 'Hoogstraat', 'amenity': 'pharmacy', 'dispensing': 'yes', 'drive_through': 'no', 'healthcare': 'pharmacy', 'name': 'De Lindenboom'}}"
"{'type': 'node', 'id': 736259523, 'lat': 50.8462626, 'lon': 3.6222869, 'tags': {'amenity': 'pharmacy', 'name': 'Mortier Claire'}}"
"{'type': 'node', 'id': 737300385, 'lat': 51.0996777, 'lon': 4.2340172, 'tags': {'addr:housenumber': '8', 'addr:street': 'Boomstraat', 'amenity': 'pharmacy', 'dispensing': 'yes', 'email': 'info@apotheekboeykens.be', 'healthcare': 'pharmacy', 'name': 'Apotheek Boeykens', 'opening_hours': 'Mo-Fr 08:30-12:30,13:30-18:30; Sa 08:30-12:30', 'phone': '+32 3 889 06 21', 'website': 'https://www.apotheekboeykens.be/'}}"
"{'type': 'node', 'id': 744440058, 'lat': 50.8002487, 'lon': 4.3970594, 'tags': {'amenity': 'doctors', 'contact:email': 'rendezvous@drsterling.be', 'contact:phone': '+32 477 36 21 34', 'contact:website': 'https://sterling.progenda.be', 'description': 'Cabinet médical privé', 'healthcare': 'doctor', 'healthcare:speciality': 'cardiology', 'internet_access': 'wlan', 'level': '0', 'name': 'Isabelle Sterling', 'opening_hours': 'Mo 08:30-10:00, We 11:15-17:15, Fr 14:30-19:00', 'payment:cash': 'yes', 'payment:contactless': 'yes', 'payment:maestro': 'yes', 'payment:notes': 'yes', 'start_date': '1/7/1996', 'wheelchair': 'yes'}}"
"{'type': 'node', 'id': 745786965, 'lat': 50.9280205, 'lon': 4.4359591, 'tags': {'amenity': 'pharmacy', 'dispensing': 'yes'}}"
"{'type': 'node', 'id': 745806153, 'lat': 51.0032881, 'lon': 4.3023126, 'tags': {'amenity': 'pharmacy', 'changing_table': 'no', 'changing_table:adult': 'no', 'dispensing': 'yes', 'entrance:step_count': '0', 'entrance:width': '1.18', 'healthcare': 'pharmacy', 'toilets:wheelchair': 'no', 'wheelchair:turning_circle': 'no'}}"
"{'type': 'node', 'id': 746309447, 'lat': 51.0083378, 'lon': 4.299735, 'tags': {'amenity': 'pharmacy', 'changing_table': 'no', 'changing_table:adult': 'no', 'dispensing': 'yes', 'entrance:step_count': '0', 'entrance:width': '1.06', 'healthcare': 'pharmacy', 'toilets:wheelchair': 'no', 'wheelchair:turning_circle': 'no'}}"
"{'type': 'node', 'id': 749411457, 'lat': 50.8471141, 'lon': 4.3480766, 'tags': {'amenity': 'pharmacy', 'dispensing': 'yes', 'name': 'Anspach', 'opening_hours': 'Mo-Sa 09:00-19:00'}}"
"{'type': 'node', 'id': 749411486, 'lat': 50.8488173, 'lon': 4.3521149, 'tags': {'amenity': 'pharmacy', 'contact:phone': '+32 2 218 04 91', 'contact:website': 'https://www.aposite.be/desfripiers1000/', 'dispensing': 'yes', 'healthcare': 'pharmacy', 'name': 'Tsiokanos'}}"
"{'type': 'node', 'id': 754012448, 'lat': 50.8487039, 'lon': 4.3506936, 'tags': {'amenity': 'pharmacy', 'branch': 'Marché aux Poulets - Kiekenmarkt', 'brand': 'Multipharma', 'brand:wikidata': 'Q62565018', 'dispensing': 'yes', 'healthcare': 'pharmacy', 'name': 'Multipharma', 'operator': 'Multipharma'}}"
"{'type': 'node', 'id': 757351337, 'lat': 50.5068939, 'lon': 3.7621525, 'tags': {'addr:city': 'Sirault', 'addr:housenumber': '90', 'addr:postcode': '7332', 'addr:street': 'Rue Désiré Blondiau', 'amenity': 'pharmacy', 'dispensing': 'yes', 'drive_through': 'no', 'healthcare': 'pharmacy', 'name': 'Pharmacie Gobier', 'opening_hours': 'Mo-Fr 09:00-12:00, 14:00-18:30; Sa 09:00-12:00', 'phone': '+32 65 62 06 03'}}"
"{'type': 'node', 'id': 757351381, 'lat': 50.5050217, 'lon': 3.7852976, 'tags': {'addr:city': 'Sirault', 'addr:housenumber': '3', 'addr:postcode': '7332', 'addr:street': 'Rue Émile Vandervelde', 'amenity': 'pharmacy', 'dispensing': 'yes', 'drive_through': 'no', 'healthcare': 'pharmacy', 'name': 'Pharmacie Vanderelst'}}"
"{'type': 'node', 'id': 764418731, 'lat': 50.9952091, 'lon': 4.2689448, 'tags': {'amenity': 'pharmacy', 'changing_table': 'no', 'changing_table:adult': 'no', 'dispensing': 'yes', 'entrance:kerb:height': '0.09', 'entrance:ramp': 'no', 'entrance:step_count': '1', 'entrance:width': '0.86', 'note:wheelchair': 'extra trede van 6cm', 'wheelchair:turning_circle': 'yes'}}"
"{'type': 'node', 'id': 765242617, 'lat': 50.4789863, 'lon': 3.7656621, 'tags': {'addr:housenumber': '118', 'addr:street': 'Grand Route de Mons', 'amenity': 'pharmacy', 'dispensing': 'yes', 'name': 'Pharmacie Hols', 'phone': '+32 65 62 00 22'}}"
"{'type': 'node', 'id': 765272239, 'lat': 51.0366154, 'lon': 4.3538249, 'tags': {'amenity': 'pharmacy', 'dispensing': 'yes'}}"
"{'type': 'node', 'id': 765660612, 'lat': 50.9063293, 'lon': 4.6724051, 'tags': {'amenity': 'pharmacy', 'dispensing': 'yes', 'healthcare': 'pharmacy', 'name': 'Peeters', 'opening_hours': 'Mo-Fr 08:30-12:30,13:30-19:00; Sa 09:00-12:00'}}"
"{'type': 'node', 'id': 766634604, 'lat': 50.7874595, 'lon': 4.3655812, 'tags': {'amenity': 'clinic', 'capacity': '34', 'contact:email': 'contact@parhelie.be', 'contact:phone': '+32 2 373 82 10', 'contact:website': 'http://www.hospichild.be/parhelie/', 'description:fr': 'Centre de psychiatrie qui accueille des enfants et adolescents autistes, psychotiques ou névrosés graves âgés de 3 à 18 ans.', 'emergency': 'no', 'healthcare': 'clinic', 'healthcare:speciality': 'child_psychiatry', 'name': 'Centre de psychiatrie Parhélie - Parhélie Psychiatrisch centrum', 'name:fr': 'Centre de psychiatrie Parhélie', 'name:nl': 'Parhélie Psychiatrisch centrum'}}"
"{'type': 'node', 'id': 766885276, 'lat': 50.8576941, 'lon': 4.3814702, 'tags': {'amenity': 'pharmacy', 'check_date': '2022-10-03', 'contact:phone': '+32 2 425 45 58', 'dispensing': 'yes', 'healthcare': 'pharmacy', 'name': 'Beauty Pharma', 'opening_hours': 'Mo-Fr 09:00-13:00,14:00-19:00; Sa 09:00-13:00,14:00-18:00; Su off', 'payment:bancontact': 'yes', 'payment:mastercard': 'yes', 'payment:pluxee': 'yes', 'payment:visa': 'yes', 'wheelchair': 'no'}}"
"{'type': 'node', 'id': 766934029, 'lat': 50.7905288, 'lon': 4.2968049, 'tags': {'addr:housenumber': '18', 'addr:street': 'Stationsstraat', 'amenity': 'pharmacy', 'name': 'Inge Deconinck'}}"
"{'type': 'node', 'id': 768991578, 'lat': 51.1761736, 'lon': 4.13985, 'tags': {'amenity': 'pharmacy', 'healthcare': 'pharmacy', 'name': 'De Schrijver - Arjuro'}}"
"{'type': 'node', 'id': 768991602, 'lat': 51.1724067, 'lon': 4.1403864, 'tags': {'amenity': 'pharmacy', 'healthcare': 'pharmacy', 'name': 'Driekoningen', 'wheelchair': 'limited'}}"
"{'type': 'node', 'id': 771195743, 'lat': 50.9278963, 'lon': 4.2641304, 'tags': {'amenity': 'pharmacy', 'dispensing': 'yes', 'name': 'Mast'}}"
"{'type': 'node', 'id': 787124943, 'lat': 51.0559023, 'lon': 4.357128, 'tags': {'amenity': 'pharmacy', 'dispensing': 'yes', 'healthcare': 'pharmacy'}}"
"{'type': 'node', 'id': 787202016, 'lat': 51.0525203, 'lon': 4.3468489, 'tags': {'amenity': 'pharmacy', 'dispensing': 'yes', 'healthcare': 'pharmacy'}}"
"{'type': 'node', 'id': 792843109, 'lat': 50.4490113, 'lon': 3.9892856, 'tags': {'addr:housenumber': '92', 'addr:street': 'Chaussée de Binche', 'amenity': 'pharmacy', 'contact:email': 'Pharmacie.Bois-de-Mons@benu.be', 'contact:phone': '+32 65 35 31 08', 'contact:website': 'https://storelocator.benu.be/fr/pharmacie-benu-bois-de-mons', 'dispensing': 'yes', 'name': 'Pharmacie du Bois de Mons', 'opening_hours': 'Mo-Fr 08:30-19:00; Sa 09:00-17:00'}}"
"{'type': 'node', 'id': 798937287, 'lat': 50.8337782, 'lon': 4.3569166, 'tags': {'amenity': 'pharmacy', 'contact:phone': '+32 2 538 03 31', 'dispensing': 'yes', 'healthcare': 'pharmacy', 'name': 'LloydsPharma', 'opening_hours': 'Mo-Sa 09:00-19:00', 'wheelchair': 'limited'}}"
"{'type': 'node', 'id': 798937294, 'lat': 50.8316517, 'lon': 4.3563736, 'tags': {'amenity': 'pharmacy', 'dispensing': 'yes', 'healthcare': 'pharmacy', 'name': 'Kneip Decoster', 'wheelchair': 'yes'}}"
"{'type': 'node', 'id': 798966491, 'lat': 50.8397322, 'lon': 4.3507927, 'tags': {'amenity': 'pharmacy', 'dispensing': 'yes', 'healthcare': 'pharmacy'}}"
"{'type': 'node', 'id': 798966528, 'lat': 50.8393906, 'lon': 4.3613122, 'tags': {'amenity': 'pharmacy', 'dispensing': 'yes', 'healthcare': 'pharmacy', 'name': 'Pharmacie de la Cour', 'opening_hours': 'Mo-Fr 08:00-19:00; Sa 10:00-18:00'}}"
"{'type': 'node', 'id': 805679258, 'lat': 50.4878167, 'lon': 3.965214, 'tags': {'amenity': 'pharmacy', 'dispensing': 'yes', 'name': 'Pharmacie Pierrot', 'name:fr': 'Pharmacie Pierrot', 'opening_hours': 'Mo-Fr 09:00-18:30; Sa-Su 09:00-12:30', 'phone': '+32 65 35 44 40'}}"
"{'type': 'node', 'id': 807053172, 'lat': 50.6697297, 'lon': 4.1571595, 'tags': {'amenity': 'pharmacy', 'healthcare': 'pharmacy', 'name': 'Pharmacie Dupont'}}"
"{'type': 'node', 'id': 809742664, 'lat': 51.0163423, 'lon': 4.4414924, 'tags': {'amenity': 'pharmacy', 'dispensing': 'yes'}}"
"{'type': 'node', 'id': 809792609, 'lat': 51.0598133, 'lon': 4.3618914, 'tags': {'amenity': 'pharmacy', 'dispensing': 'yes', 'healthcare': 'pharmacy'}}"
"{'type': 'node', 'id': 816314019, 'lat': 50.4806904, 'lon': 4.7066821, 'tags': {'amenity': 'pharmacy', 'name': 'Pharmacie Dufrane'}}"
"{'type': 'node', 'id': 829488507, 'lat': 50.7845008, 'lon': 4.2935706, 'tags': {'addr:housenumber': '45', 'addr:street': 'Fabriekstraat', 'amenity': 'pharmacy', 'name': 'Deridder'}}"
"{'type': 'node', 'id': 840028045, 'lat': 50.8357404, 'lon': 4.3560501, 'tags': {'amenity': 'pharmacy', 'dispensing': 'yes', 'healthcare': 'pharmacy', 'name': 'Liberty', 'opening_hours': 'Mo-Fr 08:30-19:00; Sa 09:45-19:00'}}"
"{'type': 'node', 'id': 845141166, 'lat': 51.0756284, 'lon': 4.0930032, 'tags': {'addr:housenumber': '6', 'addr:street': 'Zogge', 'amenity': 'pharmacy', 'dispensing': 'yes', 'drive_through': 'no', 'healthcare': 'pharmacy', 'name': 'Apotheek Quintelier', 'website': 'https://www.apotheekquintelier.be/'}}"
"{'type': 'node', 'id': 847010644, 'lat': 51.1910926, 'lon': 4.739065, 'tags': {'amenity': 'pharmacy'}}"
"{'type': 'node', 'id': 847010649, 'lat': 51.1925456, 'lon': 4.737645, 'tags': {'addr:housenumber': '37', 'addr:street': 'Astridplein', 'amenity': 'pharmacy', 'healthcare': 'pharmacy', 'name': 'Apotheek Verhelst'}}"
"{'type': 'node', 'id': 856799551, 'lat': 50.847501, 'lon': 4.5907007, 'tags': {'amenity': 'pharmacy', 'dispensing': 'yes'}}"
"{'type': 'node', 'id': 857243652, 'lat': 50.6690391, 'lon': 4.6147456, 'tags': {'addr:housenumber': '5-7', 'addr:street': ""Traverse d'Ésope"", 'amenity': 'pharmacy', 'drive_through': 'no', 'level': '2', 'name': 'Centre Pharmaceutique LLN'}}"
"{'type': 'node', 'id': 860242297, 'lat': 50.8031247, 'lon': 4.652809, 'tags': {'amenity': 'pharmacy', 'dispensing': 'yes', 'email': 'info@apotheekwillekens.be', 'healthcare': 'pharmacy', 'name': 'Anne Willekens', 'opening_hours': 'Mo-Fr 09:00-12:30, 14:00-19:00; Sa 09:00-12:30', 'phone': '+32 16 47 77 90', 'website': 'https://apotheekwillekens.be/', 'wheelchair': 'yes'}}"
"{'type': 'node', 'id': 864788506, 'lat': 50.9288391, 'lon': 4.7234452, 'tags': {'addr:city': 'Wilsele', 'addr:housenumber': '537', 'addr:postcode': '3012', 'addr:street': 'Aarschotsesteenweg', 'amenity': 'pharmacy', 'name': 'Vandecasteele'}}"
"{'type': 'node', 'id': 867031726, 'lat': 50.872211, 'lon': 4.3239455, 'tags': {'amenity': 'pharmacy', 'contact:email': 'jochmans@spsnv.be', 'contact:phone': '+32 2 426 54 12', 'dispensing': 'yes', 'healthcare': 'pharmacy', 'name': 'Jochmans', 'opening_hours': 'Mo-Fr 08:30-19:00; Sa 09:00-13:00'}}"
"{'type': 'node', 'id': 867086403, 'lat': 50.8731804, 'lon': 4.325805, 'tags': {'amenity': 'pharmacy', 'contact:phone': '+32 2 426 93 22', 'contact:website': 'https://pharmacie-du-miroir.clicandcollect.santalis.be/', 'dispensing': 'yes', 'healthcare': 'pharmacy', 'name': 'Pharmacie du Miroir', 'opening_hours': 'Mo-Fr 08:00-19:00; Sa 08:00-17:00', 'wheelchair': 'yes'}}"
"{'type': 'node', 'id': 876326520, 'lat': 50.9203503, 'lon': 4.0606022, 'tags': {'amenity': 'pharmacy', 'name': 'Mahieu'}}"
"{'type': 'node', 'id': 876326524, 'lat': 50.9195266, 'lon': 4.0590934, 'tags': {'amenity': 'pharmacy'}}"
"{'type': 'node', 'id': 876326533, 'lat': 50.9209064, 'lon': 4.0692643, 'tags': {'amenity': 'pharmacy'}}"
"{'type': 'node', 'id': 896981600, 'lat': 51.1067578, 'lon': 4.2980169, 'tags': {'amenity': 'pharmacy', 'healthcare': 'pharmacy'}}"
"{'type': 'node', 'id': 907171482, 'lat': 50.8892989, 'lon': 4.5441897, 'tags': {'amenity': 'pharmacy', 'contact:phone': '+32 2 759 64 27', 'contact:website': 'https://www.biopharm.be/nl/lees/23/apotheek-Kortenberg', 'dispensing': 'yes', 'healthcare': 'pharmacy', 'name': 'Biopharm Kortenberg'}}"
"{'type': 'node', 'id': 922592966, 'lat': 51.544051, 'lon': 3.6004426, 'tags': {'addr:city': 'Serooskerke', 'addr:housenumber': '133', 'addr:postcode': '4353AV', 'addr:street': 'Noordweg', 'amenity': 'pharmacy', 'check_date:opening_hours': '2024-07-01', 'contact:website': 'https://huisartspraktijkseroos.praktijkinfo.nl/apotheek/', 'healthcare': 'pharmacy', 'name': 'Apotheekhoudend huisartspraktijk Seroos', 'opening_hours': 'Mo-Fr 11:30-12:00,15:00-16:30; PH,Sa,Su off', 'opening_hours:url': 'https://huisartspraktijkseroos.praktijkinfo.nl/?s=openingstijden'}}"
"{'type': 'node', 'id': 929264082, 'lat': 51.0964149, 'lon': 4.2331544, 'tags': {'amenity': 'doctors', 'healthcare': 'doctor', 'name': 'Dr. J. Vanhee'}}"
"{'type': 'node', 'id': 948050362, 'lat': 51.53734, 'lon': 4.5967245, 'tags': {'addr:city': 'Sprundel', 'addr:housenumber': '13', 'addr:postcode': '4714EA', 'addr:street': 'Sint Janstraat', 'healthcare': 'physiotherapist', 'name': 'FysioFit Sprundel', 'source': 'BAG', 'source:date': '2014-03-24'}}"
"{'type': 'node', 'id': 948070743, 'lat': 50.8853305, 'lon': 4.7354627, 'tags': {'addr:housenumber': '435', 'addr:street': 'Diestsesteenweg', 'contact:phone': '+32 16 48 22 85', 'healthcare': 'physiotherapist', 'name': 'Kine-Corner', 'opening_hours': '""By appointment""', 'operator': 'Maaike Mortier', 'website': 'https://kine-corner.be/'}}"
"{'type': 'node', 'id': 951816624, 'lat': 50.9036228, 'lon': 4.5573314, 'tags': {'addr:city': 'Erps-Kwerps', 'addr:housenumber': '6', 'addr:postcode': '3071', 'addr:street': 'Dorpsplein', 'amenity': 'pharmacy', 'dispensing': 'yes', 'drive_through': 'no', 'email': 'apotheek.gortz@skynet.be', 'fax': '+32 2 759 65 01', 'healthcare': 'pharmacy', 'name': 'Apotheek Gortz', 'opening_hours': 'Mo-Fr 09:00-12:30,13:30-18:30; Sa 09:00-12:30', 'operator': 'Apotheek Gortz NV', 'payment:cash': 'yes', 'payment:contactless': 'yes', 'payment:debit_cards': 'yes', 'payment:maestro': 'yes', 'payment:mastercard': 'yes', 'payment:visa': 'yes', 'phone': '+32 2 759 71 81', 'website': 'https://apotheekgortz.be/', 'wheelchair': 'yes'}}"
"{'type': 'node', 'id': 954546622, 'lat': 50.9041034, 'lon': 4.3127785, 'tags': {'amenity': 'pharmacy', 'dispensing': 'yes', 'healthcare': 'pharmacy'}}"
"{'type': 'node', 'id': 957295113, 'lat': 50.7894452, 'lon': 4.2975597, 'tags': {'addr:housenumber': '5', 'addr:street': 'Kerkstraat', 'healthcare': 'physiotherapist', 'name': 'Adriaan Devillé / Piet Gailly'}}"
"{'type': 'node', 'id': 969036030, 'lat': 51.0654078, 'lon': 4.3575336, 'tags': {'amenity': 'pharmacy', 'healthcare': 'pharmacy', 'name': 'De Jonghe, Apotheek', 'wheelchair': 'yes'}}"
"{'type': 'node', 'id': 971835550, 'lat': 51.0110185, 'lon': 4.3547717, 'tags': {'amenity': 'pharmacy', 'healthcare': 'pharmacy', 'name': 'Vemaco'}}"
"{'type': 'node', 'id': 971993302, 'lat': 50.7430347, 'lon': 4.2245034, 'tags': {'amenity': 'pharmacy', 'changing_table': 'no', 'changing_table:adult': 'no', 'comment': 'volledig toegankelijk', 'email': 'info@apotheekbeaujean.be', 'entrance:step_count': '0', 'entrance:width': '1', 'healthcare': 'pharmacy', 'name': 'Beaujean Don Bosco', 'opening_hours': 'Mo-Fr 08:00-19:00; Sa 08:30-13:00', 'phone': '+32 2 361 73 61', 'website': 'https://apotheekhalle.be/', 'wheelchair:turning_circle': 'yes'}}"
"{'type': 'node', 'id': 971994802, 'lat': 50.7371852, 'lon': 4.2352535, 'tags': {'amenity': 'pharmacy', 'entrance:kerb:height': '30 cm', 'entrance:step_count': '2', 'entrance:width': '110 cm', 'name': 'Beaujean Centrum', 'opening_hours': 'Mo-Fr 08:00-19:00; Sa 08:00-18:00', 'phone': '+32 2 356 60 54', 'website': 'https://apotheekbeaujeanhalle.be/', 'wheelchair:description': 'te smalle stoep voor de deur'}}"
"{'type': 'node', 'id': 971995744, 'lat': 50.7379695, 'lon': 4.2341371, 'tags': {'amenity': 'pharmacy', 'changing_table': 'no', 'changing_table:adult': 'no', 'entrance:step_count': '0', 'entrance:width': '0.76', 'name': 'Pharmasimple', 'note:wheelchair': 'ramp met gele lijnen geaccentueerd', 'opening_hours': 'Mo 09:00-17:00;Sa 08:00-18:00;Tu-Fr 08:00-19:00', 'phone': '+32 2 356 81 49', 'website': 'https://www.apotheekacacia.be/', 'wheelchair:turning_circle': 'yes'}}"
"{'type': 'node', 'id': 971997940, 'lat': 50.7361461, 'lon': 4.236422, 'tags': {'amenity': 'pharmacy', 'changing_table': 'no', 'entrance:kerb:height': '0', 'entrance:step_count': '0', 'entrance:width': '0.95', 'name': 'Farma France', 'opening_hours': 'Mo-Fr 08:00-18:30;Sa 08:00-18:00', 'phone': '+32 2 361 10 29', 'toilets:wheelchair': 'no', 'website': 'https://farmafrancehalle.apotheek.be/', 'wheelchair': 'yes', 'wheelchair:turning_circle': 'no'}}"
"{'type': 'node', 'id': 972005371, 'lat': 50.734195, 'lon': 4.235924, 'tags': {'addr:street': 'Basiliekstraat', 'changing_table': 'no', 'entrance:step_count': '0', 'entrance:width': '90 cm', 'healthcare': 'pharmacy', 'name': 'Brichau', 'wheelchair:turning_circle': 'yes'}}"
"{'type': 'node', 'id': 973762687, 'lat': 50.9864656, 'lon': 4.7824837, 'tags': {'addr:city': 'Betekom', 'addr:housenumber': '25', 'addr:postcode': '3130', 'addr:street': 'Pastoor Pitetlaan', 'amenity': 'pharmacy', 'dispensing': 'yes', 'drive_through': 'no', 'healthcare': 'pharmacy', 'name': 'Apotheek Philips', 'opening_hours': 'Mo-Fr 08:30-12:15,13:15-20:00; We 08:30-13:00; Sa 08:30-18:00', 'payment:cash': 'yes', 'payment:credit_cards': 'yes', 'payment:debit_cards': 'yes', 'phone': '+32 16 56 65 25', 'website': 'https://www.apotheekphilips.be/', 'wheelchair': 'yes'}}"
"{'type': 'node', 'id': 976850310, 'lat': 50.4655833, 'lon': 3.9580181, 'tags': {'addr:housenumber': '30A', 'addr:street': 'Chaussée de Bruxelles', 'amenity': 'pharmacy', 'dispensing': 'yes', 'name': 'Lhoir', 'phone': '+32 65 33 56 33'}}"
"{'type': 'node', 'id': 977587712, 'lat': 51.2825437, 'lon': 4.4210454, 'tags': {'addr:housenumber': '91', 'addr:postcode': '2180', 'addr:street': 'Driehoekstraat', 'amenity': 'pharmacy', 'email': 'apotheekvanhulst@gmail.com', 'fax': '+32 3 541 01 58', 'name': 'Apotheek Van Hulst', 'old_name': 'Apotheek De Loecker', 'opening_hours': 'Mo-Fr 09:00-12:30,14:00-18:30; Sa,Su,PH off', 'phone': '+32 3 541 24 11', 'website': 'http://apotheekvanhulst.be/'}}"
"{'type': 'node', 'id': 990094393, 'lat': 50.7149718, 'lon': 4.2199558, 'tags': {'amenity': 'pharmacy', 'name': 'Farmacy France'}}"
"{'type': 'node', 'id': 990094396, 'lat': 50.7138847, 'lon': 4.2231353, 'tags': {'amenity': 'pharmacy'}}"
"{'type': 'node', 'id': 992779529, 'lat': 50.7837792, 'lon': 4.6770668, 'tags': {'amenity': 'pharmacy', 'dispensing': 'yes', 'healthcare': 'pharmacy'}}"
"{'type': 'node', 'id': 992834392, 'lat': 50.7471875, 'lon': 4.6879768, 'tags': {'amenity': 'pharmacy', 'dispensing': 'yes'}}"
"{'type': 'node', 'id': 993649480, 'lat': 50.8369744, 'lon': 4.3622197, 'tags': {'amenity': 'pharmacy', 'dispensing': 'yes', 'healthcare': 'pharmacy', 'name': 'Coloniale'}}"
"{'type': 'node', 'id': 994795403, 'lat': 51.2193137, 'lon': 4.3252357, 'tags': {'amenity': 'pharmacy', 'healthcare': 'pharmacy'}}"
"{'type': 'node', 'id': 997686007, 'lat': 50.4309904, 'lon': 3.7938264, 'tags': {'amenity': 'pharmacy', 'dispensing': 'no', 'name': 'Universal Pharma Boussu', 'website': 'https://www.universalpharma.be'}}"
"{'type': 'node', 'id': 998318015, 'lat': 51.2018338, 'lon': 4.4061131, 'tags': {'amenity': 'dentist', 'healthcare': 'dentist', 'name': 'Tandant'}}"
"{'type': 'node', 'id': 1000129100, 'lat': 50.5036522, 'lon': 3.7608021, 'tags': {'healthcare': 'doctor', 'healthcare:speciality': 'urology', 'name': 'Philippe Uystepruyst'}}"
"{'type': 'node', 'id': 1000129107, 'lat': 50.5053707, 'lon': 3.7869843, 'tags': {'addr:housenumber': '7', 'addr:street': 'Rue Raymond Liénard', 'healthcare': 'physiotherapist', 'name': 'Bérangère Piraux', 'phone': '+32 65 62 38 88'}}"
"{'type': 'node', 'id': 1000129113, 'lat': 50.5048409, 'lon': 3.7806428, 'tags': {'addr:housenumber': '58', 'addr:street': 'Rue Émile Vandervelde', 'healthcare': 'nursing', 'name': 'Sylvie Ryckaert'}}"
"{'type': 'node', 'id': 1000129135, 'lat': 50.5037028, 'lon': 3.7606737, 'tags': {'addr:housenumber': '134', 'addr:street': 'Rue Désiré Blondiau', 'healthcare': 'physiotherapist', 'name': 'Isabelle Descamps'}}"
"{'type': 'node', 'id': 1010674266, 'lat': 51.2032007, 'lon': 4.4053681, 'tags': {'amenity': 'pharmacy', 'healthcare': 'pharmacy', 'name': 'De Lindeboom'}}"
"{'type': 'node', 'id': 1010674275, 'lat': 51.2080525, 'lon': 4.4036362, 'tags': {'addr:housenumber': '81', 'addr:street': 'Justitiestraat', 'amenity': 'pharmacy', 'check_date': '2024-02-10', 'healthcare': 'pharmacy', 'name': 'Justitia'}}"
"{'type': 'node', 'id': 1010798703, 'lat': 50.8573741, 'lon': 4.3590021, 'tags': {'amenity': 'pharmacy', 'contact:phone': '+32 2 203 67 29', 'dispensing': 'yes', 'drive_through': 'no', 'healthcare': 'pharmacy', 'name': 'Étoile du nord', 'opening_hours': 'Mo-Fr 07:30-19:00; Sa 09:00-18:00'}}"
"{'type': 'node', 'id': 1011116041, 'lat': 50.8408606, 'lon': 4.6680771, 'tags': {'amenity': 'pharmacy', 'dispensing': 'yes', 'name': 'Goed Apotheek'}}"
"{'type': 'node', 'id': 1021123697, 'lat': 50.5039305, 'lon': 3.7594406, 'tags': {'addr:housenumber': '12', 'addr:street': 'Rue Jean Lenoir', 'healthcare': 'physiotherapist', 'name': 'Sylvie Demoustier', 'phone': '+32 65 63 14 25'}}"
"{'type': 'node', 'id': 1021123759, 'lat': 50.5114334, 'lon': 3.7629712, 'tags': {'addr:housenumber': '12', 'addr:street': 'Rue Achille Danneau', 'healthcare': 'physiotherapist', 'name': 'Pascal Moureau', 'phone': '+32 498 22 47 72;+32 65 62 27 00'}}"
"{'type': 'node', 'id': 1025149409, 'lat': 51.2614857, 'lon': 4.7908372, 'tags': {'addr:city': 'Wechelderzande', 'addr:housenumber': '32', 'addr:postcode': '2275', 'addr:street': 'Gebroeders De Winterstraat', 'amenity': 'pharmacy', 'contact:phone': '+32 3 312 18 65', 'dispensing': 'yes', 'healthcare': 'pharmacy', 'name': 'Apotheker Peeters-Dekeyser', 'opening_hours': 'Mo-Th 08:30-12:30,13:30-18:30; Fr 08:30-13:30,13:30-18:30; Sa 08:30-12:00', 'url': 'https://apotheekwechel.be/'}}"
"{'type': 'node', 'id': 1027921652, 'lat': 50.8457134, 'lon': 4.3979538, 'tags': {'amenity': 'pharmacy', 'dispensing': 'yes', 'name': 'Havaux Parry', 'opening_hours': 'Mo-Fr 08:30-13:00,13:30-19:00; Sa 09:00-13:00'}}"
"{'type': 'node', 'id': 1027922038, 'lat': 50.8451409, 'lon': 4.3952262, 'tags': {'amenity': 'pharmacy', 'check_date:opening_hours': '2023-04-23', 'dispensing': 'yes', 'name:signed': 'no', 'opening_hours:signed': 'no'}}"
"{'type': 'node', 'id': 1039101045, 'lat': 50.8513091, 'lon': 4.3968511, 'tags': {'amenity': 'pharmacy', 'check_date': '2023-09-20', 'dispensing': 'yes', 'entrance:kerb:height': '0.03', 'entrance:step_count': '1', 'entrance:width': '0.95', 'name': 'Plasky', 'toilets:wheelchair': 'no', 'wheelchair:turning_circle': 'yes'}}"
"{'type': 'node', 'id': 1054682638, 'lat': 50.8492599, 'lon': 4.3700621, 'tags': {'amenity': 'pharmacy', 'check_date': '2023-12-08', 'dispensing': 'yes', 'name': 'Pharmacie Madou - Apotheek Madou', 'name:fr': 'Pharmacie Madou', 'name:nl': 'Apotheek Madou'}}"
"{'type': 'node', 'id': 1058904398, 'lat': 50.821439, 'lon': 4.2939665, 'tags': {'amenity': 'pharmacy', 'dispensing': 'yes'}}"
"{'type': 'node', 'id': 1078589855, 'lat': 50.8913784, 'lon': 4.4175987, 'tags': {'addr:street': 'Rue de Verdun - Verdunstraat', 'amenity': 'pharmacy', 'dispensing': 'yes', 'name': 'Lettelier (ex Vermimmen)', 'opening_hours': 'Mo-Sa 09:00-12:30, Mo-Fr 14:00-19:00'}}"
"{'type': 'node', 'id': 1079695423, 'lat': 50.4456358, 'lon': 3.9551739, 'tags': {'addr:housenumber': '85', 'addr:street': ""Avenue d'Hyon"", 'amenity': 'pharmacy', 'dispensing': 'yes', 'healthcare': 'pharmacy', 'name': 'Pharmacie du Joncquois', 'phone': '+32 65 31 64 16'}}"
"{'type': 'node', 'id': 1081996010, 'lat': 51.0423566, 'lon': 3.7326163, 'tags': {'addr:housenumber': '505', 'addr:street': 'Franklin Rooseveltlaan', 'amenity': 'pharmacy', 'check_date:opening_hours': '2022-04-23', 'email': 'info@apotheekleveugle.be', 'entrance:kerb:height': '0.06', 'entrance:ramp': 'no', 'entrance:step_count': '1', 'entrance:width': '0.82', 'healthcare': 'pharmacy', 'name': 'Leveugle', 'opening_hours': 'Mo-Fr 08:30-13:00,14:00-19:00', 'phone': '+32 9 223 46 71', 'toilets:wheelchair': 'no', 'website': 'http://www.apotheekleveugle.be/', 'wheelchair:turning_circle': 'no'}}"
"{'type': 'node', 'id': 1082927352, 'lat': 50.5009059, 'lon': 3.762089, 'tags': {'addr:housenumber': '42', 'addr:street': 'Rue Odon Rosier', 'healthcare': 'doctor', 'name': 'Sylvie Van Puyvelde', 'phone': '+32 495 84 26 10'}}"
"{'type': 'node', 'id': 1082927378, 'lat': 50.4972696, 'lon': 3.7731506, 'tags': {'addr:city': 'Sirault', 'addr:housenumber': '6', 'addr:postcode': '7332', 'addr:street': 'Rue Odon Rosier', 'amenity': 'doctors', 'healthcare': 'doctor', 'healthcare:speciality': 'general', 'name': 'Dr Brigitte Scoubeau', 'phone': '+32 65 62 16 30'}}"
"{'type': 'node', 'id': 1082927389, 'lat': 50.5134666, 'lon': 3.765385, 'tags': {'addr:housenumber': '197', 'addr:street': 'Rue Albert Bériot', 'healthcare': 'physiotherapist', 'name': 'Delphine Mention', 'phone': '+32 475 90 05 08;+32 65 75 96 43'}}"
"{'type': 'node', 'id': 1082927405, 'lat': 50.5045223, 'lon': 3.7504577, 'tags': {'addr:housenumber': '90', 'addr:street': 'Rue Jean Lenoir', 'healthcare': 'speech_therapist', 'name': 'Aurélie Faucon', 'phone': '+32 496 13 35 95'}}"
"{'type': 'node', 'id': 1083528921, 'lat': 51.2506989, 'lon': 4.4959872, 'tags': {'amenity': 'pharmacy', 'name': 'Aerts'}}"
"{'type': 'node', 'id': 1083530088, 'lat': 51.2505277, 'lon': 4.4968864, 'tags': {'addr:housenumber': '17', 'addr:street': 'Churchilllaan', 'amenity': 'pharmacy', 'contact:facebook': 'https://www.facebook.com/profile.php?id=100085563207856', 'dispensing': 'yes', 'email': 'info@apotheekhetgroenkruis.be', 'healthcare': 'pharmacy', 'name': 'Het Groen Kruis', 'opening_hours': 'Mo-Fr 09:00-12:30,14:00-18:30', 'phone': '+32 3 658 44 71', 'website': 'https://apotheekhetgroenkruis.be/'}}"
"{'type': 'node', 'id': 1083532552, 'lat': 51.2497453, 'lon': 4.4840782, 'tags': {'amenity': 'pharmacy', 'name': 'Carpentier'}}"
"{'type': 'node', 'id': 1083533520, 'lat': 51.2458838, 'lon': 4.4603674, 'tags': {'amenity': 'pharmacy', 'healthcare': 'pharmacy', 'name': 'Deuzeldapotheek'}}"
"{'type': 'node', 'id': 1083577429, 'lat': 50.8368032, 'lon': 4.4886272, 'tags': {'addr:housenumber': '12', 'addr:street': 'Hardstraat - Rue Hard', 'alt_name': 'Medisch Centrum Huisartsen Druivenstreek', 'amenity': 'clinic', 'contact:email': 'info@mchinfo.be', 'contact:phone': '+32 2 785 03 45', 'contact:website': 'https://www.mchinfo.be/', 'healthcare': 'clinic', 'name': 'MCH Wezembeek-Oppem', 'opening_hours': 'Mo-Fr 08:00-19:00; Sa 08:00-12:30', 'short_name': 'MCH'}}"
"{'type': 'node', 'id': 1086875164, 'lat': 51.2242743, 'lon': 4.4043481, 'tags': {'addr:housenumber': '22A', 'addr:street': 'Klapdorp', 'amenity': 'doctors', 'changing_table': 'yes', 'changing_table:adult': 'yes', 'comment': 'toilet toegankelijk', 'entrance:kerb:height': '0.01', 'entrance:step_count': '1', 'entrance:width': '1.05', 'fee': 'no', 'healthcare': 'doctor', 'name': 'Antigoon Huisartsen', 'ramp:wheelchair': 'yes', 'shower:wheelchair': 'no', 'toilets:access': 'customers', 'toilets:wheelchair': 'yes', 'toilets:wheelchair:accessible_via': 'ground_floor', 'toilets:wheelchair:door_width': '0.89', 'toilets:wheelchair:grab_rails': 'yes', 'toilets:wheelchair:space_front': '1.4', 'toilets:wheelchair:space_side': '0.8', 'website': 'https://antigoonartsen.be/', 'wheelchair:turning_circle': 'no'}}"
"{'type': 'node', 'id': 1094479540, 'lat': 50.8954133, 'lon': 4.3273605, 'tags': {'addr:housenumber': '56', 'addr:street': 'Avenue des Citronniers - Citroenbomenlaan', 'amenity': 'pharmacy', 'contact:phone': '+32 2 479 55 33', 'dispensing': 'yes', 'healthcare': 'pharmacy', 'name': 'Decuypere', 'opening_hours': 'Mo-Fr 09:00-12:15,13:30-18:30; Sa 09:00-12:15'}}"
"{'type': 'node', 'id': 1097143345, 'lat': 50.5069497, 'lon': 3.7914119, 'tags': {'addr:housenumber': '52', 'addr:street': 'Rue des Déportés', 'healthcare': 'physiotherapist', 'name': 'Delphine Mention', 'phone': '+32 475 90 05 08'}}"
"{'type': 'node', 'id': 1097998050, 'lat': 51.2516101, 'lon': 4.4991996, 'tags': {'amenity': 'pharmacy', 'name': 'Paeshuys', 'opening_hours': 'Mo-Fr 09:00-12:30,14:00-18:30'}}"
"{'type': 'node', 'id': 1099337445, 'lat': 51.2582828, 'lon': 4.5054222, 'tags': {'addr:city': 'Schoten', 'addr:housenumber': '245', 'addr:postcode': '2900', 'addr:street': 'Paalstraat', 'amenity': 'pharmacy', 'dispensing': 'yes', 'drive_through': 'no', 'healthcare': 'pharmacy', 'name': 'Apotheek Bloemendaal', 'opening_hours': 'Mo-Fr 09:00-12:30,14:00-18:30; Sa,Su,PH off', 'phone': '+32 3 658 40 26', 'website': 'https://apotheekbloemendaal.be/'}}"
"{'type': 'node', 'id': 1100220348, 'lat': 50.6795685, 'lon': 4.5918814, 'tags': {'addr:housenumber': '6', 'addr:street': 'Allée de Clerlande', 'amenity': 'hospital', 'emergency': 'no', 'healthcare': 'hospital', 'healthcare:speciality': 'neurology', 'name': 'Centre neurologique William Lennox', 'operator': 'Groupe hospitalier Saint-Luc UCL', 'operator:type': 'private_non_profit', 'website': 'https://www.cnwl.be', 'wheelchair': 'yes'}}"
"{'type': 'node', 'id': 1103229102, 'lat': 50.8869664, 'lon': 4.7218027, 'tags': {'addr:housenumber': '74', 'addr:street': 'Gemeentestraat', 'alt_name': 'apotheek Diapharma', 'amenity': 'pharmacy', 'healthcare': 'pharmacy', 'name': 'Diane Reymen apotheek', 'wheelchair': 'yes'}}"
"{'type': 'node', 'id': 1106127062, 'lat': 50.8904721, 'lon': 4.3423798, 'tags': {'amenity': 'pharmacy', 'contact:phone': '+32 2 478 40 62', 'contact:website': 'https://pharmacie-atomium.clicandcollect.santalis.be/', 'dispensing': 'yes', 'healthcare': 'pharmacy', 'name': 'Atomium', 'opening_hours': 'Mo-Fr 08:30-12:30,14:00-18:30; Sa 09:00-12:00'}}"
"{'type': 'node', 'id': 1111848817, 'lat': 50.4687414, 'lon': 4.6169939, 'tags': {'amenity': 'pharmacy'}}"
"{'type': 'node', 'id': 1116270266, 'lat': 50.469802, 'lon': 3.9570719, 'tags': {'amenity': 'pharmacy', 'dispensing': 'yes', 'name': 'Nimy-phar'}}"
"{'type': 'node', 'id': 1117699359, 'lat': 50.5045622, 'lon': 3.7454759, 'tags': {'addr:city': 'Sirault', 'addr:housenumber': '49', 'addr:postcode': '7332', 'addr:street': 'Rue du Happart', 'healthcare': 'physiotherapist', 'name': 'Eric Berlemont', 'phone': '+32 65 62 31 63'}}"
"{'type': 'node', 'id': 1117712619, 'lat': 50.8431074, 'lon': 4.3958121, 'tags': {'amenity': 'pharmacy', 'contact:phone': '+32 2 732 10 40', 'contact:website': 'https://www.bandagisterie-50naire.be', 'dispensing': 'yes', 'healthcare': 'pharmacy', 'name': 'Bandagisterie Du Cinquantenaire', 'opening_hours': 'Mo-Fr 09:00-13:00,14:00-19:00;Sa 09:30-12:30'}}"
"{'type': 'node', 'id': 1119989916, 'lat': 50.8604756, 'lon': 4.3636455, 'tags': {'amenity': 'pharmacy', 'dispensing': 'no', 'healthcare': 'pharmacy', 'name': 'Metipharm'}}"
"{'type': 'node', 'id': 1121797647, 'lat': 50.8256506, 'lon': 4.3551476, 'tags': {'amenity': 'pharmacy', 'check_date': '2024-08-28', 'dispensing': 'yes', 'noname': 'yes'}}"
"{'type': 'node', 'id': 1122492566, 'lat': 51.0961715, 'lon': 3.8318755, 'tags': {'amenity': 'pharmacy', 'changing_table': 'no', 'changing_table:adult': 'no', 'contact:facebook': 'https://www.facebook.com/ApotheekDieickx/', 'dispensing': 'yes', 'entrance:kerb:height': '0', 'entrance:step_count': '0', 'entrance:width': '2.5', 'healthcare': 'pharmacy', 'name': 'Dierickx', 'phone': '+32 9 355 53 60', 'toilets:wheelchair': 'no', 'website': 'https://dierickx9080.apotheek.be/', 'wheelchair': 'yes', 'wheelchair:turning_circle': 'yes'}}"
"{'type': 'node', 'id': 1123136824, 'lat': 50.6476329, 'lon': 4.5629445, 'tags': {'amenity': 'pharmacy', 'healthcare': 'pharmacy', 'name': 'Pharmacie De Valck'}}"
