OSM_Data
"{'type': 'node', 'id': 1659779620, 'lat': -20.0113632, 'lon': -45.9772674, 'tags': {'amenity': 'pharmacy', 'dispensing': 'no', 'healthcare': 'pharmacy', 'name': 'Farmácia Nossa Senhora Aparecida', 'source': 'survey'}}"
"{'type': 'node', 'id': 2012401969, 'lat': -18.8442622, 'lon': -46.7908735, 'tags': {'amenity': 'hospital', 'healthcare': 'hospital', 'name': 'Unidade Mista de Saúde Dona Inês', 'operator': 'Sistema Único de Saúde', 'operator:short': 'SUS', 'operator:wikidata': 'Q7531056'}}"
"{'type': 'node', 'id': 2485009786, 'lat': -20.0109567, 'lon': -45.9790367, 'tags': {'addr:housenumber': '404', 'addr:street': 'Rua José Augusto Chaves', 'amenity': 'pharmacy', 'dispensing': 'yes', 'healthcare': 'pharmacy', 'name': 'Farmácia Brasil'}}"
"{'type': 'node', 'id': 2485009794, 'lat': -20.0117862, 'lon': -45.9786148, 'tags': {'addr:housenumber': '66', 'addr:street': 'Rua dos Expedicionários', 'amenity': 'pharmacy', 'dispensing': 'yes', 'healthcare': 'pharmacy', 'name': 'Uai Farma'}}"
"{'type': 'node', 'id': 2700555857, 'lat': -19.9963082, 'lon': -46.2196265, 'tags': {'amenity': 'pharmacy', 'dispensing': 'yes', 'name': 'Farmácia Brasil', 'source': 'survey'}}"
"{'type': 'node', 'id': 2702674157, 'lat': -20.0172525, 'lon': -45.9841821, 'tags': {'addr:housenumber': '501', 'addr:street': 'Rua Alzira Torres', 'amenity': 'pharmacy', 'dispensing': 'yes', 'healthcare': 'pharmacy', 'name': 'Drogaria Souza', 'source': 'survey'}}"
"{'type': 'node', 'id': 2702674164, 'lat': -20.0160129, 'lon': -45.9832585, 'tags': {'amenity': 'pharmacy', 'dispensing': 'yes', 'healthcare': 'pharmacy', 'name': 'Farmácia Brasil', 'note': 'Filial Lava-pés', 'source': 'survey'}}"
"{'type': 'node', 'id': 4094499890, 'lat': -18.8427868, 'lon': -46.7935312, 'tags': {'addr:city': 'Guimarânia', 'addr:housenumber': '500', 'addr:postcode': '38730-000', 'addr:street': 'Rua Conseilheiro Rufino', 'addr:suburb': 'Centro', 'amenity': 'pharmacy', 'healthcare': 'pharmacy', 'name': 'Farmácia Paratodos'}}"
"{'type': 'node', 'id': 4095448912, 'lat': -18.8442526, 'lon': -46.7940548, 'tags': {'addr:street': 'Rua Tamoios', 'amenity': 'pharmacy', 'healthcare': 'pharmacy', 'name': 'Farmácia do Povo'}}"
"{'type': 'node', 'id': 4542178291, 'lat': -19.3228362, 'lon': -46.0351544, 'tags': {'addr:housenumber': '39', 'addr:postcode': '38800-000', 'addr:street': 'Rua Rio Formoso', 'amenity': 'clinic', 'healthcare': 'clinic', 'internet_access': 'wlan', 'name': 'Juliana Martins Estética', 'opening_hours': 'Tu-Fr 13:00-18:00', 'phone': '+55 34 9 9815 3821'}}"
"{'type': 'node', 'id': 4582057324, 'lat': -19.6951106, 'lon': -46.1685502, 'tags': {'amenity': 'hospital', 'source': 'IBGE'}}"
"{'type': 'node', 'id': 4633763104, 'lat': -19.9264201, 'lon': -46.8255292, 'tags': {'amenity': 'clinic', 'name': 'Centro de Saúde'}}"
"{'type': 'node', 'id': 4708472497, 'lat': -19.7506971, 'lon': -46.3839019, 'tags': {'amenity': 'pharmacy', 'brand': 'Big Farma', 'phone': '+55 37 36371352'}}"
"{'type': 'node', 'id': 4710533140, 'lat': -19.9966382, 'lon': -46.2179638, 'tags': {'amenity': 'clinic', 'name': 'Policlínica Municipal'}}"
"{'type': 'node', 'id': 4710600866, 'lat': -19.9949296, 'lon': -46.2220792, 'tags': {'amenity': 'clinic', 'name': 'Policlínica Municipal Avelino Rodrigues da Silva'}}"
"{'type': 'node', 'id': 4929674979, 'lat': -19.1976633, 'lon': -46.2404506, 'tags': {'amenity': 'pharmacy', 'healthcare': 'pharmacy', 'name': 'Drogaria Manancial', 'phone': '+55 34 3855 1353'}}"
"{'type': 'node', 'id': 4975582404, 'lat': -19.5899319, 'lon': -46.9377217, 'tags': {'addr:housenumber': '68', 'addr:postcode': '38183-085', 'addr:street': 'Praça Coronel José Adolfo', 'addr:suburb': 'Centro', 'amenity': 'hospital', 'healthcare': 'hospital', 'name': 'Hospital Regional Dom Bosco', 'ref:CNES': '2164612', 'ref:vatin': 'BR16906935000171', 'source': 'IBGE;DATASUS'}}"
"{'type': 'node', 'id': 4979730762, 'lat': -19.8240801, 'lon': -45.9040761, 'tags': {'amenity': 'clinic', 'name': 'Posto de Saúde'}}"
"{'type': 'node', 'id': 6716167014, 'lat': -19.5999181, 'lon': -46.9302785, 'tags': {'addr:housenumber': '428', 'addr:street': 'Rua Engenheiro José Martins', 'amenity': 'clinic', 'name': 'Clínica Maria Bigai'}}"
