OSM_Data
"{'type': 'node', 'id': 365204252, 'lat': -23.1825087, 'lon': -46.8911729, 'tags': {'addr:housenumber': '620', 'addr:street': 'Rua Anchieta', 'amenity': 'clinic', 'healthcare': 'clinic', 'healthcare:speciality': 'otolaryngology', 'name': 'Oto.com Otorrinolaringologia'}}"
"{'type': 'node', 'id': 408932164, 'lat': -23.5281086, 'lon': -46.7248374, 'tags': {'amenity': 'pharmacy', 'brand': 'Drogasil', 'brand:wikidata': 'Q5308185', 'dispensing': 'yes', 'drive_through': 'no', 'healthcare': 'pharmacy', 'name': 'Drogasil', 'wheelchair': 'yes'}}"
"{'type': 'node', 'id': 435264985, 'lat': -23.4948185, 'lon': -46.8492533, 'tags': {'amenity': 'pharmacy', 'brand': 'Droga Raia', 'brand:wikidata': 'Q10357101', 'brand:wikipedia': 'pt:RaiaDrogasil', 'healthcare': 'pharmacy', 'name': 'Droga Raia', 'operator': 'Droga Raia'}}"
"{'type': 'node', 'id': 435905680, 'lat': -23.4934489, 'lon': -46.8492619, 'tags': {'amenity': 'pharmacy', 'healthcare': 'pharmacy', 'name': 'Farma Life'}}"
"{'type': 'node', 'id': 435905692, 'lat': -23.4956214, 'lon': -46.8489958, 'tags': {'amenity': 'pharmacy', 'healthcare': 'pharmacy', 'name': 'Droga Rani'}}"
"{'type': 'node', 'id': 444963390, 'lat': -23.5434916, 'lon': -46.5615758, 'tags': {'amenity': 'pharmacy', 'healthcare': 'pharmacy', 'name': 'Farma & Cia'}}"
"{'type': 'node', 'id': 453454405, 'lat': -23.5444235, 'lon': -46.5642914, 'tags': {'healthcare': 'laboratory'}}"
"{'type': 'node', 'id': 456043041, 'lat': -23.5234135, 'lon': -46.7365315, 'tags': {'addr:city': 'São Paulo', 'addr:housenumber': '1539', 'addr:postcode': '05089-001', 'addr:street': 'Rua Guaipá', 'amenity': 'pharmacy', 'healthcare': 'pharmacy'}}"
"{'type': 'node', 'id': 460149340, 'lat': -23.9675923, 'lon': -46.3332133, 'tags': {'addr:city': 'Santos', 'addr:street': 'Praça da Independência', 'addr:suburb': 'Gonzaga', 'amenity': 'pharmacy', 'healthcare': 'pharmacy', 'name': 'Poupa Farma', 'opening_hours': 'open'}}"
"{'type': 'node', 'id': 491895211, 'lat': -23.6524688, 'lon': -46.7341461, 'tags': {'addr:city': 'São Paulo', 'addr:country': 'BR', 'addr:housenumber': '920', 'addr:postcode': '05805-000', 'addr:state': 'SP', 'addr:street': 'Avenida Maria Coelho Aguiar', 'amenity': 'pharmacy', 'contact:phone': '+55 11 5851-6291;+55 11 5851-6907;0800 779 8767', 'contact:website': 'http://www.drogariasaopaulo.com.br', 'name': 'Drogaria São Paulo', 'opening_hours': 'Mo-Su 07:00-24:00'}}"
"{'type': 'node', 'id': 492902316, 'lat': -23.6576603, 'lon': -46.7363042, 'tags': {'amenity': 'pharmacy', 'healthcare': 'pharmacy', 'name': 'Drogaria Nova São Luiz'}}"
"{'type': 'node', 'id': 495418452, 'lat': -23.4936943, 'lon': -47.402983, 'tags': {'amenity': 'hospital', 'healthcare': 'hospital', 'healthcare:speciality': 'psychiatry', 'name': 'Hospital Mental Psiquiatria'}}"
"{'type': 'node', 'id': 496303640, 'lat': -23.5028386, 'lon': -47.4269642, 'tags': {'amenity': 'hospital', 'healthcare': 'hospital', 'name': 'Hospital Psiquiátrico Teixeira Lima', 'operator': 'DESATIVADO'}}"
"{'type': 'node', 'id': 598678128, 'lat': -23.5528451, 'lon': -46.6430063, 'tags': {'amenity': 'pharmacy', 'healthcare': 'pharmacy'}}"
"{'type': 'node', 'id': 745723014, 'lat': -23.5599368, 'lon': -46.6381129, 'tags': {'addr:housenumber': '840', 'addr:postcode': '01502-001', 'addr:street': 'Avenida da Liberdade', 'amenity': 'pharmacy', 'dispensing': 'yes', 'name': 'Drogaria São Paulo', 'opening_hours': '24/7', 'phone': '+55 11 3207-4168', 'website': 'https://www.drogariasaopaulo.com.br/'}}"
"{'type': 'node', 'id': 840695877, 'lat': -23.5977766, 'lon': -46.6435335, 'tags': {'addr:housenumber': '715', 'addr:postcode': '04024-002', 'addr:street': 'Rua Napoleão de Barros', 'amenity': 'hospital', 'healthcare': 'hospital', 'name': 'Hospital São Paulo', 'phone': '+55 11 576-4000', 'ref:CNES': '2077485', 'ref:vatin': 'BR61699567000192', 'website': 'http://www.hospitalsaopaulo.org.br', 'wheelchair': 'yes', 'wikidata': 'Q10298486'}}"
"{'type': 'node', 'id': 840709498, 'lat': -23.5984324, 'lon': -46.6442291, 'tags': {'addr:city': 'São Paulo', 'addr:country': 'BR', 'addr:housenumber': '763', 'addr:postcode': '04039-032', 'addr:state': 'SP', 'addr:street': 'Rua Pedro de Toledo', 'amenity': 'pharmacy', 'brand': 'Drogaria São Paulo', 'brand:wikidata': 'Q5308184', 'brand:wikipedia': 'en:Grupo DPSP', 'contact:phone': '+55 11 5549-9647;+55 11 5571-5663;0800 779 8767', 'contact:website': 'http://www.drogariasaopaulo.com.br', 'drive_through': 'no', 'healthcare': 'pharmacy', 'name': 'Drogaria São Paulo', 'opening_hours': '24/7'}}"
"{'type': 'node', 'id': 840722121, 'lat': -23.6000575, 'lon': -46.643394, 'tags': {'addr:housenumber': '1991', 'addr:postcode': '04040-032', 'addr:street': 'Rua Loefgren', 'amenity': 'hospital', 'healthcare': 'hospital', 'name': 'Hospital Amparo Maternal', 'name:pt': 'Hospital Amparo Maternal', 'phone': '+55 11 5089-8277', 'ref:CNES': '2077388', 'ref:vatin': 'BR61699567012018', 'website': 'https://www.amparomaternal.org/'}}"
"{'type': 'node', 'id': 842545672, 'lat': -23.6339956, 'lon': -46.5026742, 'tags': {'amenity': 'pharmacy', 'healthcare': 'pharmacy', 'name': 'Drogaria América do Sul'}}"
"{'type': 'node', 'id': 875888077, 'lat': -23.545663, 'lon': -46.691593, 'tags': {'amenity': 'pharmacy', 'dispensing': 'yes', 'healthcare': 'pharmacy'}}"
"{'type': 'node', 'id': 884742670, 'lat': -23.5392935, 'lon': -46.6752459, 'tags': {'addr:city': 'São Paulo', 'addr:country': 'BR', 'addr:housenumber': '1152', 'addr:postcode': '05016-110', 'addr:state': 'SP', 'addr:street': 'Avenida Sumaré', 'amenity': 'pharmacy', 'check_date': '2023-04-20', 'contact:email': 'atendimento@drogasil.com.br', 'contact:phone': '+55 11 3672-3885;+55 11 3862-3089', 'contact:website': 'http://www.drogasil.com.br/', 'name': 'Drogasil', 'opening_hours': '24/7'}}"
"{'type': 'node', 'id': 913840115, 'lat': -23.5435637, 'lon': -46.6942795, 'tags': {'addr:housenumber': '1776', 'addr:postcode': '05438-300', 'addr:street': 'Rua Heitor Penteado', 'amenity': 'pharmacy', 'brand': 'Droga Raia', 'brand:wikidata': 'Q10357101', 'brand:wikipedia': 'pt:RaiaDrogasil', 'dispensing': 'yes', 'healthcare': 'pharmacy', 'name': 'Droga Raia', 'opening_hours': '24/7', 'phone': '+55 11 3672-8279', 'website': 'https://www.drogaraia.com.br'}}"
"{'type': 'node', 'id': 931043620, 'lat': -23.5549484, 'lon': -46.6883581, 'tags': {'addr:city': 'São Paulo', 'addr:housenumber': '373', 'addr:postcode': '05435-000', 'addr:street': 'Rua Harmonia', 'amenity': 'pharmacy', 'brand': 'Drogasil', 'brand:wikidata': 'Q5308185', 'brand:wikipedia': 'pt:Drogasil', 'email': 'atendimento@drogasil.com.br', 'healthcare': 'pharmacy', 'name': 'Drogasil', 'opening_hours': 'Mo-Su 07:00-23:00', 'operator': 'Drogasil', 'phone': '+55 11 3032-9919', 'website': 'https://www.drogasil.com.br/', 'wheelchair': 'yes'}}"
"{'type': 'node', 'id': 1004651649, 'lat': -23.557795, 'lon': -46.6339387, 'tags': {'amenity': 'dentist', 'healthcare': 'dentist'}}"
"{'type': 'node', 'id': 1065872138, 'lat': -23.5704075, 'lon': -46.6554145, 'tags': {'addr:housenumber': '261', 'addr:street': 'Rua José Maria Lisboa', 'amenity': 'pharmacy', 'healthcare': 'pharmacy', 'name': 'Drogaria Tio Luiz'}}"
"{'type': 'node', 'id': 1066859189, 'lat': -23.5718417, 'lon': -46.6539957, 'tags': {'addr:housenumber': '77', 'addr:postcode': '01423-000', 'addr:street': 'Rua José Maria Lisboa', 'amenity': 'pharmacy', 'healthcare': 'pharmacy', 'name': 'Farmácio Orthomolecular', 'wheelchair': 'limited'}}"
"{'type': 'node', 'id': 1123398044, 'lat': -23.5522828, 'lon': -46.6969098, 'tags': {'amenity': 'pharmacy', 'name': 'Drogaria São Paulo', 'opening_hours': 'Mo-Su 07:00-23:00'}}"
"{'type': 'node', 'id': 1229608029, 'lat': -23.568882, 'lon': -46.7149157, 'tags': {'addr:city': 'São Paulo', 'addr:country': 'BR', 'addr:district': 'Butantã', 'addr:housenumber': '1250', 'addr:postcode': '05503-000', 'addr:state': 'SP', 'addr:street': 'Avenida Vital Brasil', 'addr:suburb': 'Butanta', 'amenity': 'pharmacy', 'brand': 'Drogaria São Paulo', 'brand:wikidata': 'Q5308184', 'brand:wikipedia': 'en:Grupo DPSP', 'contact:phone': '+55 11 3726-7059;+55 11 3726-2817', 'contact:website': 'http://www.drogariasaopaulo.com.br', 'healthcare': 'pharmacy', 'name': 'Drogaria São Paulo', 'opening_hours': 'Mo-Su 07:00-23:00', 'operator': 'Drogaria São Paulo'}}"
"{'type': 'node', 'id': 1520334844, 'lat': -22.8891189, 'lon': -47.0658473, 'tags': {'addr:city': 'Campinas', 'addr:housenumber': '2', 'addr:postcode': '13073-370', 'addr:street': 'Praça Doutor Souza Siqueira', 'addr:suburb': 'Jardim Guanabara', 'amenity': 'pharmacy', 'brand': 'Droga Raia', 'brand:wikidata': 'Q10357101', 'brand:wikipedia': 'pt:RaiaDrogasil', 'dispensing': 'yes', 'healthcare': 'pharmacy', 'mobile': '+55 (19) 97171-4171', 'name': 'Droga Raia', 'opening_hours': 'Mo-Su 07:00-23:00'}}"
"{'type': 'node', 'id': 1548792780, 'lat': -22.8849531, 'lon': -47.0647116, 'tags': {'addr:city': 'Campinas', 'addr:housenumber': '499', 'addr:postcode': '13073-010', 'addr:street': 'Rua Buarque de Macedo', 'addr:suburb': 'Jardim Brasil', 'amenity': 'pharmacy', 'brand': 'Drogarias Farmáxima', 'brand:wikidata': 'Q131062491', 'healthcare': 'pharmacy', 'name': 'Drogarias Farmáxima', 'phone': '+55 (19) 3213-2030'}}"
"{'type': 'node', 'id': 1556171260, 'lat': -22.8781594, 'lon': -46.9673223, 'tags': {'amenity': 'pharmacy', 'name': 'Drogaria São Paulo'}}"
"{'type': 'node', 'id': 1583433188, 'lat': -23.6092787, 'lon': -46.7769095, 'tags': {'amenity': 'pharmacy', 'dispensing': 'yes', 'healthcare': 'pharmacy'}}"
"{'type': 'node', 'id': 1590255045, 'lat': -23.6057419, 'lon': -46.7505095, 'tags': {'addr:housenumber': '250', 'addr:street': 'Rua João Santucci', 'amenity': 'hospital', 'healthcare': 'hospital', 'healthcare:speciality': 'cardiology;gynaecology;orthopaedics;otolaryngology;paediatrics;neurology', 'name': 'Hospital Family'}}"
"{'type': 'node', 'id': 1590265394, 'lat': -23.6069072, 'lon': -46.7538599, 'tags': {'amenity': 'hospital', 'emergency': 'no', 'healthcare': 'hospital', 'name': 'Intermédica Centro Clínico Taboão da Serra'}}"
"{'type': 'node', 'id': 1590265395, 'lat': -23.606632, 'lon': -46.7542247, 'tags': {'amenity': 'hospital', 'emergency': 'no', 'healthcare': 'hospital', 'name': 'Fisioterapia Ortoclimed'}}"
"{'type': 'node', 'id': 1590265407, 'lat': -23.6063026, 'lon': -46.7543266, 'tags': {'amenity': 'hospital', 'emergency': 'no', 'healthcare': 'hospital', 'name': 'Predict Medicina Diagnóstica'}}"
"{'type': 'node', 'id': 1590329984, 'lat': -23.6085933, 'lon': -46.7566009, 'tags': {'addr:city': 'Taboão da Serra', 'addr:country': 'BR', 'addr:housenumber': '368', 'addr:postcode': '06754-190', 'addr:state': 'SP', 'addr:street': 'Rua do Tesouro', 'amenity': 'pharmacy', 'brand': 'Drogaria São Paulo', 'brand:wikidata': 'Q5308184', 'brand:wikipedia': 'en:Grupo DPSP', 'contact:phone': '+55 11 4787-0557;+55 11 4787-1498;0800 779 8767', 'contact:website': 'http://www.drogariasaopaulo.com.br', 'dispensing': 'yes', 'healthcare': 'pharmacy', 'name': 'Drogaria São Paulo', 'opening_hours': '24/7'}}"
"{'type': 'node', 'id': 1603737957, 'lat': -22.9065554, 'lon': -47.0638157, 'tags': {'addr:city': 'Campinas', 'addr:street': 'Avenida Senador Saraiva', 'amenity': 'clinic', 'healthcare': 'clinic', 'name': 'Amor saúde'}}"
"{'type': 'node', 'id': 1603738032, 'lat': -22.9061665, 'lon': -47.0636001, 'tags': {'addr:city': 'Campinas', 'addr:street': 'Avenida Doutor Campos Sales', 'amenity': 'pharmacy', 'check_date': '2025-01-07', 'dispensing': 'no', 'healthcare': 'pharmacy', 'name': 'Drogão Super'}}"
"{'type': 'node', 'id': 1603738133, 'lat': -22.9059348, 'lon': -47.0635732, 'tags': {'addr:city': 'Campinas', 'addr:street': 'Avenida Doutor Campos Sales', 'amenity': 'pharmacy', 'dispensing': 'no', 'healthcare': 'pharmacy', 'name': 'Drogaria Familiar'}}"
"{'type': 'node', 'id': 1603738208, 'lat': -22.9058603, 'lon': -47.0634564, 'tags': {'addr:city': 'Campinas', 'addr:street': 'Avenida Doutor Campos Sales', 'amenity': 'pharmacy', 'dispensing': 'no', 'healthcare': 'pharmacy', 'name': 'Drogaria Campeã'}}"
"{'type': 'node', 'id': 1607420124, 'lat': -22.9221461, 'lon': -47.1193352, 'tags': {'addr:postcode': '13060-904', 'addr:street': 'Avenida John Boyd Dunlop', 'addr:suburb': 'Jardim Ipaussurama', 'alt_name': 'Hospital da PUC-Campinas', 'amenity': 'hospital', 'emergency': 'yes', 'healthcare': 'hospital', 'healthcare:speciality': 'maternity', 'name': 'Hospital e Maternidade Celso Pierro', 'phone': '+55 19 3343-8600', 'website': 'http://www.hospitaldapuc-campinas.com.br/', 'wikidata': 'Q10298567'}}"
"{'type': 'node', 'id': 1607655573, 'lat': -23.5031624, 'lon': -46.4881465, 'tags': {'amenity': 'pharmacy'}}"
"{'type': 'node', 'id': 1607871214, 'lat': -22.8992683, 'lon': -47.0828677, 'tags': {'addr:city': 'Campinas', 'addr:housenumber': '1226', 'addr:postcode': '13070-751', 'addr:street': 'Avenida Governador Pedro de Toledo', 'addr:suburb': 'Bonfim', 'amenity': 'pharmacy', 'healthcare': 'pharmacy', 'mobile': '+55 (19) 98941-1353', 'name': 'Drogaria Leal', 'phone': '+55 (19) 3241-9024', 'wheelchair': 'no'}}"
"{'type': 'node', 'id': 1608009333, 'lat': -22.9186946, 'lon': -47.1095418, 'tags': {'amenity': 'pharmacy', 'brand': 'Drogasil', 'brand:wikidata': 'Q5308185', 'healthcare': 'pharmacy', 'name': 'Drogasil', 'name:pt': 'Drogasil', 'wheelchair': 'yes'}}"
"{'type': 'node', 'id': 1608890439, 'lat': -23.5073208, 'lon': -46.4894581, 'tags': {'amenity': 'pharmacy'}}"
"{'type': 'node', 'id': 1609517654, 'lat': -22.9004735, 'lon': -47.0637489, 'tags': {'addr:city': 'Campinas', 'amenity': 'pharmacy', 'healthcare': 'pharmacy', 'name': 'Farma Futura'}}"
"{'type': 'node', 'id': 1609582717, 'lat': -23.5075733, 'lon': -46.489208, 'tags': {'amenity': 'pharmacy'}}"
"{'type': 'node', 'id': 1609582736, 'lat': -23.5073347, 'lon': -46.4901752, 'tags': {'amenity': 'pharmacy'}}"
"{'type': 'node', 'id': 1609596285, 'lat': -23.49311, 'lon': -46.4808985, 'tags': {'amenity': 'pharmacy'}}"
"{'type': 'node', 'id': 1609596304, 'lat': -23.4902759, 'lon': -46.4792567, 'tags': {'amenity': 'pharmacy', 'dispensing': 'yes', 'healthcare': 'pharmacy'}}"
"{'type': 'node', 'id': 1611055696, 'lat': -22.8923445, 'lon': -47.0774646, 'tags': {'addr:city': 'Campinas', 'addr:housenumber': '930', 'addr:postcode': '13070-711', 'addr:street': 'Avenida Doutor Alberto Sarmento', 'addr:suburb': 'Bonfim', 'amenity': 'pharmacy', 'healthcare': 'pharmacy', 'mobile': '+55 (19) 97101-4241', 'name': 'Botica Artesanal', 'phone': '+55 (19) 3243-1536', 'website': 'https://boticaartesanal.com'}}"
"{'type': 'node', 'id': 1622921600, 'lat': -22.891983, 'lon': -47.0635068, 'tags': {'addr:city': 'Campinas', 'addr:housenumber': '1472', 'addr:postcode': '13020-432', 'addr:street': 'Avenida Barão de Itapura', 'addr:suburb': 'Botafogo', 'amenity': 'pharmacy', 'brand': 'Drogarias Farmáxima', 'brand:wikidata': 'Q131062491', 'healthcare': 'pharmacy', 'name': 'Drogarias Farmáxima', 'phone': '+55 (19) 3232-9719', 'website': 'https://www.redefarmaxima.com.br/'}}"
"{'type': 'node', 'id': 1622921656, 'lat': -22.8944234, 'lon': -47.0622379, 'tags': {'addr:city': 'Campinas', 'addr:housenumber': '184', 'addr:postcode': '13023-200', 'addr:street': 'Rua Visconde de Taunay', 'addr:suburb': 'Vila Itapura', 'amenity': 'dentist', 'healthcare': 'dentist', 'name': 'Oralcamp', 'phone': '+55 (19) 3342-5050'}}"
"{'type': 'node', 'id': 1637936795, 'lat': -22.8940686, 'lon': -47.061126, 'tags': {'addr:city': 'Campinas', 'addr:housenumber': '793', 'addr:postcode': '13023-002', 'addr:street': 'Avenida Orosimbo Maia', 'addr:suburb': 'Vila Itapura', 'amenity': 'pharmacy', 'brand': 'Drogaria São Paulo', 'brand:wikidata': 'Q5308184', 'brand:wikipedia': 'en:Grupo DPSP', 'dispensing': 'yes', 'healthcare': 'pharmacy', 'name': 'Drogaria São Paulo', 'opening_hours': 'Mo-Su 07:00-23:00'}}"
"{'type': 'node', 'id': 1637936868, 'lat': -22.8984871, 'lon': -47.0629506, 'tags': {'addr:city': 'Campinas', 'addr:housenumber': '1894', 'addr:postcode': '13023-100', 'addr:street': 'Avenida Francisco Glicério', 'addr:suburb': 'Vila Itapura', 'brand': 'Sabin', 'brand:wikidata': 'Q97041295', 'healthcare': 'laboratory', 'name': 'Sabin', 'opening_hours': 'Mo-Fr 06:30-17:00; Sa 06:30-12:00', 'phone': '+55 (19) 3733-6577', 'website': 'https://sabin.com.br/'}}"
"{'type': 'node', 'id': 1646829764, 'lat': -23.5657296, 'lon': -46.6493847, 'tags': {'addr:city': 'São Paulo', 'addr:housenumber': '139', 'addr:postcode': '01333-001', 'addr:street': 'Rua São Carlos do Pinhal', 'amenity': 'hospital', 'healthcare': 'hospital', 'name': 'Pró Matre Paulista', 'phone': '+55 11 3269-2233', 'ref:CNES': '3037274', 'ref:vatin': 'BR60678604000202', 'website': 'https://www.promatre.com.br/'}}"
"{'type': 'node', 'id': 1655957540, 'lat': -23.6057531, 'lon': -46.6694274, 'tags': {'addr:city': 'São Paulo', 'addr:country': 'BR', 'addr:housenumber': '1177', 'addr:postcode': '04522-033', 'addr:state': 'SP', 'addr:street': 'Rua Gaivota', 'amenity': 'pharmacy', 'brand': 'Droga Raia', 'brand:wikidata': 'Q10357101', 'brand:wikipedia': 'pt:RaiaDrogasil', 'contact:phone': '+55 11 5044-4654', 'contact:website': 'http://www.drogaraia.com.br/', 'healthcare': 'pharmacy', 'name': 'Droga Raia', 'opening_hours': 'Mo-Su 08:00-24:00'}}"
"{'type': 'node', 'id': 1668167123, 'lat': -23.6869491, 'lon': -46.5351165, 'tags': {'addr:street': 'Estrada João Ducin', 'amenity': 'pharmacy', 'dispensing': 'yes', 'healthcare': 'pharmacy'}}"
"{'type': 'node', 'id': 1669349376, 'lat': -23.6765718, 'lon': -46.5437674, 'tags': {'addr:housenumber': '1830', 'addr:street': 'Rua Caminho do Pilar', 'amenity': 'pharmacy', 'dispensing': 'yes', 'drive_through': 'no', 'healthcare': 'pharmacy', 'mobile': '+55 11 96848 2417', 'name': 'Farmácia Nova Scarpelli'}}"
"{'type': 'node', 'id': 1670800285, 'lat': -22.8984422, 'lon': -47.0525338, 'tags': {'addr:street': 'Rua Coronel Quirino', 'amenity': 'pharmacy', 'brand': 'Drogasil', 'brand:wikidata': 'Q5308185', 'brand:wikipedia': 'pt:Drogasil', 'healthcare': 'pharmacy', 'name': 'Drogasil', 'wheelchair': 'yes'}}"
"{'type': 'node', 'id': 1671277694, 'lat': -23.5903205, 'lon': -46.630429, 'tags': {'addr:city': 'São Paulo', 'addr:country': 'BR', 'addr:housenumber': '32;38;42', 'addr:postcode': '04116-000', 'addr:state': 'SP', 'addr:street': 'Avenida Prefeito Fábio Prado', 'amenity': 'pharmacy', 'brand': 'Drogasil', 'brand:wikidata': 'Q5308185', 'brand:wikipedia': 'pt:Drogasil', 'contact:email': 'atendimento@drogasil.com.br', 'contact:phone': '+55 11 5081-4417;+55 11 5081-3579', 'contact:website': 'http://www.drogasil.com.br/', 'healthcare': 'pharmacy', 'name': 'Drogasil', 'opening_hours': 'Mo-Fr 07:00-23:00;Sa 07:00-23:00;Su 07:00-23:00', 'wheelchair': 'yes'}}"
"{'type': 'node', 'id': 1671285722, 'lat': -23.6023833, 'lon': -46.6149995, 'tags': {'addr:city': 'São Paulo', 'addr:country': 'BR', 'addr:housenumber': '6450;6454', 'addr:postcode': '04272-100', 'addr:state': 'SP', 'addr:street': 'Rua Vergueiro', 'amenity': 'pharmacy', 'brand': 'Drogaria São Paulo', 'brand:wikidata': 'Q5308184', 'brand:wikipedia': 'en:Grupo DPSP', 'contact:phone': '+55 11 5061-4131;+55 11 5061-9632;0800 779 8767', 'contact:website': 'http://www.drogariasaopaulo.com.br', 'dispensing': 'yes', 'drive_through': 'no', 'healthcare': 'pharmacy', 'name': 'Drogaria São Paulo', 'opening_hours': 'Mo-Su 07:00-23:00'}}"
"{'type': 'node', 'id': 1673750219, 'lat': -23.6616861, 'lon': -46.779632, 'tags': {'amenity': 'pharmacy', 'dispensing': 'yes', 'drive_through': 'no', 'healthcare': 'pharmacy'}}"
"{'type': 'node', 'id': 1693998312, 'lat': -23.5696701, 'lon': -46.6134492, 'tags': {'addr:city': 'São Paulo', 'addr:housenumber': '230', 'addr:postcode': '01551-010', 'addr:state': 'SP', 'addr:street': 'Rua Ouvidor Portugal', 'addr:suburb': 'Vila Monumento', 'amenity': 'hospital', 'contact:facebook': 'https://www.facebook.com/exercito', 'contact:flickr': 'https://www.flickr.com/photos/exercitobrasileiro/collections/', 'contact:instagram': 'https://www.instagram.com/exercito_oficial/', 'contact:twitter': 'https://twitter.com/exercitooficial', 'contact:youtube': 'https://www.youtube.com/user/CCSE1982', 'email': 'ofcomsoc@hmasp.eb.mil.br', 'emergency': 'yes', 'fax': '+55 11 2915-1335', 'healthcare': 'hospital', 'military_service': 'army', 'name': 'Hospital Militar de Área de São Paulo', 'opening_hours': 'Mo-Fr 07:00-19:00', 'operator': 'Exército Brasileiro', 'operator:wikidata': 'Q2292358', 'phone': '+55 11 2915-1198;+55 11 2915-1122', 'short_name': 'HMASP', 'start_date': '1920-05-03', 'website': 'https://www.hmasp.eb.mil.br/'}}"
"{'type': 'node', 'id': 1706051636, 'lat': -22.9038236, 'lon': -47.0692667, 'tags': {'amenity': 'pharmacy', 'brand': 'Drogaria São Paulo', 'brand:wikidata': 'Q5308184', 'brand:wikipedia': 'en:Grupo DPSP', 'healthcare': 'pharmacy', 'name': 'Drogaria São Paulo', 'name:pt': 'Drogaria São Paulo'}}"
"{'type': 'node', 'id': 1707858148, 'lat': -23.5406124, 'lon': -46.701797, 'tags': {'amenity': 'pharmacy', 'dispensing': 'não', 'name': 'Drogaverde'}}"
"{'type': 'node', 'id': 1712160685, 'lat': -22.9018901, 'lon': -47.0613501, 'tags': {'amenity': 'doctors', 'healthcare': 'doctor', 'name': 'Policlínica 2'}}"
"{'type': 'node', 'id': 1712160731, 'lat': -22.9031406, 'lon': -47.0535656, 'tags': {'addr:housenumber': '652', 'addr:postcode': '13010-050', 'addr:street': 'Rua Conceição', 'amenity': 'pharmacy', 'brand': 'Drogaria São Paulo', 'brand:wikidata': 'Q5308184', 'brand:wikipedia': 'en:Grupo DPSP', 'healthcare': 'pharmacy', 'name': 'Drogaria São Paulo', 'opening_hours': '24/7', 'phone': '+55 19 32554884', 'website': 'https://www.drogariasaopaulo.com.br/', 'wheelchair': 'yes'}}"
"{'type': 'node', 'id': 1712160732, 'lat': -22.90306, 'lon': -47.0533917, 'tags': {'amenity': 'pharmacy', 'brand': 'Drogasil', 'brand:wikidata': 'Q5308185', 'brand:wikipedia': 'pt:Drogasil', 'healthcare': 'pharmacy', 'name': 'Drogasil', 'website': 'https://www.drogasil.com.br/', 'wheelchair': 'yes'}}"
"{'type': 'node', 'id': 1718847369, 'lat': -23.615233, 'lon': -46.6171682, 'tags': {'addr:city': 'São Paulo', 'addr:country': 'BR', 'addr:housenumber': '2226', 'addr:postcode': '04132-001', 'addr:state': 'SP', 'addr:street': 'Avenida do Cursino', 'amenity': 'pharmacy', 'brand': 'Drogaria São Paulo', 'brand:wikidata': 'Q5308184', 'brand:wikipedia': 'en:Grupo DPSP', 'contact:phone': '+55 11 5058-8198;+55 11 5058-6544;0800 779 8767', 'contact:website': 'http://www.drogariasaopaulo.com.br', 'healthcare': 'pharmacy', 'name': 'Drogaria São Paulo', 'opening_hours': 'Mo-Su 07:00-24:00'}}"
"{'type': 'node', 'id': 1719982548, 'lat': -22.9030683, 'lon': -47.0607106, 'tags': {'amenity': 'pharmacy', 'brand': 'Droga Raia', 'brand:wikidata': 'Q10357101', 'brand:wikipedia': 'pt:RaiaDrogasil', 'healthcare': 'pharmacy', 'name': 'Droga Raia', 'opening_hours': '24/7'}}"
"{'type': 'node', 'id': 1732405945, 'lat': -22.8905486, 'lon': -47.0772144, 'tags': {'addr:city': 'Campinas', 'addr:housenumber': '1117', 'addr:postcode': '13070-711', 'addr:street': 'Avenida Doutor Alberto Sarmento', 'addr:suburb': 'Bonfim', 'amenity': 'pharmacy', 'dispensing': 'no', 'healthcare': 'pharmacy', 'name': 'Nissei', 'phone': '+55 (19) 3500-0705', 'website': 'https://www.farmaciasnissei.com.br'}}"
"{'type': 'node', 'id': 1732406046, 'lat': -22.8902513, 'lon': -47.0775005, 'tags': {'addr:city': 'Campinas', 'addr:housenumber': '2253', 'addr:postcode': '13070-001', 'addr:street': 'Avenida Andrade Neves', 'addr:suburb': 'Jardim Chapadão', 'amenity': 'pharmacy', 'brand': 'Drogasil', 'brand:wikidata': 'Q5308185', 'dispensing': 'no', 'healthcare': 'pharmacy', 'name': 'Drogasil', 'opening_hours': '24/7', 'wheelchair': 'yes'}}"
"{'type': 'node', 'id': 1734559213, 'lat': -22.8885665, 'lon': -47.0609142, 'tags': {'addr:housenumber': '1934', 'addr:street': 'Avenida Barão de Itapura', 'amenity': 'pharmacy', 'dispensing': 'yes', 'healthcare': 'pharmacy', 'name': 'Drogão Super'}}"
"{'type': 'node', 'id': 1734576355, 'lat': -22.8921206, 'lon': -47.0596958, 'tags': {'addr:housenumber': '1057', 'amenity': 'dentist', 'healthcare': 'dentist', 'name': 'Odontologia RM', 'website': 'https://www.odontologiarm.com.br/'}}"
"{'type': 'node', 'id': 1741773158, 'lat': -23.6781348, 'lon': -46.5342805, 'tags': {'addr:street': 'Rua Ibiapava', 'amenity': 'pharmacy', 'dispensing': 'yes', 'drive_through': 'no', 'healthcare': 'pharmacy', 'name': 'Drogaria Paraíso'}}"
"{'type': 'node', 'id': 1741782835, 'lat': -23.6838505, 'lon': -46.5398336, 'tags': {'addr:street': 'Rua Caiubi', 'amenity': 'pharmacy', 'dispensing': 'yes', 'drive_through': 'no', 'healthcare': 'pharmacy', 'name': 'Drogaria Stella'}}"
"{'type': 'node', 'id': 1756560040, 'lat': -22.8973473, 'lon': -47.0806816, 'tags': {'amenity': 'pharmacy', 'healthcare': 'pharmacy', 'name': 'Farma Plus'}}"
"{'type': 'node', 'id': 1756565991, 'lat': -22.8998033, 'lon': -47.0820012, 'tags': {'amenity': 'pharmacy', 'brand': 'Pague Menos', 'brand:wikidata': 'Q7124466', 'brand:wikipedia': 'pt:Pague Menos', 'healthcare': 'pharmacy', 'name': 'Pague Menos'}}"
"{'type': 'node', 'id': 1760047118, 'lat': -23.5590459, 'lon': -46.5680088, 'tags': {'addr:city': 'São Paulo', 'addr:housenumber': '1111', 'addr:postcode': '03342-000', 'addr:street': 'Avenida Regente Feijo', 'amenity': 'pharmacy', 'brand': 'Drogaria São Paulo', 'brand:wikidata': 'Q5308184', 'dispensing': 'no', 'healthcare': 'pharmacy', 'name': 'Drogaria São Paulo', 'opening_hours': '24/7', 'phone': '+55 11 2671-4124', 'website': 'https://www.drogariasaopaulo.com.br/'}}"
"{'type': 'node', 'id': 1760445144, 'lat': -22.9083335, 'lon': -47.0870027, 'tags': {'amenity': 'pharmacy', 'brand': 'Drogasil', 'brand:wikidata': 'Q5308185', 'brand:wikipedia': 'pt:Drogasil', 'healthcare': 'pharmacy', 'name': 'Drogasil', 'operator': 'Drogasil', 'wheelchair': 'yes'}}"
"{'type': 'node', 'id': 1760464606, 'lat': -22.9156069, 'lon': -47.1036967, 'tags': {'amenity': 'pharmacy', 'healthcare': 'pharmacy', 'name': 'Farmaxima'}}"
"{'type': 'node', 'id': 1760464607, 'lat': -22.9183837, 'lon': -47.1080312, 'tags': {'amenity': 'clinic', 'emergency': 'no', 'healthcare': 'clinic', 'name': 'Posto de Saúde Noroeste'}}"
"{'type': 'node', 'id': 1760490095, 'lat': -22.918527, 'lon': -47.1089726, 'tags': {'amenity': 'pharmacy', 'healthcare': 'pharmacy', 'name': 'Droga Marques'}}"
"{'type': 'node', 'id': 1769088979, 'lat': -23.5866859, 'lon': -46.7369291, 'tags': {'addr:city': 'São Paulo', 'addr:country': 'BR', 'addr:housenumber': '340;344;348', 'addr:postcode': '05537-000', 'addr:state': 'SP', 'addr:street': 'Avenida Ministro Laudo Ferreira de Camargo', 'alt_name': 'Droga Raia Peri Peri', 'amenity': 'pharmacy', 'brand': 'Drogaria São Paulo', 'brand:wikidata': 'Q5308184', 'brand:wikipedia': 'en:Grupo DPSP', 'contact:phone': '+55 11 3507-6286', 'contact:website': 'http://www.drogaraia.com.br', 'healthcare': 'pharmacy', 'name': 'Drogaria São Paulo', 'opening_hours': 'Mo-Fr 07:30-23:00; Sa 07:30-23:30; Su 07:30-23:30', 'wheelchair': 'yes'}}"
"{'type': 'node', 'id': 1783880592, 'lat': -23.4767648, 'lon': -46.7034088, 'tags': {'amenity': 'clinic', 'name': 'UBS Vila Progresso'}}"
"{'type': 'node', 'id': 1785442914, 'lat': -23.8908238, 'lon': -46.4203994, 'tags': {'amenity': 'hospital', 'emergency': 'yes', 'healthcare': 'hospital', 'name': 'Pronto Socorro - SAMU', 'operator': 'Prefeitura Municipal de Cubatão', 'operator:type': 'government', 'source': 'Núcleo de Informação e Geoprocessamento - NIG-DVS', 'wheelchair': 'yes'}}"
"{'type': 'node', 'id': 1789132623, 'lat': -23.8910321, 'lon': -46.4215072, 'tags': {'amenity': 'hospital', 'emergency': 'yes', 'healthcare': 'hospital', 'name': 'Pronto Socorro Infantil', 'operator': 'Prefeitura Municipal de Cubatão', 'operator:type': 'government', 'source': 'Núcleo de Informação e Geoprocessamento - NIG - DVS'}}"
"{'type': 'node', 'id': 1789132625, 'lat': -23.8904533, 'lon': -46.4209976, 'tags': {'addr:postcode': '11515-000', 'addr:street': 'Avenida Henry Borden', 'amenity': 'hospital', 'emergency': 'yes', 'healthcare': 'hospital', 'name': 'Hospital Doutor Luiz Camargo da Fonseca e Silva', 'operator': 'Prefeitura Municipal de Cubatão', 'operator:ref:vatin': 'BR47492806000108', 'operator:type': 'government', 'phone': '+55 13 3500 7962', 'ref:CNES': '2078473', 'source': 'Núcleo de Informação e Geoprocessamento - NIG - DVS'}}"
"{'type': 'node', 'id': 1789133042, 'lat': -23.8882756, 'lon': -46.4200964, 'tags': {'amenity': 'hospital', 'healthcare': 'hospital'}}"
"{'type': 'node', 'id': 1793048356, 'lat': -23.6135792, 'lon': -46.6805696, 'tags': {'amenity': 'pharmacy', 'brand': 'Pague Menos', 'brand:wikidata': 'Q7124466', 'brand:wikipedia': 'pt:Pague Menos', 'healthcare': 'pharmacy', 'name': 'Pague Menos', 'operator': 'Pague Menos'}}"
"{'type': 'node', 'id': 1793048357, 'lat': -23.612429, 'lon': -46.6791427, 'tags': {'addr:city': 'São Paulo', 'addr:country': 'BR', 'addr:housenumber': '105', 'addr:postcode': '04560-010', 'addr:state': 'SP', 'addr:street': 'Rua Nebraska', 'amenity': 'pharmacy', 'contact:phone': '+55 11 5535-2061', 'contact:website': 'http://www.drogaraia.com.br', 'opening_hours': '24/7', 'operator': 'Droga Raia'}}"
"{'type': 'node', 'id': 1793048358, 'lat': -23.611504, 'lon': -46.6787135, 'tags': {'addr:city': 'São Paulo', 'addr:country': 'BR', 'addr:housenumber': '107', 'addr:postcode': '04560-020', 'addr:state': 'SP', 'addr:street': 'Rua Lusiânia', 'amenity': 'pharmacy', 'contact:phone': '+55 11 5532-0605;+55 11 5092-2743;0800 779 8767', 'contact:website': 'http://www.drogariasaopaulo.com.br', 'opening_hours': 'Mo-Su 07:00-23:00', 'operator': 'Drogaria São Paulo'}}"
"{'type': 'node', 'id': 1801258705, 'lat': -23.8978191, 'lon': -46.4338984, 'tags': {'addr:street': 'Rua Vinte e Cinco de Dezembro', 'amenity': 'pharmacy', 'healthcare': 'pharmacy', 'name': 'Drogaria Natal'}}"
"{'type': 'node', 'id': 1801259618, 'lat': -23.895867, 'lon': -46.4247064, 'tags': {'amenity': 'pharmacy', 'healthcare': 'pharmacy'}}"
"{'type': 'node', 'id': 1825888973, 'lat': -23.5715039, 'lon': -46.5898328, 'tags': {'amenity': 'pharmacy', 'name': 'Droga Verde'}}"
"{'type': 'node', 'id': 1831563480, 'lat': -23.4636108, 'lon': -46.5604239, 'tags': {'amenity': 'clinic', 'emergency': 'no', 'healthcare': 'clinic', 'name': 'UBS Jardim Vila Galvão'}}"
"{'type': 'node', 'id': 1832543212, 'lat': -23.6265855, 'lon': -46.7364112, 'tags': {'amenity': 'pharmacy'}}"
"{'type': 'node', 'id': 1925448582, 'lat': -23.6229801, 'lon': -46.5371666, 'tags': {'amenity': 'pharmacy', 'healthcare': 'pharmacy', 'name': ""Drogaria Marco's""}}"
"{'type': 'node', 'id': 1925449842, 'lat': -23.6232159, 'lon': -46.5368098, 'tags': {'amenity': 'pharmacy', 'healthcare': 'pharmacy', 'name': 'Drogalar'}}"
"{'type': 'node', 'id': 1975254222, 'lat': -23.5363891, 'lon': -46.6692936, 'tags': {'amenity': 'pharmacy', 'cuisine': 'arab', 'healthcare': 'pharmacy', 'name': 'Panvel'}}"
"{'type': 'node', 'id': 2001023419, 'lat': -23.6176551, 'lon': -46.6053629, 'tags': {'addr:city': 'São Paulo', 'addr:country': 'BR', 'addr:housenumber': '8923', 'addr:postcode': '04273-200', 'addr:state': 'SP', 'addr:street': 'Rua Vergueiro', 'amenity': 'pharmacy', 'brand': 'Droga Raia', 'brand:wikidata': 'Q10357101', 'brand:wikipedia': 'pt:RaiaDrogasil', 'contact:phone': '+55 11 2083-2280', 'contact:website': 'http://www.drogaraia.com.br/', 'dispensing': 'yes', 'drive_through': 'no', 'healthcare': 'pharmacy', 'name': 'Droga Raia', 'opening_hours': 'Mo-Su 08:00-24:00'}}"
"{'type': 'node', 'id': 2012313400, 'lat': -22.9196498, 'lon': -47.1040642, 'tags': {'amenity': 'pharmacy', 'healthcare': 'pharmacy', 'name': 'Medfarma'}}"
"{'type': 'node', 'id': 2057958386, 'lat': -23.5878276, 'lon': -46.6429526, 'tags': {'amenity': 'pharmacy', 'healthcare': 'pharmacy'}}"
"{'type': 'node', 'id': 2061038427, 'lat': -23.9755429, 'lon': -46.3101844, 'tags': {'amenity': 'hospital', 'emergency': 'no', 'healthcare': 'hospital', 'name': 'Policlínica de Aparecida'}}"
"{'type': 'node', 'id': 2061594769, 'lat': -23.9622986, 'lon': -46.3234714, 'tags': {'addr:housenumber': '625', 'addr:postcode': '11045-002', 'addr:street': 'Avenida Conselheiro Nébias', 'addr:suburb': 'Boqueirão', 'amenity': 'hospital', 'emergency': 'yes', 'healthcare': 'hospital', 'name': 'Casa de Saúde de Santos', 'ref:CNES': '109533', 'ref:vatin': 'BR18290268000332'}}"
"{'type': 'node', 'id': 2061594770, 'lat': -23.9574214, 'lon': -46.3335508, 'tags': {'amenity': 'hospital', 'healthcare': 'hospital', 'name': 'Hospital Ana Costa'}}"
"{'type': 'node', 'id': 2062380070, 'lat': -23.9774782, 'lon': -46.3121095, 'tags': {'addr:city': 'Santos', 'addr:housenumber': '387', 'addr:postcode': '11045-301', 'addr:street': 'Avenida Doutor Epitácio Pessoa', 'addr:suburb': 'Aparecida', 'amenity': 'pharmacy', 'brand': 'Drogasil', 'brand:wikidata': 'Q5308185', 'brand:wikipedia': 'pt:Drogasil', 'healthcare': 'pharmacy', 'name': 'Drogasil', 'phone': '+55 13 3227-2971', 'wheelchair': 'yes'}}"
"{'type': 'node', 'id': 2062380072, 'lat': -23.9779123, 'lon': -46.311892, 'tags': {'addr:city': 'Santos', 'addr:housenumber': '372', 'addr:postcode': '11030-600', 'addr:street': 'Avenida Doutor Epitácio Pessoa', 'addr:suburb': 'Aparecida', 'amenity': 'pharmacy', 'healthcare': 'pharmacy', 'name': 'Poupafarma', 'phone': '+55 13 3227-3998'}}"
"{'type': 'node', 'id': 2062380095, 'lat': -23.9774332, 'lon': -46.312181, 'tags': {'addr:city': 'Santos', 'addr:housenumber': '385', 'addr:street': 'Avenida Doutor Epitácio Pessoa', 'addr:suburb': 'Aparecida', 'amenity': 'pharmacy', 'healthcare': 'pharmacy', 'name': 'Rosa Gálica', 'phone': '+55 13 3271-1177'}}"
"{'type': 'node', 'id': 2062518724, 'lat': -23.9767953, 'lon': -46.3009252, 'tags': {'amenity': 'pharmacy', 'healthcare': 'pharmacy'}}"
"{'type': 'node', 'id': 2062521550, 'lat': -23.9713008, 'lon': -46.3085798, 'tags': {'amenity': 'pharmacy', 'healthcare': 'pharmacy'}}"
"{'type': 'node', 'id': 2062521554, 'lat': -23.9684897, 'lon': -46.3064019, 'tags': {'amenity': 'pharmacy', 'brand': 'Drogasil', 'brand:wikidata': 'Q5308185', 'brand:wikipedia': 'pt:Drogasil', 'healthcare': 'pharmacy', 'name': 'Drogasil', 'wheelchair': 'yes'}}"
"{'type': 'node', 'id': 2062522731, 'lat': -23.9735582, 'lon': -46.3052431, 'tags': {'amenity': 'pharmacy', 'healthcare': 'pharmacy'}}"
"{'type': 'node', 'id': 2062560694, 'lat': -23.9834733, 'lon': -46.3072708, 'tags': {'amenity': 'pharmacy', 'healthcare': 'pharmacy'}}"
"{'type': 'node', 'id': 2066388055, 'lat': -23.5718111, 'lon': -46.5105882, 'tags': {'amenity': 'pharmacy', 'name': 'Farmais'}}"
"{'type': 'node', 'id': 2067231427, 'lat': -23.9750432, 'lon': -46.3035055, 'tags': {'amenity': 'pharmacy', 'brand': 'Farma Conde', 'brand:wikidata': 'Q100492677', 'healthcare': 'pharmacy', 'name': 'Farma Conde'}}"
"{'type': 'node', 'id': 2067285758, 'lat': -23.9632301, 'lon': -46.3195124, 'tags': {'amenity': 'hospital', 'emergency': 'yes', 'healthcare': 'hospital', 'name': 'Pronto Socorro Guilherme Álvaro'}}"
"{'type': 'node', 'id': 2069209890, 'lat': -23.9659701, 'lon': -46.3165296, 'tags': {'addr:street': 'Avenida Doutor Pedro Lessa', 'amenity': 'pharmacy', 'healthcare': 'pharmacy', 'name': 'Poupafarma'}}"
"{'type': 'node', 'id': 2101669666, 'lat': -23.7298146, 'lon': -46.4841818, 'tags': {'addr:city': 'Santo André', 'addr:housenumber': '12', 'addr:postcode': '09134-180', 'addr:street': 'Rua Guariba', 'addr:suburb': 'Recreio da Borda do Campo', 'amenity': 'clinic', 'emergency': 'no', 'healthcare': 'clinic', 'healthcare:speciality': 'general;dentist;community', 'name': 'USF Recreio da Borda do Campo', 'opening_hours': 'Mo-Su 08:00-21:00', 'operator': 'Prefeitura de Santo André', 'operator:type': 'public'}}"
"{'type': 'node', 'id': 2104364972, 'lat': -23.5479934, 'lon': -46.7763302, 'tags': {'amenity': 'pharmacy'}}"
"{'type': 'node', 'id': 2129227641, 'lat': -23.7832947, 'lon': -46.7124629, 'tags': {'addr:city': 'São Paulo', 'addr:housenumber': '29', 'addr:postcode': '04865-170', 'addr:street': 'Rua Forte de Vila Bela', 'addr:suburb': 'Jardim Iporã', 'amenity': 'clinic', 'healthcare': 'clinic', 'healthcare:speciality': 'vaccination', 'name': 'UBS Jardim Iporã', 'opening_hours': 'Mo-Fr 07:00-19:00; PH off', 'phone': '+55 11 5922 3053'}}"
"{'type': 'node', 'id': 2211888603, 'lat': -23.4167704, 'lon': -47.4146855, 'tags': {'amenity': 'hospital', 'emergency': 'yes', 'healthcare': 'hospital', 'name': 'Pronto Atendimento'}}"
"{'type': 'node', 'id': 2213998923, 'lat': -23.4199307, 'lon': -47.4166864, 'tags': {'amenity': 'pharmacy', 'healthcare': 'pharmacy'}}"
"{'type': 'node', 'id': 2214016434, 'lat': -23.4228448, 'lon': -47.4128938, 'tags': {'amenity': 'pharmacy', 'healthcare': 'pharmacy'}}"
"{'type': 'node', 'id': 2214016441, 'lat': -23.423086, 'lon': -47.4126202, 'tags': {'amenity': 'pharmacy', 'healthcare': 'pharmacy'}}"
"{'type': 'node', 'id': 2214016453, 'lat': -23.4185573, 'lon': -47.4142832, 'tags': {'amenity': 'pharmacy', 'healthcare': 'pharmacy'}}"
"{'type': 'node', 'id': 2288340570, 'lat': -23.7384746, 'lon': -46.6862765, 'tags': {'amenity': 'pharmacy', 'healthcare': 'pharmacy', 'name': 'Droga Mix'}}"
"{'type': 'node', 'id': 2288344805, 'lat': -23.7370014, 'lon': -46.693497, 'tags': {'amenity': 'pharmacy', 'healthcare': 'pharmacy', 'name': 'Droga Mix', 'wheelchair': 'no'}}"
"{'type': 'node', 'id': 2295260065, 'lat': -23.7108929, 'lon': -46.6992052, 'tags': {'addr:city': 'São Paulo', 'addr:country': 'BR', 'addr:housenumber': '1072', 'addr:postcode': '04801-000', 'addr:state': 'SP', 'addr:street': 'Avenida Senador Teotônio Vilela', 'amenity': 'pharmacy', 'brand': 'Drogaria São Paulo', 'brand:wikidata': 'Q5308184', 'brand:wikipedia': 'en:Grupo DPSP', 'contact:phone': '+55 11 5666-1123;+55 11 5666-7631;0800 779 8767', 'contact:website': 'http://www.drogariasaopaulo.com.br', 'healthcare': 'pharmacy', 'name': 'Drogaria São Paulo', 'opening_hours': '24/7'}}"
"{'type': 'node', 'id': 2332552339, 'lat': -23.4828841, 'lon': -46.4898072, 'tags': {'amenity': 'pharmacy'}}"
"{'type': 'node', 'id': 2332595646, 'lat': -23.4822427, 'lon': -46.4931264, 'tags': {'amenity': 'clinic', 'name': 'UBS Jardim Keralux'}}"
"{'type': 'node', 'id': 2343727139, 'lat': -23.1144294, 'lon': -46.9650815, 'tags': {'amenity': 'clinic', 'name': 'Posto de Saúde'}}"
"{'type': 'node', 'id': 2363171081, 'lat': -23.5727933, 'lon': -46.7610931, 'tags': {'amenity': 'clinic', 'emergency': 'no', 'name': 'Unidade Básica de Saúde Doutor José Marcilio Malta Cardoso', 'short_name': 'UBS Doutor José Marcilio Malta Cardoso'}}"
"{'type': 'node', 'id': 2421036952, 'lat': -23.6092716, 'lon': -46.6382359, 'tags': {'addr:city': 'São Paulo', 'addr:country': 'BR', 'addr:housenumber': '586;592', 'addr:postcode': '04046-000', 'addr:state': 'SP', 'addr:street': 'Avenida Jabaquara', 'amenity': 'pharmacy', 'brand': 'Drogasil', 'brand:wikidata': 'Q5308185', 'brand:wikipedia': 'pt:Drogasil', 'contact:email': 'atendimento@drogasil.com.br', 'contact:phone': '+55 11 5584-6575;+55 11 5078-6323', 'contact:website': 'http://www.drogasil.com.br/', 'healthcare': 'pharmacy', 'name': 'Drogasil', 'opening_hours': '24/7', 'wheelchair': 'yes'}}"
"{'type': 'node', 'id': 2424158771, 'lat': -23.8843444, 'lon': -46.4219174, 'tags': {'addr:housenumber': '267', 'addr:postcode': '11510-030', 'addr:street': 'Rua Manoel Jorge', 'addr:suburb': 'Centro', 'amenity': 'hospital', 'emergency': 'no', 'healthcare': 'hospital', 'name': 'Departamento de Vigilância à Saúde', 'operator:ref:vatin': 'BR47492806000108', 'phone': '+55 (13) 3362-0949', 'ref:CNES': '2072793', 'source': 'Núcleo de Informação e Geoprocessamento - DVS', 'wheelchair': 'no'}}"
"{'type': 'node', 'id': 2427939408, 'lat': -23.4368487, 'lon': -46.7189448, 'tags': {'amenity': 'pharmacy'}}"
"{'type': 'node', 'id': 2427990379, 'lat': -23.4495946, 'lon': -46.7351232, 'tags': {'amenity': 'pharmacy'}}"
"{'type': 'node', 'id': 2428025781, 'lat': -23.4838322, 'lon': -46.8592055, 'tags': {'amenity': 'pharmacy'}}"
"{'type': 'node', 'id': 2429299903, 'lat': -23.9885741, 'lon': -46.3005306, 'tags': {'amenity': 'pharmacy', 'brand': 'Drogaria São Paulo', 'brand:wikidata': 'Q5308184', 'brand:wikipedia': 'en:Grupo DPSP', 'healthcare': 'pharmacy', 'name': 'Drogaria São Paulo', 'wheelchair': 'yes'}}"
"{'type': 'node', 'id': 2441430768, 'lat': -23.9674743, 'lon': -46.3761485, 'tags': {'addr:housenumber': '182', 'addr:postcode': '11320-070', 'addr:street': 'Rua Benedito Calixto', 'amenity': 'dentist', 'emergency': 'yes', 'healthcare': 'dentist', 'name': 'Maximplante Clinica de Implantes Dentários', 'website': 'http://maximplante.com.br'}}"
"{'type': 'node', 'id': 2471295064, 'lat': -23.4775689, 'lon': -46.5686595, 'tags': {'addr:city': 'São Paulo', 'addr:housenumber': '1197', 'addr:postcode': '02229-001', 'addr:street': 'Avenida Edú Chaves', 'amenity': 'clinic', 'emergency': 'no', 'healthcare': 'clinic', 'name': 'Unidade Básica de Saúde Parque Edu Chaves', 'operator:ref:vatin': 'BR46392130000380', 'ref:CNES': '2788306', 'short_name': 'UBS Parque Edu Chaves'}}"
"{'type': 'node', 'id': 2471300600, 'lat': -23.4747861, 'lon': -46.5805599, 'tags': {'addr:city': 'São Paulo', 'addr:housenumber': '222', 'addr:postcode': '02258-220', 'addr:street': 'Rua São Geraldino', 'amenity': 'clinic', 'email': 'zn.supervisorubsjacana@sbcdsaude.org.br', 'emergency': 'no', 'healthcare': 'clinic', 'name': 'UBS Jaçanã - Doutor Sebastiao Gabriel Sayago de Laet', 'operator:ref:vatin': 'BR46392130000380', 'phone': '+55 11 2240 0065', 'ref:CNES': '2787962'}}"
"{'type': 'node', 'id': 2471306337, 'lat': -23.4706264, 'lon': -46.5783056, 'tags': {'addr:city': 'São Paulo', 'addr:housenumber': '681', 'addr:postcode': '02259-001', 'addr:street': 'Avenida Francisco Rodrigues', 'amenity': 'clinic', 'emergency': 'no', 'healthcare': 'clinic', 'name': 'CAPS Adulto Jaçanã Doutor Leonildo Galvão dos Santos', 'operator:ref:vatin': 'BR46392130000380', 'ref:CNES': '2068133'}}"
"{'type': 'node', 'id': 2472886599, 'lat': -23.3196389, 'lon': -46.5864776, 'tags': {'amenity': 'pharmacy', 'dispensing': 'no', 'name': 'Farmácia Popular'}}"
"{'type': 'node', 'id': 2494728052, 'lat': -23.5331751, 'lon': -46.5273268, 'tags': {'amenity': 'hospital', 'emergency': 'yes', 'healthcare': 'hospital', 'name': 'Hospital São Carlos'}}"
"{'type': 'node', 'id': 2529920267, 'lat': -23.5767391, 'lon': -46.6639051, 'tags': {'addr:city': 'São Paulo', 'addr:housenumber': '350', 'addr:street': 'Avenida Brasil', 'amenity': 'doctors', 'healthcare': 'doctor'}}"
"{'type': 'node', 'id': 2532734951, 'lat': -23.6176164, 'lon': -46.6392034, 'tags': {'addr:city': 'São Paulo', 'addr:housenumber': '1526', 'addr:street': 'Avenida Jabaquara', 'addr:suburb': 'Saúde', 'amenity': 'pharmacy', 'brand': 'Farma Conde', 'brand:wikidata': 'Q100492677', 'healthcare': 'pharmacy', 'name': 'Farma Conde'}}"
"{'type': 'node', 'id': 2532735389, 'lat': -23.6175359, 'lon': -46.6391858, 'tags': {'addr:city': 'São Paulo', 'addr:housenumber': '1524', 'addr:street': 'Avenida Jabaquara', 'addr:suburb': 'Saúde', 'amenity': 'pharmacy', 'healthcare': 'pharmacy', 'name': 'Ultrafarma'}}"
"{'type': 'node', 'id': 2538305431, 'lat': -23.4932356, 'lon': -46.7250762, 'tags': {'amenity': 'hospital', 'emergency': 'no'}}"
"{'type': 'node', 'id': 2553398176, 'lat': -23.6946606, 'lon': -46.5681706, 'tags': {'addr:city': 'São Bernardo do Campo', 'addr:country': 'BR', 'addr:housename': 'Lj 1', 'addr:housenumber': '471', 'addr:postcode': '09890-001', 'addr:street': 'Avenida Álvaro Guimarães', 'addr:suburb': 'Planalto', 'amenity': 'pharmacy', 'contact:mobile': '+55 11 97415 4214', 'contact:phone': '+55 114393 0309', 'dispensing': 'yes', 'drive_through': 'no', 'healthcare': 'pharmacy', 'name': 'Drogaria SP', 'opening_hours': 'Mo-Su,PH 07:00-23:00', 'phone': '+55 11 4393 0316', 'website': 'https://www.drogariasaopaulo.com.br/index.php', 'wheelchair': 'yes'}}"
"{'type': 'node', 'id': 2584095257, 'lat': -23.5240354, 'lon': -46.6063944, 'tags': {'amenity': 'pharmacy', 'dispensing': 'yes', 'drive_through': 'no', 'healthcare': 'pharmacy', 'name': 'Droga Mais', 'opening_hours': 'Mo-Su 09:00-20:00'}}"
"{'type': 'node', 'id': 2584175846, 'lat': -23.5268525, 'lon': -46.6072545, 'tags': {'addr:city': 'São Paulo', 'addr:housenumber': '1404', 'addr:postcode': '03026-001', 'addr:street': 'Rua Silva Teles', 'amenity': 'pharmacy', 'name': 'Farmacia Silva Teles', 'opening_hours': 'Mo-Sa 09:00-07:00'}}"
"{'type': 'node', 'id': 2589636856, 'lat': -23.6179043, 'lon': -46.6388973, 'tags': {'addr:city': 'São Paulo', 'addr:housenumber': '1545', 'addr:postcode': '04045-002', 'addr:street': 'Avenida Jabaquara', 'amenity': 'pharmacy', 'brand': 'Farma Conde', 'brand:wikidata': 'Q100492677', 'healthcare': 'pharmacy', 'name': 'Farma Conde'}}"
"{'type': 'node', 'id': 2598613707, 'lat': -23.600181, 'lon': -46.5133578, 'tags': {'addr:housenumber': '12', 'addr:street': 'Rua Alexandre Galera', 'amenity': 'pharmacy', 'name': 'Drogaria Massao'}}"
"{'type': 'node', 'id': 2599660607, 'lat': -23.6968965, 'lon': -46.5816939, 'tags': {'addr:city': 'São Bernardo do Campo', 'addr:housenumber': '460', 'addr:postcode': '09861-160', 'addr:street': 'Avenida Moinho Fabrini', 'addr:suburb': 'Jardim Brasília', 'amenity': 'pharmacy', 'dispensing': 'yes', 'drive_through': 'no', 'healthcare': 'pharmacy', 'name': 'Farmárcia Fabrini'}}"
"{'type': 'node', 'id': 2631277923, 'lat': -23.4867366, 'lon': -46.6056169, 'tags': {'addr:city': 'São Paulo', 'addr:housenumber': '3466', 'addr:postcode': '02242-001', 'addr:street': 'Avenida General Ataliba Leonel', 'amenity': 'pharmacy', 'dispensing': 'yes', 'drive_through': 'no', 'healthcare': 'pharmacy', 'name': 'Drogaria Vera Cruz'}}"
"{'type': 'node', 'id': 2632416318, 'lat': -23.5284207, 'lon': -46.7020815, 'tags': {'amenity': 'pharmacy'}}"
"{'type': 'node', 'id': 2632416391, 'lat': -23.5277954, 'lon': -46.7039368, 'tags': {'addr:city': 'São Paulo', 'addr:housenumber': '102', 'addr:postcode': '05050-060', 'addr:street': 'Praça Cívica', 'amenity': 'pharmacy', 'healthcare': 'pharmacy', 'name': 'Farma Civica'}}"
"{'type': 'node', 'id': 2657386764, 'lat': -23.1960062, 'lon': -46.8897467, 'tags': {'addr:city': 'Jundiaí', 'addr:housenumber': '2606', 'addr:street': 'Avenida Nove de Julho', 'amenity': 'clinic', 'healthcare': 'clinic', 'name': 'Renova Pele', 'website': 'http://www.renovapele.com.br/'}}"
"{'type': 'node', 'id': 2684571405, 'lat': -23.5923241, 'lon': -46.8366708, 'tags': {'amenity': 'clinic', 'name': 'Delboni', 'opening_hours': 'Mo-Fr 06:00-19:00; Sa 06:00-13:00; Su off', 'website': 'https://www.delboniauriemo.com.br/unidades/visualizar/granja-viana'}}"
"{'type': 'node', 'id': 2684571406, 'lat': -23.5925028, 'lon': -46.8367198, 'tags': {'addr:city': 'Cotia', 'addr:postcode': '06709-015', 'addr:street': 'Rua Ushima Kira', 'amenity': 'pharmacy', 'brand': 'Droga Raia', 'brand:wikidata': 'Q10357101', 'brand:wikipedia': 'pt:RaiaDrogasil', 'healthcare': 'pharmacy', 'name': 'Droga Raia', 'opening_hours': 'Mo-Sa 08:00-22:00', 'website': 'https://www.drogaraia.com.br/'}}"
"{'type': 'node', 'id': 2724383123, 'lat': -23.7019488, 'lon': -46.5708027, 'tags': {'addr:city': 'São Bernardo do Campo', 'addr:country': 'BR', 'addr:housenumber': '29', 'addr:postcode': '09895-595', 'addr:street': 'Rua Alfredo Calux', 'addr:suburb': 'Jardim Calux', 'amenity': 'pharmacy', 'contact:phone': '+55 11 4341 7602', 'dispensing': 'yes', 'drive_through': 'no', 'healthcare': 'pharmacy', 'name': 'Droga Calux', 'phone': '+55 11 4399 1234'}}"
"{'type': 'node', 'id': 2750991242, 'lat': -23.778137, 'lon': -46.5301296, 'tags': {'addr:city': 'São Bernardo do Campo', 'addr:housenumber': '175', 'addr:postcode': '09830-110', 'addr:street': 'Avenida Araguaia', 'addr:suburb': 'Riacho Grande', 'amenity': 'pharmacy', 'dispensing': 'yes', 'drive_through': 'no', 'healthcare': 'pharmacy', 'name': 'Paris Pharma Drogaria', 'phone': '+55 11 4354 7452'}}"
"{'type': 'node', 'id': 2762653462, 'lat': -23.5541379, 'lon': -46.6042885, 'tags': {'addr:city': 'São Paulo', 'addr:housenumber': '182', 'addr:postcode': '03112-100', 'addr:street': 'Rua Javari', 'amenity': 'hospital', 'healthcare': 'hospital', 'name': 'Hospital Alemão Oswald Cruz', 'phone': '+55 11 2081-6400', 'ref:CNES': '7213425', 'ref:vatin': 'BR60726502000398', 'website': 'http://www.hospitalalemao.org.br/sustentabilidade_social/Paginas/UnidadeAmbulatorialSustentabilidadeSocial.aspx'}}"
"{'type': 'node', 'id': 2780620015, 'lat': -23.503142, 'lon': -46.4839706, 'tags': {'addr:city': 'São Paulo', 'addr:housenumber': '764', 'addr:postcode': '03801-000', 'addr:street': 'Rua Paulo Bifano Alves', 'addr:suburb': 'Ermelino Matarazzo', 'amenity': 'clinic', 'building': 'public', 'building:levels': '1', 'healthcare': 'clinic', 'name': 'Posto de Saúde - Ubs Pedro de Souza Campos', 'operator:ref:vatin': 'BR46392130000380', 'phone': '+55 11 2546 4111', 'ref:CNES': '4050002', 'smoking': 'outside'}}"
"{'type': 'node', 'id': 2795285665, 'lat': -23.5810268, 'lon': -46.6430726, 'tags': {'amenity': 'pharmacy', 'healthcare': 'pharmacy'}}"
"{'type': 'node', 'id': 2795285666, 'lat': -23.5787605, 'lon': -46.6408867, 'tags': {'addr:city': 'São Paulo', 'addr:country': 'BR', 'addr:housenumber': '173', 'addr:postcode': '04009-000', 'addr:state': 'SP', 'addr:street': 'Rua Domingos de Morais', 'amenity': 'pharmacy', 'brand': 'Drogasil', 'brand:wikidata': 'Q5308185', 'brand:wikipedia': 'pt:Drogasil', 'contact:phone': '+55 11 5571-2925;+55 11 5579-6554;0800 779 8767', 'contact:website': 'http://www.drogasil.com.br/', 'healthcare': 'pharmacy', 'name': 'Drogasil', 'opening_hours': '24/7', 'wheelchair': 'yes'}}"
"{'type': 'node', 'id': 2800344793, 'lat': -22.8783214, 'lon': -47.0441444, 'tags': {'addr:city': 'Campinas', 'addr:housenumber': '1318', 'addr:postcode': '13076-000', 'addr:street': 'Avenida Nossa Senhora de Fátima', 'amenity': 'pharmacy', 'brand': 'Drogasil', 'brand:wikidata': 'Q5308185', 'brand:wikipedia': 'pt:Drogasil', 'healthcare': 'pharmacy', 'name': 'Drogasil', 'wheelchair': 'yes'}}"
"{'type': 'node', 'id': 2800346733, 'lat': -22.8782596, 'lon': -47.0445548, 'tags': {'addr:city': 'Campinas', 'addr:housenumber': '1287', 'addr:postcode': '13076-000', 'addr:street': 'Avenida Nossa Senhora de Fátima', 'amenity': 'pharmacy', 'brand': 'Drogaria São Paulo', 'brand:wikidata': 'Q5308184', 'brand:wikipedia': 'en:Grupo DPSP', 'healthcare': 'pharmacy', 'name': 'Drogaria São Paulo', 'phone': '+55 19 3295-9058'}}"
"{'type': 'node', 'id': 2805083502, 'lat': -22.8789329, 'lon': -47.0363191, 'tags': {'addr:city': 'Campinas', 'addr:housenumber': '71', 'addr:postcode': '13091-133', 'addr:street': 'Avenida Palmital', 'addr:suburb': 'Jardim Flamboyant', 'amenity': 'pharmacy', 'healthcare': 'pharmacy', 'name': 'Multidrogas', 'phone': '+55 (19) 3201-7303', 'website': 'https://redemultidrogas.com.br/'}}"
"{'type': 'node', 'id': 2815876104, 'lat': -23.5791407, 'lon': -46.6445231, 'tags': {'amenity': 'dentist', 'healthcare': 'dentist', 'name': 'Dra. Ilka Nagasawa', 'wheelchair': 'no'}}"
"{'type': 'node', 'id': 2817015282, 'lat': -23.9831978, 'lon': -46.2675032, 'tags': {'amenity': 'clinic', 'emergency': 'yes', 'healthcare': 'clinic', 'name': 'UPA Rodoviária', 'operator': 'Prefeitura de Guarujá', 'operator:type': 'public', 'short_name': 'UPA Vicente de Carvalho'}}"
"{'type': 'node', 'id': 2817039303, 'lat': -23.9751244, 'lon': -46.3155542, 'tags': {'amenity': 'pharmacy', 'healthcare': 'pharmacy', 'name': 'Poupa Farma'}}"
"{'type': 'node', 'id': 2833502754, 'lat': -23.538142, 'lon': -46.4064776, 'tags': {'addr:city': 'São Paulo', 'addr:housenumber': '38', 'addr:postcode': '08451-000', 'addr:street': 'Estrada do Lageado Velho', 'amenity': 'pharmacy', 'name': 'Droga Leste', 'opening_hours': '24/7', 'operator': 'Rede Droga Leste'}}"
"{'type': 'node', 'id': 2865658285, 'lat': -23.6978496, 'lon': -46.5782236, 'tags': {'addr:city': 'São Bernardo do Campo', 'addr:housenumber': '842', 'addr:street': 'Avenida Robert Kennedy', 'amenity': 'pharmacy', 'email': 'drograiadeville@bol.com.br', 'healthcare': 'pharmacy', 'name': 'Drogaria Deville', 'phone': '+55 11 4392 5380;+55 11 4343 4486'}}"
"{'type': 'node', 'id': 2903393694, 'lat': -23.9672494, 'lon': -46.3336359, 'tags': {'addr:city': 'Santos', 'addr:street': 'Avenida Marechal Floriano Peixoto', 'amenity': 'pharmacy', 'brand': 'Droga Raia', 'brand:wikidata': 'Q10357101', 'brand:wikipedia': 'pt:RaiaDrogasil', 'healthcare': 'pharmacy', 'name': 'Droga Raia', 'source': 'survey'}}"
"{'type': 'node', 'id': 2903463762, 'lat': -23.9686874, 'lon': -46.3332118, 'tags': {'addr:city': 'Santos', 'addr:postcode': '11060-002', 'addr:street': 'Avenida Anna Costa', 'amenity': 'pharmacy', 'brand': 'Drogasil', 'brand:wikidata': 'Q5308185', 'brand:wikipedia': 'pt:Drogasil', 'check_date': '2024-03-30', 'healthcare': 'pharmacy', 'name': 'Drogasil', 'wheelchair': 'yes'}}"
"{'type': 'node', 'id': 2948540618, 'lat': -23.9341863, 'lon': -46.7457214, 'tags': {'amenity': 'clinic', 'healthcare': 'clinic', 'name': 'UBS Dom Luciano Bergamin'}}"
"{'type': 'node', 'id': 3013746086, 'lat': -23.787721, 'lon': -46.5361436, 'tags': {'addr:city': 'São Bernardo do Campo', 'addr:street': 'Rua Rio Acima', 'addr:suburb': 'Finco', 'amenity': 'pharmacy', 'dispensing': 'yes', 'drive_through': 'no', 'healthcare': 'pharmacy', 'name': 'Drogaria São Vicente', 'phone': '+55 11 4354 0433'}}"
"{'type': 'node', 'id': 3046163092, 'lat': -23.5566214, 'lon': -46.6604206, 'tags': {'addr:city': 'São Paulo', 'addr:country': 'BR', 'addr:housenumber': '378', 'addr:postcode': '01414-000', 'addr:state': 'SP', 'addr:street': 'Rua Haddock Lobo', 'addr:suburb': 'Consolação', 'amenity': 'pharmacy', 'brand': 'Droga Raia', 'brand:wikidata': 'Q10357101', 'brand:wikipedia': 'pt:RaiaDrogasil', 'contact:phone': '+55 11 3256-2609', 'contact:website': 'http://www.drogaraia.com.br', 'healthcare': 'pharmacy', 'name': 'Droga Raia', 'opening_hours': 'Mo-Su 07:00-23:00'}}"
"{'type': 'node', 'id': 3050813623, 'lat': -23.9434409, 'lon': -46.3774478, 'tags': {'amenity': 'hospital', 'name': 'Hospital Zona Noroeste'}}"
"{'type': 'node', 'id': 3052872956, 'lat': -23.7181443, 'lon': -46.5616808, 'tags': {'addr:city': 'São Bernardo do Campo', 'addr:street': 'Rua Luis de Gois', 'amenity': 'dentist', 'healthcare': 'dentist', 'name': 'Vittá Ortodontia', 'phone': '+55 11 4356 6656'}}"
"{'type': 'node', 'id': 3056286708, 'lat': -23.7794119, 'lon': -46.5305867, 'tags': {'addr:city': 'São Bernardo do Campo', 'addr:housenumber': '27', 'addr:street': ""Rua Sofia D'Angelo Caputo"", 'addr:suburb': 'Riacho Grande', 'amenity': 'pharmacy', 'dispensing': 'yes', 'drive_through': 'no', 'healthcare': 'pharmacy', 'name': 'Drogaria Riacho Grande', 'phone': '+55 11 4354 0222'}}"
"{'type': 'node', 'id': 3101426998, 'lat': -23.9827714, 'lon': -46.3010157, 'tags': {'addr:city': 'Santos', 'addr:housenumber': '101', 'addr:street': 'Avenida Dino Bueno', 'addr:suburb': 'Ponta da Praia', 'amenity': 'pharmacy', 'healthcare': 'pharmacy', 'name': 'Poupafarma', 'wheelchair': 'limited'}}"
"{'type': 'node', 'id': 3106310693, 'lat': -23.963351, 'lon': -46.3200297, 'tags': {'amenity': 'hospital', 'healthcare': 'hospital', 'name': 'Rede Hebe Camargo de Combate ao Câncer'}}"
"{'type': 'node', 'id': 3190924425, 'lat': -23.6612126, 'lon': -46.5327726, 'tags': {'amenity': 'pharmacy', 'brand': 'Drogaria São Paulo', 'brand:wikidata': 'Q5308184', 'brand:wikipedia': 'en:Grupo DPSP', 'dispensing': 'no', 'healthcare': 'pharmacy', 'name': 'Drogaria São Paulo'}}"
"{'type': 'node', 'id': 3203462941, 'lat': -23.7211449, 'lon': -46.5812097, 'tags': {'addr:city': 'São Bernardo do Campo', 'addr:housenumber': '3634', 'addr:postcode': '09850-305', 'addr:street': 'Avenida Humberto Alencar Castelo Branco', 'addr:suburb': 'Parque Neide', 'amenity': 'pharmacy', 'brand': 'Drogaria São Paulo', 'brand:wikidata': 'Q5308184', 'brand:wikipedia': 'en:Grupo DPSP', 'contact:phone': '+55 11 4352-5014;+55 11 4351-4506;0800 779 8767', 'contact:website': 'http://www.drogariasaopaulo.com.br', 'dispensing': 'yes', 'healthcare': 'pharmacy', 'name': 'Drogaria São Paulo'}}"
"{'type': 'node', 'id': 3205315748, 'lat': -23.7186048, 'lon': -46.5608777, 'tags': {'addr:city': 'São Bernardo do Campo', 'addr:housenumber': '250', 'addr:street': 'Avenida João Firmino', 'addr:suburb': 'Assunção', 'amenity': 'clinic', 'healthcare': 'clinic', 'healthcare:speciality': 'hemodialysis', 'name': 'Centro de Diálise e Transplantes do ABC', 'short_name': 'CDT'}}"
"{'type': 'node', 'id': 3216227535, 'lat': -23.6629229, 'lon': -46.5245902, 'tags': {'amenity': 'dentist', 'healthcare': 'dentist'}}"
"{'type': 'node', 'id': 3228473925, 'lat': -23.6666607, 'lon': -46.7365588, 'tags': {'amenity': 'clinic', 'name': 'Unidade Básica de Saúde Jardim Ibirapuera', 'short_name': 'UBS Jardim Ibirapuera'}}"
"{'type': 'node', 'id': 3228473926, 'lat': -23.6608106, 'lon': -46.7438187, 'tags': {'addr:city': 'São Paulo', 'amenity': 'clinic', 'name': 'AMA Jardim São Luís', 'short_name': 'AMA/AME Jardim São Luís'}}"
"{'type': 'node', 'id': 3235416671, 'lat': -22.9649999, 'lon': -47.1341389, 'tags': {'addr:city': 'Campinas', 'addr:housenumber': '723', 'addr:postcode': '13054105', 'addr:street': 'Av suaçuna', 'addr:suburb': 'VILA AEROPORTO', 'amenity': 'clinic', 'healthcare': 'clinic', 'name': 'Odonto Ouro Verde', 'phone': '+55 19 3306 2050'}}"
"{'type': 'node', 'id': 3243857995, 'lat': -23.6064622, 'lon': -46.5727475, 'tags': {'addr:city': 'São Caetano do Sul', 'addr:housenumber': '200', 'addr:postcode': '09520-280', 'addr:street': 'Rua Herculano de Freitas', 'addr:suburb': 'Bairro da Fundação', 'amenity': 'clinic', 'emergency': 'no', 'healthcare': 'clinic', 'healthcare:speciality': 'gynaecology', 'name': 'Centro de Atenção Integral à Saúde da Mulher', 'opening_hours': 'Mo-Fr 07:00-17:00; Sa,Su,PH off', 'operator': 'Secretaria da Saúde', 'operator:type': 'government', 'phone': '+55 11 4221 4442', 'ref': 'CNES-2038196', 'short_name': 'CAISM', 'source': 'CNES'}}"
"{'type': 'node', 'id': 3259907564, 'lat': -23.6750741, 'lon': -46.6855976, 'tags': {'amenity': 'hospital', 'emergency': 'yes', 'healthcare': 'hospital', 'name': ""Hospital Vida's""}}"
"{'type': 'node', 'id': 3305131050, 'lat': -22.9657708, 'lon': -47.132296, 'tags': {'addr:city': 'Campinas', 'addr:street': 'Rua Armando Frederico Renganeschi', 'amenity': 'pharmacy', 'healthcare': 'pharmacy'}}"
"{'type': 'node', 'id': 3306855777, 'lat': -22.9668335, 'lon': -47.1389335, 'tags': {'addr:city': 'Campinas', 'addr:street': 'Avenida Ruy Rodrigues', 'amenity': 'pharmacy', 'healthcare': 'pharmacy'}}"
"{'type': 'node', 'id': 3324452133, 'lat': -23.5654351, 'lon': -47.5697069, 'tags': {'addr:city': 'Araçoiaba da Serra', 'addr:street': 'Travessa Cristovão', 'amenity': 'hospital', 'name': 'Clinica Aliança Terapêutica'}}"
"{'type': 'node', 'id': 3332699280, 'lat': -23.7026097, 'lon': -46.5731554, 'tags': {'addr:city': 'São Bernardo do Campo', 'addr:country': 'BR', 'addr:housenumber': '314', 'addr:street': 'Rua Benedito Conrado Filho', 'addr:suburb': 'Jardim Embaré', 'amenity': 'dentist', 'healthcare': 'dentist', 'name': 'Doutora Maria Augusta N.Prando', 'operator': 'Doutora Maria Augusta N.Prando', 'phone': '+55 11 4399 1223'}}"
"{'type': 'node', 'id': 3340108426, 'lat': -23.7234604, 'lon': -46.5446972, 'tags': {'addr:city': 'São Bernardo do Campo', 'addr:country': 'BR', 'addr:housenumber': '624', 'addr:street': 'Avenida Rotary', 'addr:suburb': 'Ferrazópolis', 'amenity': 'clinic', 'healthcare': 'clinic', 'healthcare:speciality': 'general;paediatrics;dermatology;otolaryngology;ophthalmology;gynaecology', 'name': 'Dr. Consulta', 'opening_hours': 'Mo-Fr 06:30-18:00; Sa 10:00-14:00', 'phone': '+55 11 2065 1325', 'website': 'https://www.drconsulta.com/'}}"
"{'type': 'node', 'id': 3340514605, 'lat': -23.5844983, 'lon': -46.681092, 'tags': {'addr:city': 'São Paulo', 'addr:housenumber': '1100', 'addr:postcode': '04533-004', 'addr:street': 'Rua Tabapuã', 'addr:suburb': 'Itaim Bibi', 'amenity': 'pharmacy', 'dispensing': 'yes', 'drive_through': 'no', 'healthcare': 'pharmacy', 'name': 'Discover', 'smoking': 'outside', 'wheelchair': 'yes'}}"
"{'type': 'node', 'id': 3363339860, 'lat': -23.7232983, 'lon': -46.5438335, 'tags': {'addr:city': 'São Bernardo do Campo', 'addr:country': 'BR', 'addr:housenumber': '624', 'addr:postcode': '09721-000', 'addr:street': 'Avenida Rotary', 'addr:suburb': 'Ferrazópolis', 'healthcare': 'laboratory', 'name': 'Medicina Diagnóstica Lavosier', 'opening_hours': 'Mo-Fr 06:00-18:00; Sa 06:00-13:00', 'phone': '+55 11 3047 4488', 'website': 'https://www.lavoisier.com.br/'}}"
"{'type': 'node', 'id': 3364729076, 'lat': -23.6258381, 'lon': -46.7220279, 'tags': {'addr:city': 'São Paulo', 'addr:housenumber': '107', 'addr:postcode': '05705-170', 'addr:street': 'Rua Doutor Chibata Miyakoshi', 'addr:suburb': 'Paraíso do Morumbi', 'alt_name': 'Drogaria São Paulo Panamby II', 'amenity': 'pharmacy', 'brand': 'Drogaria São Paulo', 'brand:wikidata': 'Q5308184', 'brand:wikipedia': 'en:Grupo DPSP', 'contact:phone': '+55 11 3758-2251;+55 11 3758-2321;0800 779 8767', 'contact:website': 'http://www.drogariasaopaulo.com.br', 'healthcare': 'pharmacy', 'name': 'Drogaria São Paulo', 'opening_hours': 'Mo-Su 07:00-23:00'}}"
"{'type': 'node', 'id': 3369513533, 'lat': -23.7236003, 'lon': -46.5492952, 'tags': {'addr:city': 'São Bernardo do Campo', 'addr:country': 'BR', 'addr:street': 'Rua Jose Fornari', 'addr:suburb': 'Ferrazópolis', 'amenity': 'pharmacy', 'dispensing': 'yes', 'drive_through': 'no', 'healthcare': 'pharmacy'}}"
"{'type': 'node', 'id': 3371665107, 'lat': -23.1806722, 'lon': -46.9858291, 'tags': {'addr:city': 'Jundiaí', 'addr:street': 'Avenida Francisco Nobre', 'amenity': 'pharmacy', 'name': 'Drogaria Japi', 'source': 'survey'}}"
"{'type': 'node', 'id': 3372549456, 'lat': -23.5409501, 'lon': -46.6824833, 'tags': {'addr:city': 'São Paulo', 'addr:country': 'BR', 'addr:housenumber': '531', 'addr:postcode': '01254-000', 'addr:state': 'SP', 'addr:street': 'Avenida Professor Afonso Bovero', 'amenity': 'pharmacy', 'brand': 'Droga Raia', 'brand:wikidata': 'Q10357101', 'brand:wikipedia': 'pt:RaiaDrogasil', 'contact:phone': '+55 11 3672-2346', 'contact:website': 'http://www.drogaraia.com.br', 'healthcare': 'pharmacy', 'name': 'Droga Raia', 'opening_hours': 'Mo-Su 07:00-23:00'}}"
"{'type': 'node', 'id': 3380549104, 'lat': -23.7071886, 'lon': -46.5676038, 'tags': {'addr:city': 'São Bernardo do Campo', 'addr:country': 'BR', 'addr:housenumber': '600', 'addr:street': 'Avenida Dom Jaime de Barros Câmara', 'addr:suburb': 'Jardim Calux', 'amenity': 'pharmacy', 'dispensing': 'yes', 'drive_through': 'no', 'healthcare': 'pharmacy', 'name': 'Drogaria Atual', 'phone': '+55 11 4398 9066'}}"
"{'type': 'node', 'id': 3391597196, 'lat': -23.6931955, 'lon': -46.5545756, 'tags': {'addr:city': 'São Bernardo do Campo', 'addr:country': 'BR', 'addr:housenumber': '441', 'addr:street': 'Avenida Lucas Nogueira Garcez', 'addr:suburb': 'Centro', 'amenity': 'clinic', 'healthcare': 'clinic', 'healthcare:speciality': 'cardiology;general;gynaecology;geriatrics;dermatology;ophthalmology;orthopaedics;paediatrics;otolaryngology;radiology;neurology;psychiatry;urology', 'name': 'Dr.Consulta', 'opening_hours': 'Mo-Fr 06:30-18:00; Sa 06:30-13:00; Su,PH off', 'phone': '+55 11 4090 1510', 'ref:CNES': '9448772', 'ref:vatin': 'BR14245016004247', 'website': 'https://www.drconsulta.com/'}}"
"{'type': 'node', 'id': 3417549876, 'lat': -23.5627181, 'lon': -46.5731035, 'tags': {'addr:city': 'São Paulo', 'addr:housenumber': '735', 'addr:postcode': '03345-001', 'addr:street': 'Avenida Sapopemba', 'amenity': 'pharmacy'}}"
"{'type': 'node', 'id': 3417614971, 'lat': -23.5599513, 'lon': -46.5760282, 'tags': {'addr:city': 'São Paulo', 'addr:housenumber': '303', 'addr:postcode': '03345-001', 'addr:street': 'Rua Gregório Matos', 'amenity': 'pharmacy', 'healthcare': 'pharmacy', 'name': 'Drogaria Moretti'}}"
"{'type': 'node', 'id': 3440110518, 'lat': -23.5273176, 'lon': -46.6189783, 'tags': {'addr:city': 'São Paulo', 'addr:housenumber': '27', 'addr:postcode': '03030-000', 'addr:street': 'Rua Padre Vieira', 'amenity': 'pharmacy', 'name': 'Drogaria Saúde & Vida', 'opening_hours': 'Mo-Fr 08:00-19:00'}}"
"{'type': 'node', 'id': 3443811672, 'lat': -23.4971785, 'lon': -46.4400842, 'tags': {'amenity': 'hospital', 'emergency': 'yes', 'name': 'Hospital Tide Setubal'}}"
"{'type': 'node', 'id': 3443815525, 'lat': -23.4971293, 'lon': -46.4408566, 'tags': {'amenity': 'clinic', 'emergency': 'no', 'name': 'Assistência Médica Ambulatorial', 'short_name': 'AMA'}}"
"{'type': 'node', 'id': 3455889398, 'lat': -23.1855667, 'lon': -46.9602209, 'tags': {'amenity': 'pharmacy'}}"
"{'type': 'node', 'id': 3468212210, 'lat': -23.152256, 'lon': -47.0575598, 'tags': {'addr:street': 'Praça São Paulo', 'amenity': 'pharmacy', 'dispensing': 'yes', 'drive_through': 'no', 'healthcare': 'pharmacy', 'name': 'Farmácia Paraná'}}"
"{'type': 'node', 'id': 3468212213, 'lat': -23.1550382, 'lon': -47.0530745, 'tags': {'amenity': 'pharmacy', 'name': 'Farmácia America'}}"
"{'type': 'node', 'id': 3468244491, 'lat': -23.1560625, 'lon': -47.0565444, 'tags': {'amenity': 'pharmacy', 'brand': 'Drogasil', 'brand:wikidata': 'Q5308185', 'healthcare': 'pharmacy', 'name': 'Drogasil', 'wheelchair': 'yes'}}"
"{'type': 'node', 'id': 3477014870, 'lat': -23.5551362, 'lon': -46.6029411, 'tags': {'addr:city': 'São Paulo', 'addr:housenumber': '2283', 'addr:postcode': '03103-003', 'addr:street': 'Rua da Mooca', 'amenity': 'pharmacy', 'healthcare': 'pharmacy', 'name': 'Sinete 24Horas'}}"
"{'type': 'node', 'id': 3482593572, 'lat': -23.5591986, 'lon': -46.4888623, 'tags': {'addr:city': 'São Paulo', 'addr:housenumber': '36', 'addr:postcode': '03584-000', 'addr:street': 'Avenida Gameleira Branca', 'amenity': 'pharmacy', 'healthcare': 'pharmacy', 'name': 'Ultra Leste Drogarias'}}"
"{'type': 'node', 'id': 3489267404, 'lat': -23.9340447, 'lon': -46.3288787, 'tags': {'amenity': 'pharmacy', 'brand': 'Drogasil', 'brand:wikidata': 'Q5308185', 'healthcare': 'pharmacy', 'name': 'Drogasil', 'wheelchair': 'yes'}}"
"{'type': 'node', 'id': 3493396927, 'lat': -23.1517803, 'lon': -47.0577475, 'tags': {'amenity': 'pharmacy', 'healthcare': 'pharmacy', 'name': 'Drogaria Itupeva'}}"
"{'type': 'node', 'id': 3495892594, 'lat': -23.495125, 'lon': -46.5783336, 'tags': {'addr:city': 'São Paulo', 'addr:housenumber': '4063', 'addr:postcode': '02135-001', 'addr:street': 'Avenida Conceição', 'amenity': 'dentist', 'healthcare': 'dentist', 'name': 'Deale Odontologia'}}"
"{'type': 'node', 'id': 3500114675, 'lat': -23.5375397, 'lon': -46.5852654, 'tags': {'addr:city': 'São Paulo', 'addr:housenumber': '185', 'addr:postcode': '03060-020', 'addr:street': 'Rua Marquês de Abrantes', 'amenity': 'clinic', 'healthcare': 'clinic', 'name': 'Climesp Fisioterapia', 'phone': '+55 11 2694-4648'}}"
"{'type': 'node', 'id': 3501279844, 'lat': -23.1940396, 'lon': -46.8849691, 'tags': {'amenity': 'clinic', 'healthcare': 'clinic'}}"
"{'type': 'node', 'id': 3501487380, 'lat': -23.4511725, 'lon': -46.531256, 'tags': {'addr:city': 'Guarulhos', 'addr:housenumber': '1337', 'addr:street': 'Avenida Doutor Renato de Andrade Maia', 'addr:suburb': 'Parque Renato Maia', 'amenity': 'hospital', 'name': 'Hospital Maternidade Jesus José e Maria'}}"
"{'type': 'node', 'id': 3502974741, 'lat': -23.6330112, 'lon': -46.6378444, 'tags': {'addr:city': 'São Paulo', 'addr:housenumber': '556', 'addr:postcode': '04311-001', 'addr:street': 'Avenida do Café', 'amenity': 'pharmacy', 'brand': 'Drogasil', 'brand:wikidata': 'Q5308185', 'check_date': '2023-05-22', 'healthcare': 'pharmacy', 'name': 'Drogasil', 'name:pt': 'Drogasil', 'wheelchair': 'yes'}}"
"{'type': 'node', 'id': 3507217263, 'lat': -23.156381, 'lon': -47.0567801, 'tags': {'addr:street': 'Rua Antônio Polli', 'amenity': 'pharmacy', 'dispensing': 'yes', 'drive_through': 'no', 'healthcare': 'pharmacy'}}"
"{'type': 'node', 'id': 3511100383, 'lat': -23.1905748, 'lon': -46.8996521, 'tags': {'amenity': 'pharmacy', 'brand': 'Droga Raia', 'brand:wikidata': 'Q10357101', 'brand:wikipedia': 'pt:RaiaDrogasil', 'dispensing': 'yes', 'healthcare': 'pharmacy', 'name': 'Droga Raia'}}"
"{'type': 'node', 'id': 3534998366, 'lat': -23.5660184, 'lon': -46.6481438, 'tags': {'addr:city': 'São Paulo', 'addr:housenumber': '2066', 'addr:postcode': '01318-002', 'addr:street': 'Avenida Brigadeiro Luís Antônio', 'amenity': 'pharmacy', 'brand': 'Drogasil', 'brand:wikidata': 'Q5308185', 'healthcare': 'pharmacy', 'name': 'Drogasil'}}"
"{'type': 'node', 'id': 3534998368, 'lat': -23.5517587, 'lon': -46.6342229, 'tags': {'addr:city': 'São Paulo', 'addr:housenumber': '415', 'addr:postcode': '01001-000', 'addr:street': 'Praça da Sé', 'amenity': 'pharmacy', 'name': 'Drogaria SP'}}"
"{'type': 'node', 'id': 3534998369, 'lat': -23.5502535, 'lon': -46.6342829, 'tags': {'addr:city': 'São Paulo', 'addr:housenumber': '152', 'addr:postcode': '01001-001', 'addr:street': 'Praça da Sé', 'amenity': 'pharmacy', 'brand': 'Droga Raia', 'brand:wikidata': 'Q10357101', 'brand:wikipedia': 'pt:RaiaDrogasil', 'healthcare': 'pharmacy', 'name': 'Droga Raia'}}"
"{'type': 'node', 'id': 3535088599, 'lat': -23.5508478, 'lon': -46.6418974, 'tags': {'amenity': 'pharmacy', 'healthcare': 'pharmacy'}}"
"{'type': 'node', 'id': 3544809030, 'lat': -23.494809, 'lon': -46.5924936, 'tags': {'addr:city': 'São Paulo', 'addr:housenumber': '503', 'addr:postcode': '02203-000', 'addr:street': 'Avenida Ede', 'amenity': 'pharmacy', 'healthcare': 'pharmacy', 'name': 'União Farma'}}"
"{'type': 'node', 'id': 3559321867, 'lat': -23.5797724, 'lon': -46.625744, 'tags': {'addr:city': 'São Paulo', 'addr:housenumber': '1941', 'addr:postcode': '01536-001', 'addr:street': 'Avenida Lacerda Franco', 'amenity': 'pharmacy', 'healthcare': 'pharmacy'}}"
"{'type': 'node', 'id': 3559342072, 'lat': -23.5781284, 'lon': -46.6215568, 'tags': {'addr:city': 'São Paulo', 'addr:housenumber': '653', 'addr:postcode': '01545-000', 'addr:street': 'Rua Coronel Diogo', 'amenity': 'dentist', 'healthcare': 'dentist'}}"
"{'type': 'node', 'id': 3559683593, 'lat': -23.5808039, 'lon': -46.6156083, 'tags': {'addr:city': 'São Paulo', 'addr:housenumber': '1361', 'addr:postcode': '01545-001', 'addr:street': 'Rua Coronel Diogo', 'amenity': 'pharmacy', 'healthcare': 'pharmacy', 'name': 'Rede Bem Drogarias'}}"
"{'type': 'node', 'id': 3611196771, 'lat': -22.8953776, 'lon': -47.0603677, 'tags': {'amenity': 'clinic', 'healthcare': 'clinic', 'name': 'Doctor Med Clinic'}}"
"{'type': 'node', 'id': 3611196772, 'lat': -22.905955, 'lon': -47.0553712, 'tags': {'amenity': 'pharmacy', 'brand': 'Droga Raia', 'brand:wikidata': 'Q10357101', 'brand:wikipedia': 'pt:RaiaDrogasil', 'healthcare': 'pharmacy', 'name': 'Droga Raia'}}"
"{'type': 'node', 'id': 3611196773, 'lat': -22.906748, 'lon': -47.0406208, 'tags': {'amenity': 'pharmacy', 'brand': 'Drogaria São Paulo', 'brand:wikidata': 'Q5308184', 'brand:wikipedia': 'en:Grupo DPSP', 'dispensing': 'yes', 'healthcare': 'pharmacy', 'name': 'Drogaria São Paulo'}}"
"{'type': 'node', 'id': 3621336501, 'lat': -23.5717324, 'lon': -46.6440354, 'tags': {'amenity': 'pharmacy', 'healthcare': 'pharmacy'}}"
"{'type': 'node', 'id': 3621336511, 'lat': -23.5654273, 'lon': -46.6520986, 'tags': {'addr:city': 'São Paulo', 'addr:country': 'BR', 'addr:housenumber': '995', 'addr:postcode': '01311-100', 'addr:state': 'São Paulo', 'addr:street': 'Avenida Paulista', 'amenity': 'pharmacy', 'brand': 'Drogasil', 'brand:wikidata': 'Q5308185', 'brand:wikipedia': 'pt:Drogasil', 'check_date': '2024-08-03', 'contact:email': 'contato@drogasil.com.br', 'contact:phone': '+55 11 3286-0114;+55 11 3253-2501', 'contact:website': 'https://www.drogasil.com.br/', 'healthcare': 'pharmacy', 'name': 'Drogasil', 'opening_hours': 'Mo-Sa 07:00-23:00; Su 08:00-22:00', 'wheelchair': 'yes'}}"
"{'type': 'node', 'id': 3621336515, 'lat': -23.5640496, 'lon': -46.6537481, 'tags': {'addr:city': 'São Paulo', 'addr:country': 'BR', 'addr:housenumber': '1227', 'addr:postcode': '01311-200', 'addr:state': 'São Paulo', 'addr:street': 'Avenida Paulista', 'amenity': 'pharmacy', 'brand': 'Drogaria São Paulo', 'brand:wikidata': 'Q5308184', 'brand:wikipedia': 'en:Grupo DPSP', 'contact:phone': '+55 11 3288-8061;+55 11 3289-4182', 'contact:website': 'http://www.drogariasaopaulo.com.br/', 'healthcare': 'pharmacy', 'name': 'Drogaria São Paulo', 'opening_hours': '24/7'}}"
"{'type': 'node', 'id': 3621336530, 'lat': -23.5563052, 'lon': -46.6619012, 'tags': {'addr:city': 'São Paulo', 'addr:country': 'BR', 'addr:housenumber': '2408', 'addr:postcode': '01310-300', 'addr:state': 'São Paulo', 'addr:street': 'Avenida Paulista', 'amenity': 'pharmacy', 'brand': 'Drogasil', 'brand:wikidata': 'Q5308185', 'brand:wikipedia': 'pt:Drogasil', 'contact:phone': '+55 11 3255-2345', 'contact:website': 'http://www.onofre.com.br/', 'entrance': 'yes', 'healthcare': 'pharmacy', 'name': 'Drogasil', 'wheelchair': 'yes'}}"
"{'type': 'node', 'id': 3627220953, 'lat': -23.5179969, 'lon': -46.7927494, 'tags': {'addr:city': 'Osasco', 'addr:housenumber': '455', 'addr:postcode': '06230-092', 'addr:street': 'Rua Vicente Rodrigues da Silva', 'amenity': 'pharmacy', 'dispensing': 'yes', 'drive_through': 'no', 'healthcare': 'pharmacy', 'name': 'Drogaria Nova Scala'}}"
"{'type': 'node', 'id': 3628001748, 'lat': -23.6013532, 'lon': -46.6369612, 'tags': {'addr:city': 'São Paulo', 'addr:country': 'BR', 'addr:housenumber': '2842', 'addr:postcode': '04036-100', 'addr:state': 'SP', 'addr:street': 'Rua Domingos de Morais', 'amenity': 'pharmacy', 'brand': 'Drogasil', 'brand:wikidata': 'Q5308185', 'brand:wikipedia': 'pt:Drogasil', 'contact:phone': '+55 11 5571-1799;+55 11 5084-0944', 'contact:website': 'https://www.drogasil.com.br', 'dispensing': 'yes', 'drive_through': 'no', 'healthcare': 'pharmacy', 'name': 'Drogasil', 'opening_hours': 'Mo-Su 07:30-24:00', 'wheelchair': 'yes'}}"
"{'type': 'node', 'id': 3631840183, 'lat': -23.5384389, 'lon': -46.3094979, 'tags': {'addr:city': 'Suzano', 'addr:housenumber': '437', 'addr:postcode': '08665-000', 'addr:street': 'Rua General Francisco Glicério', 'addr:suburb': 'Centro', 'amenity': 'pharmacy', 'brand': 'Drogaria São Paulo', 'brand:wikidata': 'Q5308184', 'brand:wikipedia': 'en:Grupo DPSP', 'drive_through': 'no', 'healthcare': 'pharmacy', 'name': 'Drogaria São Paulo', 'opening_hours': '24/7'}}"
"{'type': 'node', 'id': 3631840190, 'lat': -23.5431711, 'lon': -46.3116966, 'tags': {'addr:city': 'Suzano', 'addr:housenumber': '1000', 'addr:postcode': '08674-002', 'addr:street': 'Rua General Francisco Glicério', 'addr:suburb': 'Centro', 'amenity': 'pharmacy', 'brand': 'Droga Raia', 'brand:wikidata': 'Q10357101', 'brand:wikipedia': 'pt:RaiaDrogasil', 'healthcare': 'pharmacy', 'name': 'Droga Raia', 'opening_hours': '07:00 - 23:00'}}"
"{'type': 'node', 'id': 3637973363, 'lat': -23.5326173, 'lon': -46.6117194, 'tags': {'addr:city': 'São Paulo', 'addr:housenumber': '903', 'addr:postcode': '03018-000', 'addr:street': 'Rua João Boemer', 'amenity': 'pharmacy', 'name': 'Farmacia São Miguel'}}"
"{'type': 'node', 'id': 3649824984, 'lat': -23.5249577, 'lon': -46.4783041, 'tags': {'addr:city': 'São Paulo', 'addr:housenumber': '326', 'addr:postcode': '03685-000', 'addr:street': 'Rua Sonho Gaúcho', 'amenity': 'pharmacy', 'name': 'Drogaria Nova Vida'}}"
"{'type': 'node', 'id': 3662483415, 'lat': -23.7219391, 'lon': -46.5424302, 'tags': {'addr:city': 'São Bernardo do Campo', 'addr:country': 'BR', 'addr:housenumber': '825', 'addr:street': 'Avenida Rotary', 'healthcare': 'podiatrist', 'name': 'Perfil dos Pés', 'phone': '+55 11 3448 5366', 'website': 'https://www.perfildospes.com.br/'}}"
"{'type': 'node', 'id': 3670905790, 'lat': -23.5615648, 'lon': -46.5926316, 'tags': {'addr:city': 'São Paulo', 'addr:housenumber': '1024', 'addr:postcode': '03116-000', 'addr:street': 'Rua do Oratório', 'amenity': 'dentist', 'healthcare': 'dentist'}}"
"{'type': 'node', 'id': 3673915058, 'lat': -23.5585555, 'lon': -46.5846975, 'tags': {'addr:city': 'São Paulo', 'addr:housenumber': '170', 'addr:postcode': '03181-010', 'addr:street': 'Rua Major Basílio', 'amenity': 'dentist', 'healthcare': 'dentist'}}"
"{'type': 'node', 'id': 3686278292, 'lat': -22.9039177, 'lon': -47.0751312, 'tags': {'amenity': 'dentist', 'healthcare': 'dentist'}}"
"{'type': 'node', 'id': 3695401058, 'lat': -23.541373, 'lon': -46.7166054, 'tags': {'amenity': 'pharmacy', 'healthcare': 'pharmacy'}}"
"{'type': 'node', 'id': 3699304617, 'lat': -22.8890279, 'lon': -47.0329825, 'tags': {'addr:city': 'Campinas', 'addr:housenumber': '1266', 'addr:postcode': '13091-140', 'addr:street': 'Avenida José Bonifácio', 'addr:suburb': 'Jardim Flamboyant', 'amenity': 'pharmacy', 'brand': 'Drogaria São Paulo', 'brand:wikidata': 'Q5308184', 'dispensing': 'yes', 'healthcare': 'pharmacy', 'name': 'Drogaria São Paulo'}}"
"{'type': 'node', 'id': 3704915018, 'lat': -23.7396034, 'lon': -46.5258612, 'tags': {'addr:city': 'São Bernardo do Campo', 'addr:street': 'Estrada do Montanhão', 'addr:suburb': 'Montanhão', 'amenity': 'pharmacy', 'dispensing': 'yes', 'drive_through': 'no', 'healthcare': 'pharmacy', 'name': 'Drogaria Montanhão'}}"
"{'type': 'node', 'id': 3705026968, 'lat': -23.7375852, 'lon': -46.5336128, 'tags': {'addr:city': 'São Bernardo do Campo', 'addr:country': 'BR', 'addr:street': 'Avenida Visconde de Cairu', 'amenity': 'pharmacy', 'dispensing': 'yes', 'drive_through': 'no', 'healthcare': 'pharmacy'}}"
"{'type': 'node', 'id': 3708430368, 'lat': -23.4188745, 'lon': -47.1624387, 'tags': {'healthcare': 'hospital_ward', 'name': 'Enfermaria', 'room': 'nursery'}}"
"{'type': 'node', 'id': 3712385570, 'lat': -23.7107636, 'lon': -46.5535139, 'tags': {'addr:city': 'São Bernardo do Campo', 'addr:country': 'BR', 'addr:housenumber': '1500', 'addr:postcode': '09725-001', 'addr:street': 'Rua Jurubatuba', 'addr:suburb': 'Centro', 'amenity': 'pharmacy', 'brand': 'Drogaria São Paulo', 'brand:wikidata': 'Q5308184', 'brand:wikipedia': 'en:Grupo DPSP', 'contact:mobile': '+55 11 91040 4164', 'contact:phone': '+55 11 4123 0441', 'dispensing': 'yes', 'healthcare': 'pharmacy', 'name': 'Drogaria São Paulo', 'opening_hours': '24/7', 'phone': '+55 11 4352 5014'}}"
"{'type': 'node', 'id': 3712812225, 'lat': -23.6121813, 'lon': -46.6006799, 'tags': {'addr:city': 'São Paulo', 'addr:housenumber': '1216', 'addr:street': 'Rodovia Anchieta', 'amenity': 'pharmacy', 'dispensing': 'yes', 'drive_through': 'no', 'healthcare': 'pharmacy', 'name': 'SOS Farma Ponte'}}"
"{'type': 'node', 'id': 3738050647, 'lat': -23.6916244, 'lon': -46.5471488, 'tags': {'addr:city': 'São Bernardo do Campo', 'addr:country': 'BR', 'addr:housenumber': '315', 'addr:street': 'Rua Itu', 'healthcare': 'laboratory', 'name': 'Biocenter', 'phone': '+55 11 4337 8312'}}"
"{'type': 'node', 'id': 3739415174, 'lat': -23.531174, 'lon': -46.4782443, 'tags': {'addr:city': 'São Paulo', 'addr:housenumber': '267', 'addr:postcode': '03693-030', 'addr:street': 'Rua Max Planck', 'addr:suburb': 'Jardim Coimbra', 'amenity': 'pharmacy', 'name': 'Mille Drogaria'}}"
"{'type': 'node', 'id': 3740696318, 'lat': -23.5484741, 'lon': -46.5382364, 'tags': {'addr:city': 'São Paulo', 'addr:country': 'BR', 'addr:housenumber': '2424;2432', 'addr:postcode': '03402-002', 'addr:state': 'SP', 'addr:street': 'Avenida Conselheiro Carrão', 'amenity': 'pharmacy', 'brand': 'Drogasil', 'brand:wikidata': 'Q5308185', 'brand:wikipedia': 'pt:Drogasil', 'contact:email': 'atendimento@drogasil.com.br', 'contact:phone': '+55 11 2227-1370;+55 11 2227-1395', 'contact:website': 'http://www.drogasil.com.br/', 'drive_through': 'no', 'healthcare': 'pharmacy', 'name': 'Drogasil', 'opening_hours': 'Mo-Su 07:00-23:00', 'operator': 'Drogasil', 'wheelchair': 'yes'}}"
"{'type': 'node', 'id': 3740713363, 'lat': -23.5490334, 'lon': -46.5361403, 'tags': {'amenity': 'pharmacy', 'drive_through': 'no', 'name': 'Droganetto'}}"
"{'type': 'node', 'id': 3740717093, 'lat': -23.5477708, 'lon': -46.5398001, 'tags': {'amenity': 'pharmacy', 'drive_through': 'no', 'healthcare': 'pharmacy', 'name': 'Poupafarma', 'opening_hours': 'Mo-Sa 07:00-22:00; Su 08:00-18:00', 'operator': 'Poupafarma'}}"
"{'type': 'node', 'id': 3740724589, 'lat': -23.549315, 'lon': -46.5362543, 'tags': {'amenity': 'pharmacy', 'drive_through': 'no', 'name': 'Drogaria Mais Formosa'}}"
"{'type': 'node', 'id': 3758373009, 'lat': -24.0098492, 'lon': -46.2712274, 'tags': {'amenity': 'pharmacy', 'healthcare': 'pharmacy'}}"
"{'type': 'node', 'id': 3760663772, 'lat': -23.5795827, 'lon': -46.6456582, 'tags': {'amenity': 'clinic', 'healthcare': 'clinic', 'name': 'Homa Espaço médico', 'wheelchair': 'yes'}}"
"{'type': 'node', 'id': 3771298071, 'lat': -23.5750313, 'lon': -46.6683695, 'tags': {'addr:city': 'São Paulo', 'addr:housenumber': '4373', 'addr:postcode': '01407-100', 'addr:street': 'Avenida Nove de Julho', 'amenity': 'clinic', 'healthcare': 'clinic', 'name': 'Modus Vivendi Clínica Medica', 'ref:CNES': '6532160', 'ref:vatin': 'BR54537337000242'}}"
"{'type': 'node', 'id': 3806707375, 'lat': -23.5995817, 'lon': -46.6377582, 'tags': {'addr:city': 'São Paulo', 'addr:housenumber': '1260', 'addr:postcode': '04040-001', 'addr:street': 'Rua Loefgreen', 'amenity': 'dentist', 'healthcare': 'dentist'}}"
"{'type': 'node', 'id': 3806707396, 'lat': -23.5997969, 'lon': -46.6292511, 'tags': {'addr:city': 'São Paulo', 'addr:country': 'BR', 'addr:housenumber': '373', 'addr:postcode': '04040-030', 'addr:state': 'SP', 'addr:street': 'Rua Loefgreen', 'addr:suburb': 'Vila Clementino', 'amenity': 'pharmacy', 'brand': 'Drogasil', 'brand:wikidata': 'Q5308185', 'brand:wikipedia': 'pt:Drogasil', 'contact:email': 'atendimento@drogasil.com.br', 'contact:phone': '+55 11 5083-6502;+55 11 5083-6549', 'contact:website': 'http://www.drogasil.com.br/', 'drive_through': 'no', 'healthcare': 'pharmacy', 'name': 'Drogasil', 'opening_hours': 'Mo-Su 07:00-23:00', 'phone': '+55 11 5083-6502', 'wheelchair': 'yes'}}"
"{'type': 'node', 'id': 3806754757, 'lat': -23.5827843, 'lon': -46.6862992, 'tags': {'addr:city': 'São Paulo', 'addr:country': 'BR', 'addr:housenumber': '247', 'addr:postcode': '01453-010', 'addr:state': 'SP', 'addr:street': 'Rua Doutor Mário Ferraz', 'amenity': 'pharmacy', 'brand': 'Drogasil', 'brand:wikidata': 'Q5308185', 'contact:email': 'atendimento@drogasil.com.br', 'contact:phone': '+55 11 3817-4266;+55 11 3817-4267', 'contact:website': 'http://www.drogasil.com.br/', 'drive_through': 'no', 'healthcare': 'pharmacy', 'name': 'Drogasil', 'opening_hours': '24/7'}}"
"{'type': 'node', 'id': 3811238175, 'lat': -23.5673445, 'lon': -46.4943618, 'tags': {'addr:city': 'São Paulo', 'addr:housenumber': '715', 'addr:postcode': '03585-100', 'addr:street': 'Rua Elza dos Anjos Neves', 'amenity': 'pharmacy', 'healthcare': 'pharmacy'}}"
"{'type': 'node', 'id': 3814707316, 'lat': -23.6411522, 'lon': -46.6986448, 'tags': {'addr:city': 'São Paulo', 'addr:country': 'BR', 'addr:housenumber': '6919;6921', 'addr:postcode': '04701-200', 'addr:state': 'SP', 'addr:street': 'Avenida Santo Amaro', 'amenity': 'pharmacy', 'brand': 'Drogasil', 'brand:wikidata': 'Q5308185', 'brand:wikipedia': 'pt:Drogasil', 'check_date': '2024-05-21', 'contact:email': 'atendimento@drogasil.com.br', 'contact:phone': '+55 11 5541-8447;+55 11 5521-3876', 'contact:website': 'http://www.drogasil.com.br/', 'healthcare': 'pharmacy', 'name': 'Drogasil', 'opening_hours': 'Mo-Su 07:00-23:00', 'wheelchair': 'yes'}}"
"{'type': 'node', 'id': 3814707923, 'lat': -23.5808438, 'lon': -46.6708188, 'tags': {'addr:city': 'São Paulo', 'addr:country': 'BR', 'addr:housenumber': '281', 'addr:postcode': '01435-001', 'addr:state': 'SP', 'addr:street': 'Avenida São Gabriel', 'amenity': 'pharmacy', 'brand': 'Droga Raia', 'brand:wikidata': 'Q10357101', 'brand:wikipedia': 'pt:RaiaDrogasil', 'contact:phone': '+55 11 3078-3795', 'contact:website': 'http://www.drogaraia.com.br/', 'healthcare': 'pharmacy', 'name': 'Droga Raia', 'opening_hours': '24/7', 'wheelchair': 'yes'}}"
"{'type': 'node', 'id': 3826869782, 'lat': -23.69175, 'lon': -46.582884, 'tags': {'addr:city': 'Diadema', 'addr:housenumber': '121', 'addr:street': 'Avenida Piraporinha', 'addr:suburb': 'Piraporinha', 'amenity': 'pharmacy', 'contact:mobile': '+55 11 97318 0321', 'dispensing': 'yes', 'drive_through': 'no', 'fax': '+55 11 406 2270', 'healthcare': 'pharmacy', 'name': 'Paris Pharma Drogaria', 'phone': '+55 11 4066 1576', 'website': 'http://www.parispharmadrogarias.com.br/'}}"
"{'type': 'node', 'id': 3843888171, 'lat': -23.6931037, 'lon': -46.549408, 'tags': {'addr:city': 'São Bernardo do Campo', 'addr:country': 'BR', 'addr:housenumber': '200', 'addr:street': 'Praça Samuel Sabatini', 'addr:suburb': 'Centro', 'amenity': 'pharmacy', 'brand': 'Drogaria São Paulo', 'brand:wikidata': 'Q5308184', 'brand:wikipedia': 'en:Grupo DPSP', 'dispensing': 'yes', 'healthcare': 'pharmacy', 'name': 'Drogaria São Paulo'}}"
"{'type': 'node', 'id': 3863409634, 'lat': -23.63367, 'lon': -46.7347908, 'tags': {'amenity': 'pharmacy'}}"
"{'type': 'node', 'id': 3876032484, 'lat': -23.5635852, 'lon': -46.7441624, 'tags': {'addr:housenumber': '167', 'addr:postcode': '05360-170', 'addr:street': 'Rua Baltazar Rabelo', 'addr:suburb': 'São Remo', 'amenity': 'clinic', 'healthcare': 'clinic', 'name': 'Unidade Básica de Saúde São Remo', 'operator:ref:vatin': 'BR46392130000380', 'ref:CNES': '9113088', 'short_name': 'UBS São Remo'}}"
"{'type': 'node', 'id': 3876079303, 'lat': -23.4452082, 'lon': -46.7114474, 'tags': {'addr:street': 'Avenida Um', 'addr:suburb': 'taipas', 'amenity': 'clinic', 'healthcare': 'clinic', 'name': 'Posto de Saúde Cohab Brasilândia'}}"
"{'type': 'node', 'id': 3888666917, 'lat': -23.6863483, 'lon': -46.618614, 'tags': {'addr:city': 'Diadema', 'addr:street': 'Avenida Antonio Piranga', 'addr:suburb': 'Centro', 'amenity': 'pharmacy', 'healthcare': 'pharmacy', 'name': 'Drogaria Quarteirão da Saúde', 'phone': '+55 11 3426 3328'}}"
"{'type': 'node', 'id': 3891680455, 'lat': -23.6632578, 'lon': -46.691375, 'tags': {'addr:housenumber': '284', 'addr:postcode': '04675-090', 'addr:street': 'Rua Tenente José Maria Pinto', 'amenity': 'pharmacy', 'brand': 'Drogasil', 'brand:wikidata': 'Q5308185', 'brand:wikipedia': 'pt:Drogasil', 'healthcare': 'pharmacy', 'name': 'Drogasil', 'opening_hours': '24/7', 'operator': 'Drogasil', 'phone': '+55 11 5546-5710', 'website': 'https://www.drogasil.com.br/', 'wheelchair': 'yes'}}"
"{'type': 'node', 'id': 3898110597, 'lat': -23.7128178, 'lon': -46.5503902, 'tags': {'addr:housenumber': '1650', 'addr:postcode': '09710-200', 'addr:street': 'Rua Marechal Deodoro', 'addr:suburb': 'Centro', 'amenity': 'pharmacy', 'brand': 'Farma Conde', 'brand:wikidata': 'Q100492677', 'dispensing': 'yes', 'drive_through': 'no', 'email': 'loja107@farmaconde.com.br', 'healthcare': 'pharmacy', 'name': 'Farma Conde', 'phone': '+55 11 4330 0420', 'website': 'https://www.farmaconde.com.br/institucional/'}}"
"{'type': 'node', 'id': 3909235306, 'lat': -23.2119253, 'lon': -46.8317131, 'tags': {'addr:city': 'Várzea Paulista', 'addr:housenumber': '877', 'addr:postcode': '13220-001', 'addr:street': 'Avenida Fernão Dias Paes Leme', 'amenity': 'pharmacy', 'healthcare': 'pharmacy', 'name': 'BIFARMA', 'phone': '+55 11 4596-2513'}}"
"{'type': 'node', 'id': 3915280371, 'lat': -23.5185206, 'lon': -46.7886185, 'tags': {'addr:city': 'Osasco', 'addr:street': 'Avenida Getúlio Vargas', 'amenity': 'pharmacy', 'healthcare': 'pharmacy', 'name': 'Droga Assis'}}"
"{'type': 'node', 'id': 3917989259, 'lat': -23.5512699, 'lon': -46.6440596, 'tags': {'addr:city': 'São Paulo', 'addr:housenumber': '590', 'addr:postcode': '01314-000', 'addr:street': 'Rua Santo Antônio', 'amenity': 'clinic', 'entrance': 'main', 'name': 'Instituto de Saúde', 'website': 'http://www.saude.sp.gov.br/instituto-de-saude/'}}"
"{'type': 'node', 'id': 3917989260, 'lat': -23.5514333, 'lon': -46.6444585, 'tags': {'addr:city': 'São Paulo', 'addr:housenumber': '630', 'addr:postcode': '01314-000', 'addr:street': 'Rua Santo Antônio', 'amenity': 'clinic', 'contact:phone': '+55 11 3292-9000', 'contact:website': 'http://www.hospitalperola.com.br/ambulatorio.php', 'entrance': 'main', 'name': 'Ambulatório da Mulher Hospital Pérola Byington'}}"
"{'type': 'node', 'id': 3919755337, 'lat': -23.4824493, 'lon': -46.5896091, 'tags': {'addr:city': 'São Paulo', 'addr:housenumber': '2069', 'addr:postcode': '02201-001', 'addr:street': 'Avenida Júlio Buono', 'amenity': 'pharmacy', 'dispensing': 'yes', 'healthcare': 'pharmacy', 'name': 'Farmacia de Manipulação'}}"
"{'type': 'node', 'id': 3926550305, 'lat': -23.5569724, 'lon': -46.6419226, 'tags': {'addr:city': 'São Paulo', 'addr:housenumber': '520', 'addr:street': 'Rua Humaitá', 'amenity': 'dentist', 'healthcare': 'dentist', 'name': 'CEO III Prof. Alfredo Reis Viegas'}}"
"{'type': 'node', 'id': 3941903995, 'lat': -23.5971458, 'lon': -47.5371709, 'tags': {'amenity': 'hospital', 'name': 'Clínica Psiquiátrica Salto de Pirapora'}}"
"{'type': 'node', 'id': 3944912698, 'lat': -23.5353726, 'lon': -46.5753849, 'tags': {'addr:city': 'São Paulo', 'addr:housenumber': '3826', 'addr:postcode': '03064-000', 'addr:street': 'Avenida Celso Garcia', 'amenity': 'pharmacy', 'healthcare': 'pharmacy'}}"
"{'type': 'node', 'id': 3944912717, 'lat': -23.5341462, 'lon': -46.5678414, 'tags': {'addr:city': 'São Paulo', 'addr:housenumber': '4639', 'addr:postcode': '03063-000', 'addr:street': 'Avenida Celso Garcia', 'amenity': 'pharmacy', 'healthcare': 'pharmacy'}}"
"{'type': 'node', 'id': 3945083682, 'lat': -23.5338373, 'lon': -46.5668345, 'tags': {'addr:city': 'São Paulo', 'addr:housenumber': '4747', 'addr:postcode': '03063-000', 'addr:street': 'Avenida Celso Garcia', 'addr:suburb': 'Tatuapé', 'amenity': 'pharmacy', 'healthcare': 'pharmacy', 'name': 'Farto Drogarias'}}"
"{'type': 'node', 'id': 3950313493, 'lat': -23.630141, 'lon': -46.4802524, 'tags': {'addr:city': 'Mauá', 'addr:housenumber': '546', 'addr:postcode': '09380-310', 'addr:street': 'Rua Carmem Miranda', 'amenity': 'pharmacy', 'dispensing': 'yes', 'healthcare': 'pharmacy'}}"
"{'type': 'node', 'id': 3952846309, 'lat': -23.5133043, 'lon': -47.5424709, 'tags': {'amenity': 'hospital', 'name': 'Hospital Vera Cruz'}}"
"{'type': 'node', 'id': 3956655555, 'lat': -23.6909861, 'lon': -46.6405756, 'tags': {'addr:city': 'Sao paulo', 'addr:housenumber': '366', 'addr:postcode': '04421-150', 'addr:street': 'Rua Pascoal Grieco', 'addr:suburb': 'Cidade Júlia', 'amenity': 'clinic', 'emergency': 'yes', 'name': 'Posto de Saúde Cidade Júlia'}}"
"{'type': 'node', 'id': 3960218478, 'lat': -23.4886135, 'lon': -46.5836817, 'tags': {'addr:city': 'São Paulo', 'addr:housenumber': '798', 'addr:postcode': '02219-000', 'addr:street': 'Avenida Nossa Senhora do Loreto', 'amenity': 'pharmacy', 'healthcare': 'pharmacy', 'name': 'Loreto Drogaria', 'opening_hours': 'Mo-Sa 09:00-19:00'}}"
"{'type': 'node', 'id': 3964391059, 'lat': -22.8911037, 'lon': -47.0627512, 'tags': {'addr:city': 'Campinas', 'addr:housenumber': '360', 'addr:postcode': '13023-075', 'addr:street': 'Avenida Brasil', 'addr:suburb': 'Vila Itapura', 'amenity': 'pharmacy', 'brand': 'Droga Raia', 'brand:wikidata': 'Q10357101', 'brand:wikipedia': 'pt:RaiaDrogasil', 'healthcare': 'pharmacy', 'mobile': '+55 (19) 99930-3699', 'name': 'Droga Raia', 'opening_hours': '24/7'}}"
"{'type': 'node', 'id': 3964712866, 'lat': -23.5662124, 'lon': -46.5931161, 'tags': {'addr:city': 'São Paulo', 'addr:housenumber': '1491', 'addr:postcode': '03115-001', 'addr:street': 'Avenida Paes de Barros', 'amenity': 'pharmacy', 'healthcare': 'pharmacy'}}"
"{'type': 'node', 'id': 3965010715, 'lat': -23.5708053, 'lon': -46.5811613, 'tags': {'addr:city': 'São Paulo', 'addr:housenumber': '2709', 'addr:postcode': '03195-100', 'addr:street': 'Rua do Oratório', 'amenity': 'pharmacy'}}"
"{'type': 'node', 'id': 3974286425, 'lat': -23.4704137, 'lon': -46.5728043, 'tags': {'addr:city': 'São Paulo', 'addr:housenumber': '314', 'addr:street': 'Avenida Edú Chaves', 'amenity': 'clinic', 'healthcare': 'clinic'}}"
"{'type': 'node', 'id': 3974365870, 'lat': -23.4686342, 'lon': -46.5796322, 'tags': {'addr:city': 'São Paulo', 'addr:housenumber': '574', 'addr:postcode': '02260-001', 'addr:street': 'Avenida Luís Stamatis', 'amenity': 'pharmacy', 'healthcare': 'pharmacy'}}"
"{'type': 'node', 'id': 3977837517, 'lat': -23.4680962, 'lon': -46.5841178, 'tags': {'addr:city': 'São Paulo', 'addr:housenumber': '2498', 'addr:postcode': '02265-002', 'addr:street': 'Avenida Guapira', 'amenity': 'pharmacy', 'healthcare': 'pharmacy', 'name': 'Poupa Farma'}}"
"{'type': 'node', 'id': 3987967619, 'lat': -23.5547928, 'lon': -46.4807755, 'tags': {'addr:city': 'São Paulo', 'addr:street': 'Avenida Líder', 'addr:suburb': 'Cidade Líder', 'amenity': 'pharmacy', 'name': 'Farmais', 'opening_hours': '08:00-22:00'}}"
"{'type': 'node', 'id': 3987998992, 'lat': -23.5660927, 'lon': -46.4089763, 'tags': {'amenity': 'clinic', 'name': 'Unidade Básica de Saúde Prestes Maia', 'short_name': 'UBS Prestes Maia'}}"
"{'type': 'node', 'id': 3995520700, 'lat': -23.5740994, 'lon': -46.7263959, 'tags': {'addr:city': 'São Paulo', 'addr:country': 'BR', 'addr:housenumber': '1227', 'addr:postcode': '05581-000', 'addr:state': 'São Paulo', 'addr:street': 'Avenida Corifeu de Azevedo Marques', 'amenity': 'pharmacy', 'contact:fax': '+55 11 3726 1170', 'contact:phone': '+55 11 3726 7724', 'drive_through': 'no', 'healthcare': 'pharmacy', 'name': 'Bifarma', 'opening_hours': 'Mo-Sa 09:00-23:00; Su 09:00-22:15', 'phone': '+55 11 3726 3425'}}"
"{'type': 'node', 'id': 4000738457, 'lat': -23.7059025, 'lon': -46.5507512, 'tags': {'addr:city': 'São Bernardo do Campo', 'addr:country': 'BR', 'addr:street': 'Rua Santa Filomena', 'addr:suburb': 'Centro', 'amenity': 'pharmacy', 'contact:mobile': '+55 11 93370 1213', 'dispensing': 'yes', 'drive_through': 'no', 'healthcare': 'pharmacy', 'name': 'Medicare', 'opening_hours': 'Mo-Fr 08:00-18:00; Sa 09:00-13:00; PH off', 'phone': '+55 11 4125 8678'}}"
"{'type': 'node', 'id': 4005889708, 'lat': -23.5693473, 'lon': -46.5661778, 'tags': {'addr:housenumber': '653', 'addr:postcode': '03350-100', 'addr:state': 'SP', 'addr:street': 'Rua General Argolo', 'amenity': 'pharmacy'}}"
"{'type': 'node', 'id': 4012586263, 'lat': -23.5635954, 'lon': -46.7650717, 'tags': {'amenity': 'clinic', 'name': 'UBS - Vila Dalva'}}"
"{'type': 'node', 'id': 4012635597, 'lat': -23.6847725, 'lon': -46.6616055, 'tags': {'addr:city': 'São paulo', 'addr:street': 'Avenida Eduardo Pereira Ramos', 'addr:suburb': 'São Jorge', 'amenity': 'clinic', 'healthcare': 'clinic', 'name': 'Unidade Básica de Saúde São Jorge', 'opening_hours': 'Mo-Sa 07:00-19:00', 'short_name': 'UBS São Jorge'}}"
"{'type': 'node', 'id': 4012651125, 'lat': -23.7131965, 'lon': -46.627856, 'tags': {'addr:city': 'São Paulo', 'addr:housenumber': '47', 'addr:street': 'Estrada da Saúde', 'addr:suburb': 'Eldorado', 'amenity': 'clinic', 'name': 'Unidade Básica de Saúde Mata Virgem', 'operator': 'Prefeitura', 'short_name': 'UBS Mata Virgem'}}"
"{'type': 'node', 'id': 4012655836, 'lat': -23.7715542, 'lon': -46.7125519, 'tags': {'addr:city': 'São Paulo', 'addr:street': 'Rua das Plêiades', 'addr:suburb': 'Jardim Maria Amalia', 'amenity': 'clinic', 'healthcare': 'clinic', 'name': 'Unidade Básica de Saúde Integrada Jardim Campinas', 'note': 'Local sem número', 'opening_hours': 'Mo-Sa 07:00-19:00', 'short_name': 'UBS Integrada Jardim Campinas'}}"
"{'type': 'node', 'id': 4015903401, 'lat': -23.6209183, 'lon': -46.6025687, 'tags': {'addr:city': 'São Paulo', 'addr:country': 'BR', 'addr:housenumber': '22', 'addr:postcode': '04296-090', 'addr:state': 'SP', 'addr:street': 'Rua Descampado', 'amenity': 'pharmacy', 'brand': 'Drogaria São Paulo', 'brand:wikidata': 'Q5308184', 'brand:wikipedia': 'en:Grupo DPSP', 'contact:phone': '+55 11 2351-4550;+55 11 2351-4549;0800 779 8767', 'contact:website': 'http://www.drogariasaopaulo.com.br', 'healthcare': 'pharmacy', 'name': 'Drogaria São Paulo', 'opening_hours': '24/7'}}"
"{'type': 'node', 'id': 4024028690, 'lat': -23.5426635, 'lon': -46.4303341, 'tags': {'addr:city': 'São Paulo', 'addr:housenumber': '496', 'addr:postcode': '08420-280', 'addr:street': 'Avenida Professor Osvaldo de Oliveira', 'amenity': 'pharmacy', 'healthcare': 'pharmacy'}}"
"{'type': 'node', 'id': 4028920353, 'lat': -23.5583083, 'lon': -46.4754267, 'tags': {'addr:city': 'São Paulo', 'addr:housenumber': '2765', 'addr:postcode': '08280-190', 'addr:street': 'Avenida Maria Luiza Americano', 'addr:suburb': 'Cidade Líder', 'amenity': 'pharmacy', 'name': 'Farmais'}}"
"{'type': 'node', 'id': 4029015350, 'lat': -23.5599851, 'lon': -46.5868289, 'tags': {'addr:city': 'São Paulo', 'addr:housenumber': '4041', 'addr:postcode': '03165-001', 'addr:street': 'Rua da Mooca', 'amenity': 'pharmacy'}}"
"{'type': 'node', 'id': 4033709886, 'lat': -23.5946094, 'lon': -46.642518, 'tags': {'addr:city': 'São Paulo', 'addr:housenumber': '289', 'addr:postcode': '04022-001', 'addr:street': 'Rua Estado de Israel', 'amenity': 'clinic', 'healthcare': 'clinic'}}"
"{'type': 'node', 'id': 4043569309, 'lat': -23.6041674, 'lon': -46.6351914, 'tags': {'addr:city': 'São Paulo', 'addr:housenumber': '785', 'addr:postcode': '04043-300', 'addr:street': 'Rua Luis Góis', 'amenity': 'pharmacy', 'healthcare': 'pharmacy'}}"
"{'type': 'node', 'id': 4066780889, 'lat': -23.5865131, 'lon': -46.6043024, 'tags': {'amenity': 'pharmacy', 'drive_through': 'no', 'healthcare': 'pharmacy', 'name': 'Drogaria São José do Ipiranga', 'phone': '+55 11 2914-8979'}}"
"{'type': 'node', 'id': 4070639209, 'lat': -23.4863914, 'lon': -46.6231704, 'tags': {'addr:city': 'São Paulo', 'addr:housenumber': '270', 'addr:postcode': '02332-000', 'addr:street': 'Avenida Água Fria', 'amenity': 'pharmacy'}}"
"{'type': 'node', 'id': 4070833719, 'lat': -23.479216, 'lon': -46.6217248, 'tags': {'addr:city': 'São Paulo', 'addr:housenumber': '1056', 'addr:postcode': '02332-001', 'addr:street': 'Avenida Água Fria', 'amenity': 'pharmacy'}}"
"{'type': 'node', 'id': 4070833742, 'lat': -23.474634, 'lon': -46.618873, 'tags': {'addr:city': 'São Paulo', 'addr:housenumber': '1676', 'addr:postcode': '02332-001', 'addr:street': 'Avenida Água Fria', 'amenity': 'pharmacy', 'healthcare': 'pharmacy'}}"
"{'type': 'node', 'id': 4072059913, 'lat': -22.8943503, 'lon': -47.0540225, 'tags': {'addr:city': 'Campinas', 'addr:housenumber': '347', 'addr:street': 'Avenida Coronel Silva Teles', 'addr:suburb': 'Cambuí', 'amenity': 'pharmacy', 'drive_through': 'no', 'healthcare': 'pharmacy', 'name': 'Ao Pharmaceutico', 'website': 'http://www.aopharmaceutico.com.br/unidades/campinas/'}}"
"{'type': 'node', 'id': 4072083890, 'lat': -22.8875035, 'lon': -47.0664763, 'tags': {'addr:city': 'Campinas', 'addr:housenumber': '884', 'addr:postcode': '13073-012', 'addr:street': 'Avenida Brasil', 'addr:suburb': 'Jardim Brasil', 'healthcare': 'laboratory', 'name': 'Diagmed', 'opening_hours': 'Mo-Fr 07:00-15:00; Sa 07:00-11:00', 'phone': '+55 (19) 3743-5000', 'website': 'https://diagmed.com.br'}}"
"{'type': 'node', 'id': 4076018843, 'lat': -23.6038858, 'lon': -46.6365096, 'tags': {'addr:city': 'São Paulo', 'addr:country': 'BR', 'addr:housenumber': '3123', 'addr:postcode': '04035-001', 'addr:state': 'SP', 'addr:street': 'Rua Domingos de Morais', 'amenity': 'pharmacy', 'brand': 'Droga Raia', 'brand:wikidata': 'Q10357101', 'brand:wikipedia': 'pt:RaiaDrogasil', 'healthcare': 'pharmacy', 'name': 'Droga Raia', 'opening_hours': '24/7', 'parking': 'yes', 'phone': '+55 11 5072-4115', 'website': 'https://www.drogaraia.com.br'}}"
"{'type': 'node', 'id': 4089841596, 'lat': -23.4858585, 'lon': -46.6168074, 'tags': {'addr:city': 'São Paulo', 'addr:housenumber': '939', 'addr:street': 'Avenida Nova Cantareira', 'amenity': 'clinic', 'healthcare': 'clinic', 'name': 'Estetica'}}"
"{'type': 'node', 'id': 4089841618, 'lat': -23.4815708, 'lon': -46.6125295, 'tags': {'addr:city': 'São Paulo', 'addr:housenumber': '1590', 'addr:street': 'Avenida Nova Cantareira', 'amenity': 'clinic', 'healthcare': 'clinic'}}"
