OSM_Data
"{'type': 'node', 'id': 1566691767, 'lat': 36.0895263, 'lon': 120.3806485, 'tags': {'amenity': 'hospital', 'name': 'Qingdao Fuwai Hospital', 'name:zh': '青岛市阜外医院', 'source': 'http://www.qdfw.com/'}}"
"{'type': 'node', 'id': 1778762179, 'lat': 36.0972683, 'lon': 120.3973731, 'tags': {'amenity': 'hospital', 'name': '妇女儿童医院'}}"
"{'type': 'node', 'id': 2024738707, 'lat': 36.1665598, 'lon': 120.4977705, 'tags': {'amenity': 'hospital', 'emergency': 'yes', 'healthcare': 'hospital', 'name': '校医院', 'name:zh': '校医院', 'name:zh-Hans': '校医院', 'name:zh-Hant': '校醫院', 'operator': '中国海洋大学', 'operator:type': 'government', 'wheelchair': 'yes'}}"
"{'type': 'node', 'id': 2805195328, 'lat': 36.0626912, 'lon': 120.3784903, 'tags': {'amenity': 'clinic', 'healthcare': 'clinic', 'name': 'Clinic'}}"
"{'type': 'node', 'id': 3120718739, 'lat': 36.0849843, 'lon': 120.4475773, 'tags': {'amenity': 'hospital', 'name': 'hospital'}}"
"{'type': 'node', 'id': 3820563782, 'lat': 36.8556614, 'lon': 119.4127107, 'tags': {'amenity': 'hospital', 'name': '康宁中医院'}}"
"{'type': 'node', 'id': 4336716597, 'lat': 36.6290528, 'lon': 120.1810392, 'tags': {'amenity': 'hospital'}}"
"{'type': 'node', 'id': 4664801348, 'lat': 36.8523633, 'lon': 119.3990885, 'tags': {'amenity': 'hospital', 'healthcare': 'hospital', 'name': '昌邑昌城医院'}}"
"{'type': 'node', 'id': 5177676360, 'lat': 35.9523504, 'lon': 120.179372, 'tags': {'amenity': 'pharmacy', 'healthcare': 'pharmacy', 'name': '一丰堂大药房'}}"
"{'type': 'node', 'id': 5244457395, 'lat': 36.0725153, 'lon': 120.313257, 'tags': {'amenity': 'pharmacy', 'healthcare': 'pharmacy', 'name': '宏仁堂'}}"
"{'type': 'node', 'id': 5257171451, 'lat': 36.0389932, 'lon': 120.209987, 'tags': {'amenity': 'pharmacy', 'healthcare': 'pharmacy', 'name': '龙康世纪堂大药房'}}"
"{'type': 'node', 'id': 5257315522, 'lat': 35.9705451, 'lon': 120.1769684, 'tags': {'amenity': 'hospital', 'healthcare': 'hospital', 'name': '青岛丽人妇产医院'}}"
"{'type': 'node', 'id': 5257868975, 'lat': 36.0609813, 'lon': 120.3016085, 'tags': {'amenity': 'pharmacy', 'healthcare': 'pharmacy', 'name': '丰硕堂大药房'}}"
"{'type': 'node', 'id': 5259125356, 'lat': 36.0580883, 'lon': 120.3057273, 'tags': {'amenity': 'pharmacy', 'healthcare': 'pharmacy', 'name': '康杰大药房'}}"
"{'type': 'node', 'id': 5273949701, 'lat': 36.0642405, 'lon': 120.302903, 'tags': {'amenity': 'pharmacy', 'healthcare': 'pharmacy', 'name': '众生大药房'}}"
"{'type': 'node', 'id': 5277965244, 'lat': 36.0694885, 'lon': 120.3135771, 'tags': {'addr:city': '青岛市', 'addr:district': '市南区', 'addr:housenumber': '108', 'addr:province': '山东省', 'addr:street': '中山路', 'amenity': 'pharmacy', 'healthcare': 'pharmacy', 'name': '国风大药房'}}"
"{'type': 'node', 'id': 5277965261, 'lat': 36.0701344, 'lon': 120.3113399, 'tags': {'amenity': 'pharmacy', 'healthcare': 'pharmacy', 'name': '医保城'}}"
"{'type': 'node', 'id': 5278194893, 'lat': 36.0583195, 'lon': 120.3045428, 'tags': {'addr:city': 'Qingdao', 'addr:district': 'Shinan', 'addr:housenumber': '40', 'addr:province': 'Shandong', 'addr:street': '贵州路', 'amenity': 'pharmacy', 'healthcare': 'pharmacy', 'name': '利群前海大药房'}}"
"{'type': 'node', 'id': 5278921403, 'lat': 36.0582934, 'lon': 120.2935975, 'tags': {'addr:city': 'Qingdao', 'addr:district': 'Shinan', 'addr:housenumber': '46', 'addr:province': 'Shandong', 'addr:street': '台西三路', 'amenity': 'clinic', 'healthcare': 'clinic', 'name': '惠河诊所'}}"
"{'type': 'node', 'id': 5314462974, 'lat': 36.0908674, 'lon': 120.3469985, 'tags': {'amenity': 'pharmacy', 'brand': '海王星辰', 'brand:en': 'China Nepstar', 'brand:wikidata': 'Q5099817', 'brand:zh': '海王星辰', 'healthcare': 'pharmacy', 'name': '海王星辰', 'name:en': 'China Nepstar', 'name:zh': '海王星辰'}}"
"{'type': 'node', 'id': 5332537311, 'lat': 36.3076032, 'lon': 120.4982585, 'tags': {'amenity': 'hospital', 'healthcare': 'hospital', 'name': '琴岛学院医务室'}}"
"{'type': 'node', 'id': 5334486904, 'lat': 36.0701669, 'lon': 120.315667, 'tags': {'amenity': 'pharmacy', 'brand': '海王星辰', 'brand:en': 'China Nepstar', 'brand:wikidata': 'Q5099817', 'brand:zh': '海王星辰', 'healthcare': 'pharmacy', 'name': '海王星辰', 'name:en': 'China Nepstar', 'name:zh': '海王星辰'}}"
"{'type': 'node', 'id': 5344345046, 'lat': 35.9658732, 'lon': 120.1836714, 'tags': {'amenity': 'hospital', 'healthcare': 'hospital', 'name': '青岛拜博口腔医院'}}"
"{'type': 'node', 'id': 5369484245, 'lat': 36.0710805, 'lon': 120.3732094, 'tags': {'amenity': 'hospital', 'healthcare': 'hospital', 'name': '中国人民解放军第四〇一医院-门诊部'}}"
"{'type': 'node', 'id': 5679959658, 'lat': 36.0606071, 'lon': 120.2940317, 'tags': {'amenity': 'clinic', 'healthcare': 'clinic', 'name': '仁博门诊'}}"
"{'type': 'node', 'id': 5679959662, 'lat': 36.0608575, 'lon': 120.2940653, 'tags': {'amenity': 'pharmacy', 'dispensing': 'yes', 'healthcare': 'pharmacy', 'name': '康杰药店'}}"
"{'type': 'node', 'id': 5679959680, 'lat': 36.060671, 'lon': 120.2957653, 'tags': {'amenity': 'pharmacy', 'dispensing': 'yes', 'healthcare': 'pharmacy', 'name': '丰硕堂大药房'}}"
"{'type': 'node', 'id': 5679959681, 'lat': 36.0607125, 'lon': 120.2958624, 'tags': {'amenity': 'clinic', 'healthcare': 'clinic', 'name': '安康堂诊所'}}"
"{'type': 'node', 'id': 5734300858, 'lat': 36.0608797, 'lon': 120.3020152, 'tags': {'amenity': 'pharmacy', 'dispensing': 'yes', 'healthcare': 'pharmacy', 'name': '众生大药房'}}"
"{'type': 'node', 'id': 6203024573, 'lat': 36.8608775, 'lon': 119.4272398, 'tags': {'amenity': 'clinic', 'healthcare': 'clinic', 'name': '医务室'}}"
"{'type': 'node', 'id': 7065708885, 'lat': 36.0760958, 'lon': 120.3746751, 'tags': {'addr:city': '青岛市', 'addr:district': '市南区', 'addr:housenumber': '93号', 'addr:province': '山东省', 'addr:street': '徐州路', 'amenity': 'hospital', 'healthcare': 'hospital', 'name': '市立医院(胸外科)', 'operator': '市立医院', 'operator:type': 'public'}}"
"{'type': 'node', 'id': 7191323647, 'lat': 36.8658592, 'lon': 119.4066108, 'tags': {'addr:housenumber': '201', 'addr:street': '奎聚路', 'amenity': 'pharmacy', 'branch': '育新药店', 'dispensing': 'yes', 'healthcare': 'pharmacy', 'name': '金通大药房', 'phone': '+86 536 719 2619'}}"
"{'type': 'node', 'id': 7191323648, 'lat': 36.8623129, 'lon': 119.3979502, 'tags': {'amenity': 'pharmacy', 'dispensing': 'yes', 'healthcare': 'pharmacy', 'name': '金通大药房(城后药店)', 'phone': '+86 536 719 9195'}}"
"{'type': 'node', 'id': 7191323649, 'lat': 36.8603015, 'lon': 119.388338, 'tags': {'addr:housenumber': '288', 'addr:street': '富昌街', 'amenity': 'pharmacy', 'dispensing': 'yes', 'healthcare': 'pharmacy', 'name': '金通大药房(富昌药店)', 'phone': '+86 536 711 0126'}}"
"{'type': 'node', 'id': 7191323650, 'lat': 36.8541626, 'lon': 119.3875447, 'tags': {'addr:housenumber': '455', 'addr:street': '利民街', 'amenity': 'pharmacy', 'dispensing': 'yes', 'healthcare': 'pharmacy', 'name': '金通大药房(中心药店)', 'phone': '+86 536 719 2619'}}"
"{'type': 'node', 'id': 7191323667, 'lat': 36.8510909, 'lon': 119.3811179, 'tags': {'amenity': 'pharmacy', 'dispensing': 'yes', 'healthcare': 'pharmacy', 'name': '金通大药房(西城药店)', 'phone': '+86 536 711 1858'}}"
"{'type': 'node', 'id': 7191371223, 'lat': 36.8446623, 'lon': 119.3877475, 'tags': {'addr:housenumber': '492', 'addr:street': '交通中街', 'amenity': 'pharmacy', 'dispensing': 'yes', 'healthcare': 'pharmacy', 'name': '金通大药房(佑民药店)', 'phone': '+86 536 721 6129'}}"
"{'type': 'node', 'id': 7191371246, 'lat': 36.8498648, 'lon': 119.4043754, 'tags': {'amenity': 'pharmacy', 'dispensing': 'yes', 'healthcare': 'pharmacy', 'name': '金通大药房(圣济药店)', 'phone': '+86 536 719 1318'}}"
"{'type': 'node', 'id': 7191371247, 'lat': 36.8549093, 'lon': 119.393468, 'tags': {'amenity': 'pharmacy', 'dispensing': 'yes', 'healthcare': 'pharmacy', 'name': '金通大药房(天水药店)', 'phone': '+86 536 711 8667'}}"
"{'type': 'node', 'id': 7191371248, 'lat': 36.8471852, 'lon': 119.3927399, 'tags': {'addr:housenumber': '93', 'addr:street': '天水路', 'amenity': 'pharmacy', 'dispensing': 'yes', 'healthcare': 'pharmacy', 'name': '金通大药房(圣民药店)', 'phone': '+86 536 722 8556'}}"
"{'type': 'node', 'id': 7191371249, 'lat': 36.8440773, 'lon': 119.4151726, 'tags': {'amenity': 'pharmacy', 'dispensing': 'yes', 'healthcare': 'pharmacy', 'name': '金通大药房(滨河药店)', 'phone': '+86 536 711 0763'}}"
"{'type': 'node', 'id': 7191371250, 'lat': 36.8318265, 'lon': 119.4010352, 'tags': {'amenity': 'pharmacy', 'dispensing': 'yes', 'healthcare': 'pharmacy', 'name': '金通大药房(金典药店)', 'phone': '+86 536 729 0113'}}"
"{'type': 'node', 'id': 7191371251, 'lat': 36.8532396, 'lon': 119.3907734, 'tags': {'addr:housenumber': '600-3', 'addr:street': '利民街', 'amenity': 'pharmacy', 'dispensing': 'yes', 'healthcare': 'pharmacy', 'name': '金通大药房(利民药店)', 'phone': '053677192688'}}"
"{'type': 'node', 'id': 7191371267, 'lat': 36.8523303, 'lon': 119.3998922, 'tags': {'amenity': 'pharmacy', 'dispensing': 'yes', 'healthcare': 'pharmacy', 'name': '金通大药房(文昌药店)', 'phone': '+86 536 711 0886'}}"
"{'type': 'node', 'id': 7191371303, 'lat': 36.8559078, 'lon': 119.3820506, 'tags': {'addr:housenumber': '76-21', 'addr:street': '建设路', 'amenity': 'pharmacy', 'dispensing': 'yes', 'healthcare': 'pharmacy', 'name': '金通大药房(建设药店)', 'phone': '+86 536 716 0302'}}"
"{'type': 'node', 'id': 7191371304, 'lat': 36.8380522, 'lon': 119.3855126, 'tags': {'addr:housenumber': '573', 'addr:street': '北海路', 'amenity': 'pharmacy', 'dispensing': 'yes', 'healthcare': 'pharmacy', 'name': '金通大药房(辛置药店)', 'phone': '+86 536 722 8629'}}"
"{'type': 'node', 'id': 7191371337, 'lat': 36.8487761, 'lon': 119.387627, 'tags': {'amenity': 'pharmacy', 'dispensing': 'yes', 'healthcare': 'pharmacy', 'name': '金通大药房(北海药店)', 'phone': '+86 536 722 5881'}}"
"{'type': 'node', 'id': 7191371383, 'lat': 36.8520029, 'lon': 119.4064666, 'tags': {'amenity': 'pharmacy', 'dispensing': 'yes', 'healthcare': 'pharmacy', 'name': '金通大药房(潍水药店)', 'phone': '053677210151'}}"
"{'type': 'node', 'id': 7191371396, 'lat': 36.8637918, 'lon': 119.4264974, 'tags': {'amenity': 'pharmacy', 'dispensing': 'yes', 'healthcare': 'pharmacy', 'name': '金通大药房(文东药店)', 'phone': '+86 536 729 0119'}}"
"{'type': 'node', 'id': 7191371397, 'lat': 36.8546724, 'lon': 119.410889, 'tags': {'addr:housenumber': '10-13', 'addr:street': '城里东街', 'amenity': 'pharmacy', 'dispensing': 'yes', 'healthcare': 'pharmacy', 'name': '金通大药房(东城药店)', 'phone': '+86 536 729 0115'}}"
"{'type': 'node', 'id': 7206731524, 'lat': 36.8405768, 'lon': 119.396606, 'tags': {'amenity': 'hospital', 'healthcare': 'hospital', 'name': '昌邑厚德英杰医院'}}"
"{'type': 'node', 'id': 7256598532, 'lat': 36.8548845, 'lon': 119.3754302, 'tags': {'addr:housenumber': '711', 'addr:street': '利民街', 'amenity': 'dentist', 'healthcare': 'dentist', 'name': '昌邑市利民街和信口腔诊所'}}"
"{'type': 'node', 'id': 7256642898, 'lat': 36.8523003, 'lon': 119.393259, 'tags': {'addr:housenumber': '185', 'addr:street': '天水路', 'amenity': 'dentist', 'healthcare': 'dentist', 'name': '昌邑钻石口腔门诊部'}}"
"{'type': 'node', 'id': 7257270884, 'lat': 36.8518602, 'lon': 119.4095605, 'tags': {'amenity': 'dentist', 'healthcare': 'dentist', 'name': '昌邑董俊杰口腔诊所'}}"
"{'type': 'node', 'id': 7283188417, 'lat': 36.8445643, 'lon': 119.3973275, 'tags': {'addr:housenumber': '274', 'addr:street': '交通中街', 'amenity': 'dentist', 'healthcare': 'dentist', 'name': '昌邑市交通街三硕口腔门诊部'}}"
"{'type': 'node', 'id': 7503808787, 'lat': 36.934947, 'lon': 119.3902368, 'tags': {'amenity': 'pharmacy', 'dispensing': 'yes', 'healthcare': 'pharmacy', 'name': '金通大药房(柳疃药店)'}}"
"{'type': 'node', 'id': 7563204331, 'lat': 36.8427712, 'lon': 119.4383173, 'tags': {'addr:housenumber': '945', 'addr:street': '平安东街', 'amenity': 'hospital', 'healthcare': 'hospital', 'name': '昌邑市妇幼保健院（昌邑市妇女儿童医院、昌邑市计划生育服务中心）'}}"
"{'type': 'node', 'id': 7575382396, 'lat': 36.8655016, 'lon': 119.4266793, 'tags': {'amenity': 'pharmacy', 'dispensing': 'no', 'healthcare': 'pharmacy', 'name': '仁和药店(第二十五分店)', 'phone': '+86 536 603 2771'}}"
"{'type': 'node', 'id': 7652815479, 'lat': 36.0689855, 'lon': 120.318503, 'tags': {'amenity': 'pharmacy'}}"
"{'type': 'node', 'id': 7742669063, 'lat': 36.8498784, 'lon': 119.3876518, 'tags': {'amenity': 'pharmacy', 'dispensing': 'yes', 'healthcare': 'pharmacy', 'name': '仁和药店(二十一分店)'}}"
"{'type': 'node', 'id': 7742669064, 'lat': 36.8445181, 'lon': 119.3968376, 'tags': {'addr:housenumber': '356', 'addr:street': '解放路', 'amenity': 'pharmacy', 'dispensing': 'no', 'healthcare': 'pharmacy', 'name': '仁和药店(第二十分店)', 'phone': '+86 536 603 2533'}}"
"{'type': 'node', 'id': 7792966512, 'lat': 35.9917339, 'lon': 119.4010203, 'tags': {'amenity': 'pharmacy', 'dispensing': 'yes', 'healthcare': 'pharmacy', 'name': '和平药业'}}"
"{'type': 'node', 'id': 7794466592, 'lat': 35.9892582, 'lon': 119.4046567, 'tags': {'amenity': 'pharmacy', 'dispensing': 'yes', 'healthcare': 'pharmacy', 'name': '力生源大药房'}}"
"{'type': 'node', 'id': 7794466593, 'lat': 35.9886567, 'lon': 119.4042026, 'tags': {'amenity': 'pharmacy', 'dispensing': 'yes', 'healthcare': 'pharmacy', 'name': '海王医药'}}"
"{'type': 'node', 'id': 7795684781, 'lat': 36.0036519, 'lon': 119.3882707, 'tags': {'amenity': 'hospital', 'healthcare': 'hospital', 'name': '邱家庄卫生室'}}"
"{'type': 'node', 'id': 8936014437, 'lat': 36.844635, 'lon': 119.3892165, 'tags': {'amenity': 'pharmacy', 'dispensing': 'yes', 'healthcare': 'pharmacy', 'name': '同仁堂(昌邑一店)'}}"
"{'type': 'node', 'id': 8939286767, 'lat': 36.9329121, 'lon': 119.38976, 'tags': {'amenity': 'pharmacy', 'dispensing': 'yes', 'healthcare': 'pharmacy'}}"
"{'type': 'node', 'id': 8939286782, 'lat': 36.8522998, 'lon': 119.4101385, 'tags': {'addr:housenumber': '75', 'addr:street': '利民街', 'amenity': 'pharmacy', 'healthcare': 'pharmacy', 'name': '昌邑恒德大药房有限公司'}}"
"{'type': 'node', 'id': 8939286783, 'lat': 36.8452156, 'lon': 119.3947112, 'tags': {'amenity': 'pharmacy', 'dispensing': 'no', 'healthcare': 'pharmacy', 'name': '昌邑华仁堂大药房', 'phone': '+86 139 0636 1606'}}"
"{'type': 'node', 'id': 8939286796, 'lat': 36.8496444, 'lon': 119.4027966, 'tags': {'addr:housenumber': '199', 'addr:street': '新兴街', 'amenity': 'pharmacy', 'dispensing': 'yes', 'healthcare': 'pharmacy', 'name': '昌邑华之康大药房有限公司', 'phone': '+86 139 0636 1606'}}"
"{'type': 'node', 'id': 8939286811, 'lat': 36.8570558, 'lon': 119.4268109, 'tags': {'amenity': 'pharmacy', 'dispensing': 'yes', 'healthcare': 'pharmacy', 'name': '金通大药房(东润药店)'}}"
"{'type': 'node', 'id': 8939286812, 'lat': 36.8451567, 'lon': 119.3970261, 'tags': {'amenity': 'pharmacy', 'dispensing': 'yes', 'healthcare': 'pharmacy', 'name': '金通大药房(交通药店)'}}"
"{'type': 'node', 'id': 8939306245, 'lat': 36.8831745, 'lon': 119.391354, 'tags': {'amenity': 'pharmacy', 'dispensing': 'yes', 'healthcare': 'pharmacy', 'name': '金通大药房(李家埠店)'}}"
"{'type': 'node', 'id': 8939306246, 'lat': 36.831709, 'lon': 119.4037803, 'tags': {'amenity': 'pharmacy', 'dispensing': 'yes', 'healthcare': 'pharmacy', 'name': '金通大药房(南苑药店)'}}"
"{'type': 'node', 'id': 8939306247, 'lat': 36.8479495, 'lon': 119.3791121, 'tags': {'addr:housenumber': '171', 'addr:street': '山前街', 'amenity': 'pharmacy', 'dispensing': 'yes', 'healthcare': 'pharmacy', 'name': '金通大药房(新特药店)'}}"
"{'type': 'node', 'id': 8939306248, 'lat': 36.8541733, 'lon': 119.3763748, 'tags': {'addr:housenumber': '379', 'addr:street': '都昌路', 'amenity': 'pharmacy', 'dispensing': 'yes', 'healthcare': 'pharmacy', 'name': '金通大药房(岩山药店)'}}"
"{'type': 'node', 'id': 8942011857, 'lat': 36.8553435, 'lon': 119.4614689, 'tags': {'amenity': 'pharmacy', 'dispensing': 'yes', 'healthcare': 'pharmacy', 'name': '仁和药店(第八分店)'}}"
"{'type': 'node', 'id': 8942011858, 'lat': 36.854248, 'lon': 119.3855837, 'tags': {'addr:housenumber': '529', 'addr:street': '利民街', 'amenity': 'pharmacy', 'dispensing': 'no', 'healthcare': 'pharmacy', 'name': '仁和药店(第二分店);昌邑市仁和医疗器械有限公司', 'phone': '+86 536 603 2362'}}"
"{'type': 'node', 'id': 8942011859, 'lat': 36.8599676, 'lon': 119.410102, 'tags': {'amenity': 'pharmacy', 'dispensing': 'no', 'healthcare': 'pharmacy', 'name': '仁和药店(第二十二分店)', 'phone': '+86 536 603 2361'}}"
"{'type': 'node', 'id': 8942011860, 'lat': 36.852275, 'lon': 119.4106958, 'tags': {'addr:housenumber': '53', 'addr:street': '利民街', 'amenity': 'pharmacy', 'dispensing': 'no', 'healthcare': 'pharmacy', 'name': '仁和药店(第四十五分店)', 'phone': '+86 536 603 2373'}}"
"{'type': 'node', 'id': 8942011861, 'lat': 36.8361375, 'lon': 119.3955103, 'tags': {'amenity': 'pharmacy', 'dispensing': 'yes', 'healthcare': 'pharmacy', 'name': '仁和药店(第五十二分店)', 'phone': '+86 536 310 8706'}}"
"{'type': 'node', 'id': 8942011862, 'lat': 36.8532411, 'lon': 119.395369, 'tags': {'addr:housenumber': '347', 'addr:street': '利民街', 'amenity': 'pharmacy', 'dispensing': 'yes', 'healthcare': 'pharmacy', 'name': '仁和药店(第一分店)', 'phone': '+86 536 603 2311'}}"
"{'type': 'node', 'id': 8942011863, 'lat': 36.8491246, 'lon': 119.4009724, 'tags': {'addr:housenumber': '208', 'addr:street': '新兴街', 'amenity': 'pharmacy', 'dispensing': 'no', 'healthcare': 'pharmacy', 'name': '仁和药店(第三十五分店)', 'phone': '+86 536 603 2350'}}"
"{'type': 'node', 'id': 8942011864, 'lat': 36.848922, 'lon': 119.3998176, 'tags': {'addr:housenumber': '236', 'addr:street': '新兴街', 'amenity': 'pharmacy', 'dispensing': 'yes', 'healthcare': 'pharmacy', 'name': '仁和药店(第三十七分店)', 'phone': '+86 536 314 0376'}}"
"{'type': 'node', 'id': 8942011872, 'lat': 36.8614486, 'lon': 119.3856897, 'tags': {'amenity': 'pharmacy', 'dispensing': 'yes', 'healthcare': 'pharmacy', 'name': '仁和药店(第十三分店)', 'phone': '+86 536 603 2305'}}"
"{'type': 'node', 'id': 8942011873, 'lat': 36.8660918, 'lon': 119.3992039, 'tags': {'amenity': 'pharmacy', 'dispensing': 'yes', 'healthcare': 'pharmacy', 'name': '仁和药店(第十五分店)', 'phone': '+86 536 603 2351'}}"
"{'type': 'node', 'id': 8942011874, 'lat': 36.8520548, 'lon': 119.4058658, 'tags': {'amenity': 'pharmacy', 'dispensing': 'yes', 'healthcare': 'pharmacy', 'name': '仁和药店(第三十分店)', 'phone': '+86 536 603 2530'}}"
"{'type': 'node', 'id': 8942011911, 'lat': 36.865871, 'lon': 119.4048972, 'tags': {'amenity': 'pharmacy', 'dispensing': 'yes', 'healthcare': 'pharmacy', 'name': '仁和药店(第三十九分店)', 'phone': '+86 536 603 2385'}}"
"{'type': 'node', 'id': 8946910161, 'lat': 36.8292282, 'lon': 119.4021507, 'tags': {'amenity': 'pharmacy', 'dispensing': 'no', 'healthcare': 'pharmacy', 'name': '仁和药店(第二十六分店)', 'phone': '+86 536 603 2775'}}"
"{'type': 'node', 'id': 8946910192, 'lat': 36.8573075, 'lon': 119.381278, 'tags': {'amenity': 'pharmacy', 'dispensing': 'no', 'healthcare': 'pharmacy', 'name': '仁和药店(第二十三分店)', 'phone': '+86 536 603 2309'}}"
"{'type': 'node', 'id': 8946927491, 'lat': 36.8607255, 'lon': 119.4262237, 'tags': {'amenity': 'pharmacy', 'dispensing': 'no', 'healthcare': 'pharmacy', 'name': '仁和药店(第三十二分店)', 'phone': '+86 536 603 2531'}}"
"{'type': 'node', 'id': 8946927492, 'lat': 36.8576724, 'lon': 119.3936386, 'tags': {'amenity': 'pharmacy', 'dispensing': 'no', 'healthcare': 'pharmacy', 'name': '仁和药店(第九分店)', 'phone': '+86 536 603 2371'}}"
"{'type': 'node', 'id': 8946927493, 'lat': 36.856941, 'lon': 119.3936614, 'tags': {'amenity': 'pharmacy', 'dispensing': 'no', 'healthcare': 'pharmacy', 'name': '丰华医药(第三十六店)', 'phone': '+86 138 6968 8846'}}"
"{'type': 'node', 'id': 8946927494, 'lat': 36.8629938, 'lon': 119.3778015, 'tags': {'amenity': 'pharmacy', 'dispensing': 'no', 'healthcare': 'pharmacy', 'name': '仁和药店(第六十分店)', 'phone': '+86 536 716 2328'}}"
"{'type': 'node', 'id': 8946927495, 'lat': 36.8547538, 'lon': 119.4098087, 'tags': {'amenity': 'pharmacy', 'healthcare': 'pharmacy', 'name': '仁和药店(第七分店)', 'phone': '+86 536 603 2363'}}"
"{'type': 'node', 'id': 8946927496, 'lat': 36.8621034, 'lon': 119.4062424, 'tags': {'amenity': 'pharmacy', 'dispensing': 'no', 'healthcare': 'pharmacy', 'name': '仁和药店(第三分店)', 'phone': '+86 536 603 2383'}}"
"{'type': 'node', 'id': 8946927497, 'lat': 36.8552755, 'lon': 119.4049447, 'tags': {'amenity': 'pharmacy', 'dispensing': 'no', 'healthcare': 'pharmacy', 'name': '仁和药店(第三十八分店)', 'phone': '+86 536 709 5010'}}"
"{'type': 'node', 'id': 8946927498, 'lat': 36.8569511, 'lon': 119.4289179, 'tags': {'amenity': 'pharmacy', 'dispensing': 'no', 'healthcare': 'pharmacy', 'name': '仁和药店(第三十一分店)', 'phone': '+86 536 603 2352'}}"
"{'type': 'node', 'id': 8946927559, 'lat': 36.8440899, 'lon': 119.4172548, 'tags': {'amenity': 'pharmacy', 'dispensing': 'yes', 'healthcare': 'pharmacy', 'name': '仁和药店(第十八分店)'}}"
"{'type': 'node', 'id': 8946927560, 'lat': 36.8657921, 'lon': 119.3915631, 'tags': {'amenity': 'pharmacy', 'dispensing': 'no', 'healthcare': 'pharmacy', 'name': '仁和药店(第十二分店)', 'phone': '+86 536 603 2355'}}"
"{'type': 'node', 'id': 8946927565, 'lat': 36.8450269, 'lon': 119.4071257, 'tags': {'amenity': 'pharmacy', 'dispensing': 'yes', 'healthcare': 'pharmacy', 'name': '仁和药店(第十分店)', 'phone': '+86 536 603 2754'}}"
"{'type': 'node', 'id': 8946927600, 'lat': 36.8441021, 'lon': 119.4137465, 'tags': {'amenity': 'pharmacy', 'dispensing': 'no', 'healthcare': 'pharmacy', 'name': '仁和药店(第十九分店)', 'phone': '+86 536 603 2310'}}"
"{'type': 'node', 'id': 8946927613, 'lat': 36.8512318, 'lon': 119.3770923, 'tags': {'addr:housenumber': '298-11', 'addr:street': '都昌路', 'amenity': 'pharmacy', 'dispensing': 'no', 'healthcare': 'pharmacy', 'name': '仁和药店(第十六分店)', 'phone': '+86 536 603 2353'}}"
"{'type': 'node', 'id': 8946927616, 'lat': 36.8604426, 'lon': 119.4028768, 'tags': {'amenity': 'pharmacy', 'dispensing': 'no', 'healthcare': 'pharmacy', 'name': '仁和药店(第十七分店)', 'phone': '+86 536 603 2380'}}"
"{'type': 'node', 'id': 8946927617, 'lat': 36.8387393, 'lon': 119.3863834, 'tags': {'amenity': 'pharmacy', 'dispensing': 'no', 'healthcare': 'pharmacy', 'name': '仁和药店(第十一分店)', 'phone': '+86 536 603 2365'}}"
"{'type': 'node', 'id': 8946927638, 'lat': 36.8479235, 'lon': 119.3806013, 'tags': {'addr:housenumber': '111', 'addr:street': '山前街', 'amenity': 'pharmacy', 'healthcare': 'pharmacy', 'name': '仁和药店(第四十分店)', 'phone': '+86 536 745 5269'}}"
"{'type': 'node', 'id': 8946927639, 'lat': 36.8521735, 'lon': 119.3879887, 'tags': {'amenity': 'pharmacy', 'dispensing': 'no', 'healthcare': 'pharmacy', 'name': '仁和药店(第四十三分店)', 'phone': '+86 536 745 5269'}}"
"{'type': 'node', 'id': 8946927641, 'lat': 36.8619339, 'lon': 119.3979153, 'tags': {'amenity': 'pharmacy', 'dispensing': 'no', 'healthcare': 'pharmacy', 'name': '仁和药店(第四十四分店)', 'phone': '+86 536 603 2537'}}"
"{'type': 'node', 'id': 8946927642, 'lat': 36.8446648, 'lon': 119.3882671, 'tags': {'amenity': 'pharmacy', 'dispensing': 'no', 'healthcare': 'pharmacy', 'name': '仁和药店(第四十一分店)', 'phone': '+86 536 721 0028'}}"
"{'type': 'node', 'id': 8946927647, 'lat': 36.8399871, 'lon': 119.4104363, 'tags': {'amenity': 'pharmacy', 'dispensing': 'yes', 'healthcare': 'pharmacy', 'name': '仁和药店(第五十八分店)', 'phone': '+86 536 716 2897'}}"
"{'type': 'node', 'id': 8946927670, 'lat': 36.8645218, 'lon': 119.4117502, 'tags': {'amenity': 'pharmacy', 'dispensing': 'yes', 'healthcare': 'pharmacy', 'name': '仁和药店(第五十一分店)'}}"
"{'type': 'node', 'id': 8946927671, 'lat': 36.8515083, 'lon': 119.3811692, 'tags': {'addr:housenumber': '159', 'addr:street': '建设路', 'amenity': 'pharmacy', 'dispensing': 'no', 'healthcare': 'pharmacy', 'name': '仁和药店(第五十五分店)', 'phone': '+86 536 310 8571'}}"
"{'type': 'node', 'id': 8946927685, 'lat': 36.8535173, 'lon': 119.397604, 'tags': {'amenity': 'pharmacy', 'dispensing': 'yes', 'healthcare': 'pharmacy', 'name': '仁和药店(第五十分店)', 'phone': '+86 536 603 2381'}}"
"{'type': 'node', 'id': 8946927686, 'lat': 36.8501831, 'lon': 119.4100782, 'tags': {'amenity': 'pharmacy', 'dispensing': 'no', 'healthcare': 'pharmacy', 'name': '仁和药店(第五十六分店)', 'phone': '+86 536 310 8572'}}"
"{'type': 'node', 'id': 9004568349, 'lat': 36.7385254, 'lon': 119.4550554, 'tags': {'amenity': 'hospital', 'healthcare': 'hospital', 'name': '昌邑市骨伤医院'}}"
"{'type': 'node', 'id': 9122015396, 'lat': 35.9411447, 'lon': 120.1652594, 'tags': {'amenity': 'hospital', 'healthcare': 'hospital', 'name': '急救中心'}}"
"{'type': 'node', 'id': 10924201752, 'lat': 36.0737382, 'lon': 120.3359704, 'tags': {'amenity': 'dentist', 'healthcare': 'dentist', 'healthcare:speciality': 'orthodontics', 'name': '福源牙科'}}"
"{'type': 'node', 'id': 11449435695, 'lat': 36.1310742, 'lon': 120.3678573, 'tags': {'healthcare': 'yes', 'name': '青岛市北京凯医院'}}"
"{'type': 'node', 'id': 11449435700, 'lat': 36.1313082, 'lon': 120.3683415, 'tags': {'amenity': 'pharmacy', 'healthcare': 'pharmacy', 'name': '漱玉平民大药房'}}"
"{'type': 'node', 'id': 11449435701, 'lat': 36.1309583, 'lon': 120.3683428, 'tags': {'amenity': 'pharmacy', 'healthcare': 'pharmacy', 'name': '百姓阳光大药房'}}"
"{'type': 'node', 'id': 11449435703, 'lat': 36.1314262, 'lon': 120.3680089, 'tags': {'healthcare': 'yes', 'name': '安康社区卫生服务中心'}}"
"{'type': 'node', 'id': 11449435708, 'lat': 36.1322768, 'lon': 120.3683837, 'tags': {'amenity': 'pharmacy', 'healthcare': 'pharmacy', 'name': '国风大药房'}}"
"{'type': 'node', 'id': 11449456566, 'lat': 36.0935396, 'lon': 120.3546169, 'tags': {'amenity': 'hospital', 'healthcare': 'hospital', 'name': '青岛市海慈医院-门诊'}}"
"{'type': 'node', 'id': 11449456567, 'lat': 36.0937137, 'lon': 120.3547606, 'tags': {'amenity': 'hospital', 'healthcare': 'hospital', 'name': '青岛市中医医院'}}"
"{'type': 'node', 'id': 11449456568, 'lat': 36.0941193, 'lon': 120.3551436, 'tags': {'amenity': 'hospital', 'healthcare': 'hospital', 'name': '青岛市海慈医疗-B楼'}}"
"{'type': 'node', 'id': 11449476972, 'lat': 36.0928907, 'lon': 120.3550744, 'tags': {'amenity': 'pharmacy', 'healthcare': 'pharmacy', 'name': '同方药业1'}}"
"{'type': 'node', 'id': 11449476973, 'lat': 36.0930186, 'lon': 120.3551991, 'tags': {'healthcare': 'podiatrist', 'name': '安逸源足道'}}"
"{'type': 'node', 'id': 11452091589, 'lat': 36.0927499, 'lon': 120.3688209, 'tags': {'amenity': 'pharmacy', 'brand': '海王星辰', 'brand:en': 'China Nepstar', 'brand:wikidata': 'Q5099817', 'brand:zh': '海王星辰', 'healthcare': 'pharmacy', 'name': '海王星辰', 'name:en': 'China Nepstar', 'name:zh': '海王星辰'}}"
"{'type': 'node', 'id': 11452276359, 'lat': 36.1681972, 'lon': 120.4209479, 'tags': {'amenity': 'pharmacy', 'healthcare': 'pharmacy', 'name': '辉瑞堂大药房'}}"
"{'type': 'node', 'id': 11460192427, 'lat': 36.8448498, 'lon': 119.4127759, 'tags': {'amenity': 'hospital', 'healthcare': 'psychotherapist', 'name': '昌邑市精神卫生中心城区分院'}}"
"{'type': 'node', 'id': 11462722257, 'lat': 36.1305623, 'lon': 120.3805378, 'tags': {'healthcare': 'yes', 'name': '协天和社区卫生服务站'}}"
"{'type': 'node', 'id': 11462722283, 'lat': 36.131027, 'lon': 120.3831277, 'tags': {'healthcare': 'yes', 'name': '市北寰宇天下诊所'}}"
"{'type': 'node', 'id': 11472466406, 'lat': 36.1321254, 'lon': 120.3800583, 'tags': {'healthcare': 'yes', 'name': '怡和瑞康诊所'}}"
"{'type': 'node', 'id': 11476148985, 'lat': 36.1389712, 'lon': 120.3717475, 'tags': {'amenity': 'hospital', 'healthcare': 'hospital', 'name': '青岛市中心医院'}}"
"{'type': 'node', 'id': 11482622164, 'lat': 36.1123563, 'lon': 120.4166479, 'tags': {'amenity': 'hospital', 'healthcare': 'hospital', 'name': '⼭东⼤学⻬鲁医院⻘岛院区'}}"
"{'type': 'node', 'id': 11494078592, 'lat': 36.1020963, 'lon': 120.3557897, 'tags': {'amenity': 'clinic', 'healthcare': 'clinic', 'name': '健民社区卫生服务中心1'}}"
"{'type': 'node', 'id': 11494078593, 'lat': 36.1021784, 'lon': 120.355804, 'tags': {'amenity': 'hospital', 'healthcare': 'hospital', 'name': '青岛健民医院'}}"
"{'type': 'node', 'id': 11494078603, 'lat': 36.1030571, 'lon': 120.355741, 'tags': {'amenity': 'pharmacy', 'healthcare': 'pharmacy', 'name': '国风大药房'}}"
"{'type': 'node', 'id': 11494078604, 'lat': 36.1030259, 'lon': 120.3562695, 'tags': {'amenity': 'pharmacy', 'healthcare': 'pharmacy', 'name': '医保城'}}"
"{'type': 'node', 'id': 12415129951, 'lat': 35.9848453, 'lon': 120.1645253, 'tags': {'amenity': 'clinic', 'healthcare': 'clinic', 'name': '开发区张敬杰儿科诊所'}}"
"{'type': 'node', 'id': 12415901487, 'lat': 36.2403781, 'lon': 120.6644705, 'tags': {'healthcare': 'yes', 'name': '曲家庄社区卫生室'}}"
