OSM_Data
"{'type': 'node', 'id': 2210227362, 'lat': 22.4413749, 'lon': 91.9079265, 'tags': {'amenity': 'hospital', 'emergency': 'yes', 'name': 'Pioneer hospital and diagnostic center Ltd.'}}"
"{'type': 'node', 'id': 2210381424, 'lat': 22.4412773, 'lon': 91.9086186, 'tags': {'amenity': 'hospital', 'name': 'Appolo Diagnostic Center , OS'}}"
"{'type': 'node', 'id': 2210381444, 'lat': 22.4589349, 'lon': 91.965978, 'tags': {'addr:city': 'Chittagong', 'amenity': 'hospital', 'healthcare': 'hospital', 'name': 'Ultra Assay Center'}}"
"{'type': 'node', 'id': 2210381459, 'lat': 22.4413765, 'lon': 91.9079269, 'tags': {'amenity': 'hospital', 'name': 'Pioneer hospital And diagnostic center Ltd. , OS'}}"
"{'type': 'node', 'id': 2333176629, 'lat': 23.0382598, 'lon': 91.5166759, 'tags': {'amenity': 'hospital', 'name': 'Chagalnaiya Upazila Health Complex'}}"
"{'type': 'node', 'id': 2333176631, 'lat': 23.0300437, 'lon': 91.4053964, 'tags': {'amenity': 'hospital', 'name': 'Feni General Hospital'}}"
"{'type': 'node', 'id': 2333176632, 'lat': 23.2107104, 'lon': 91.4447134, 'tags': {'amenity': 'hospital', 'name': 'Parshuram Upazila Health Complex'}}"
"{'type': 'node', 'id': 2334074205, 'lat': 22.938362, 'lon': 91.3104378, 'tags': {'amenity': 'hospital', 'name': 'দাগনভূঁইয়া উপজেলা স্বাস্থ্য কমপ্লেক্স', 'name:en': 'Daganbhuiyan Upazila Health Complex'}}"
"{'type': 'node', 'id': 2382266322, 'lat': 23.0395169, 'lon': 91.8753994, 'tags': {'amenity': 'hospital', 'name': 'Matiranga Upazila Health Complex'}}"
"{'type': 'node', 'id': 2382266618, 'lat': 23.1080103, 'lon': 91.9927821, 'tags': {'amenity': 'hospital', 'name': 'Khagrachari General Hospital'}}"
"{'type': 'node', 'id': 2382267549, 'lat': 23.2495549, 'lon': 92.0658016, 'tags': {'amenity': 'hospital', 'name': 'Dighinala Upazila Health Complex'}}"
"{'type': 'node', 'id': 2382267550, 'lat': 23.2972126, 'lon': 91.8999107, 'tags': {'amenity': 'hospital', 'name': 'Panchari Upazila Health Complex'}}"
"{'type': 'node', 'id': 2813443337, 'lat': 23.0129351, 'lon': 91.3975738, 'tags': {'amenity': 'hospital', 'healthcare': 'hospital', 'name': 'Feni Diabetic Hospital'}}"
"{'type': 'node', 'id': 2828258270, 'lat': 22.6365843, 'lon': 91.7954382, 'tags': {'amenity': 'hospital', 'name': 'Nazirhat Upazila Health  Complex', 'name:bn': 'নাজিরহাট উপজেলা স্বাস্থ্য কমপ্লেক্স'}}"
"{'type': 'node', 'id': 2828406228, 'lat': 22.8501899, 'lon': 91.8411782, 'tags': {'amenity': 'hospital', 'name': 'Manikchari Upazila Health Complex'}}"
"{'type': 'node', 'id': 5125806767, 'lat': 23.264078, 'lon': 91.3069404, 'tags': {'amenity': 'pharmacy', 'healthcare': 'pharmacy', 'name': 'JMI Syringes & Medical Devices Ltd.'}}"
"{'type': 'node', 'id': 5127744021, 'lat': 23.0086666, 'lon': 91.4000004, 'tags': {'amenity': 'pharmacy', 'healthcare': 'pharmacy', 'name': 'Town Pharmacy টাউন র্ফামেসি'}}"
"{'type': 'node', 'id': 5128085122, 'lat': 22.8849219, 'lon': 91.5380473, 'tags': {'amenity': 'pharmacy', 'name': 'Jonosheva Pharmacy'}}"
"{'type': 'node', 'id': 5154954398, 'lat': 22.4988018, 'lon': 91.8069413, 'tags': {'healthcare': 'blood_donation', 'name': 'হাটহাজারী ব্লাড ব্যাংক'}}"
"{'type': 'node', 'id': 5154996447, 'lat': 22.4992676, 'lon': 91.8073753, 'tags': {'addr:city': 'Hathazari', 'amenity': 'pharmacy', 'name': 'Medicine Centre'}}"
"{'type': 'node', 'id': 5154996448, 'lat': 22.4994733, 'lon': 91.8075013, 'tags': {'amenity': 'pharmacy', 'name': 'B Alam Pharmacy'}}"
"{'type': 'node', 'id': 5154997995, 'lat': 22.4996144, 'lon': 91.8075733, 'tags': {'amenity': 'pharmacy', 'name': 'Bismillah Pharmacy'}}"
"{'type': 'node', 'id': 5156625784, 'lat': 22.6859742, 'lon': 91.7913277, 'tags': {'amenity': 'pharmacy', 'name': 'Janasheba Pharmacy জনসেবা ফার্মেসী', 'opening_hours': 'Mo-Su,PH 09:00-22:00', 'wheelchair': 'yes'}}"
"{'type': 'node', 'id': 5158253654, 'lat': 22.8926879, 'lon': 91.6742013, 'tags': {'amenity': 'pharmacy', 'healthcare': 'pharmacy', 'name': 'Nur Medical Hall নূর মেডিকেল হল'}}"
"{'type': 'node', 'id': 5158646412, 'lat': 23.0419827, 'lon': 91.8735952, 'tags': {'addr:city': 'Matiranga', 'amenity': 'pharmacy', 'healthcare': 'pharmacy', 'name': 'PATHOLOGY CENTRE প্যাথলজি সেন্টার'}}"
"{'type': 'node', 'id': 5158663578, 'lat': 23.0433325, 'lon': 91.8731585, 'tags': {'amenity': 'pharmacy', 'healthcare': 'pharmacy', 'name': 'Bhomik Pharmacy'}}"
"{'type': 'node', 'id': 5160180826, 'lat': 23.2301645, 'lon': 92.0589247, 'tags': {'amenity': 'pharmacy', 'healthcare': 'pharmacy', 'name': 'Rahmania Homeo Pharmacy রহমানিয়া হোমিও ফার্মেসী'}}"
"{'type': 'node', 'id': 5160185870, 'lat': 23.252269, 'lon': 92.0674901, 'tags': {'addr:city': 'Dighinala', 'amenity': 'pharmacy', 'healthcare': 'pharmacy', 'name': 'Bulbul Pharmacy বুলবুল ফার্মেসী'}}"
"{'type': 'node', 'id': 5160433414, 'lat': 22.5351735, 'lon': 91.9132248, 'tags': {'amenity': 'pharmacy', 'healthcare': 'pharmacy', 'name': 'Pharmacy'}}"
"{'type': 'node', 'id': 5160570592, 'lat': 22.5346393, 'lon': 91.9201874, 'tags': {'amenity': 'pharmacy', 'healthcare': 'pharmacy', 'name': 'Rahmaniya Pharmacy'}}"
"{'type': 'node', 'id': 5580233204, 'lat': 22.9383161, 'lon': 91.3044743, 'tags': {'amenity': 'hospital', 'healthcare': 'hospital', 'name': 'জাতীয় হাসপাতাল', 'name:en': 'National Hospital'}}"
"{'type': 'node', 'id': 6120473665, 'lat': 22.5088811, 'lon': 91.8039861, 'tags': {'amenity': 'hospital', 'name': 'Hathazari Upazila Health Complex'}}"
"{'type': 'node', 'id': 6127550120, 'lat': 22.4781123, 'lon': 91.7209985, 'tags': {'amenity': 'pharmacy', 'name': 'Popular Pharmacy পপুলার ফার্মেসী'}}"
"{'type': 'node', 'id': 6127550132, 'lat': 22.4784642, 'lon': 91.7206947, 'tags': {'amenity': 'pharmacy', 'name': 'Aman Medico'}}"
"{'type': 'node', 'id': 6191479905, 'lat': 22.4979541, 'lon': 91.7144453, 'tags': {'amenity': 'pharmacy', 'dispensing': 'yes', 'healthcare': 'pharmacy', 'name': 'M/S City Pharmacy, Joramtal Bazar, Joramtal, Sitakund, Chattogram'}}"
"{'type': 'node', 'id': 6206929277, 'lat': 22.5797689, 'lon': 91.6804262, 'tags': {'healthcare': 'alternative', 'name': 'Dr. Ismail Homeo Hall'}}"
"{'type': 'node', 'id': 6207326402, 'lat': 22.581315, 'lon': 91.6795102, 'tags': {'amenity': 'pharmacy', 'dispensing': 'yes', 'healthcare': 'pharmacy', 'name': 'Priya Pharmacy'}}"
"{'type': 'node', 'id': 6215429971, 'lat': 22.6199128, 'lon': 91.6573171, 'tags': {'amenity': 'pharmacy', 'dispensing': 'yes', 'healthcare': 'pharmacy', 'name': 'Janani Pharmacy'}}"
"{'type': 'node', 'id': 6215438211, 'lat': 22.618863, 'lon': 91.6582291, 'tags': {'amenity': 'pharmacy', 'dispensing': 'yes', 'healthcare': 'pharmacy', 'name': 'Nobi Pharmacy'}}"
"{'type': 'node', 'id': 6215439374, 'lat': 22.6193062, 'lon': 91.6582505, 'tags': {'amenity': 'pharmacy', 'dispensing': 'yes', 'healthcare': 'pharmacy', 'name': 'Janosheba Medical Store'}}"
"{'type': 'node', 'id': 6241217367, 'lat': 22.7552896, 'lon': 91.5862423, 'tags': {'amenity': 'pharmacy', 'dispensing': 'yes', 'healthcare': 'pharmacy', 'name': 'Hoque Pharmacy, Dhaka - Chittagong Hwy, Mirsharai, Chittagong'}}"
"{'type': 'node', 'id': 6241220128, 'lat': 22.7557125, 'lon': 91.5858185, 'tags': {'amenity': 'pharmacy', 'dispensing': 'yes', 'healthcare': 'pharmacy', 'name': 'Messrs Sofi Pharmacy'}}"
"{'type': 'node', 'id': 6241221716, 'lat': 22.7574146, 'lon': 91.5846473, 'tags': {'amenity': 'pharmacy', 'dispensing': 'yes', 'healthcare': 'pharmacy', 'name': 'Peoples Pharmacy, Dhaka - Chittagong Hwy, Mirsharai, Chittagong'}}"
"{'type': 'node', 'id': 6905030116, 'lat': 23.5545804, 'lon': 91.4556831, 'tags': {'addr:city': 'Udaipur', 'addr:district': 'Gomati', 'addr:full': 'District Hospital, Near Tepania Eco Park, Udaipur Gomati', 'addr:postcode': '799114', 'addr:state': 'Tripura', 'amenity': 'hospital', 'contact:mobile': '9436131338', 'email': 'bloodbankdhg@gmail.com', 'fax': '03821 222410', 'healthcare': 'hospital', 'name': 'Gomati District Hospital', 'opening_hours': '24/7', 'operator': 'state govt.', 'operator:type': 'government', 'source': 'OpenGovernmentData'}}"
"{'type': 'node', 'id': 6908065217, 'lat': 23.4302601, 'lon': 91.7537865, 'tags': {'addr:district': 'South Tripura', 'addr:full': 'Near Nutan Bazar Market, Nutan Bazar', 'addr:postcode': '799104', 'addr:state': 'Tripura', 'addr:subdistrict': 'Karbuk', 'amenity': 'clinic', 'healthcare': 'centre', 'name': 'Natunbazar Rural Hospital(CHC)', 'source': 'OpenGovernmentData'}}"
"{'type': 'node', 'id': 6908083736, 'lat': 23.0668626, 'lon': 91.6445223, 'tags': {'addr:district': 'South', 'addr:full': 'Near South manubazar High School, Manu Bazar, Manu Bazar', 'addr:postcode': '799143', 'addr:state': 'Tripura', 'addr:subdistrict': 'Satchand', 'amenity': 'hospital', 'healthcare': 'centre', 'name': 'Manubazar Rural Hospital', 'source': 'OpenGovernmentData'}}"
"{'type': 'node', 'id': 6908083765, 'lat': 23.5363433, 'lon': 91.4974934, 'tags': {'addr:district': 'Gomati', 'addr:full': 'Near DM Office, Dak Bunglow Rd', 'addr:postcode': '799120', 'addr:state': 'Tripura', 'addr:subdistrict': 'Matarbari', 'amenity': 'hospital', 'description': 'Sub-District Hospital', 'name': 'Tripura Sundari Sub divisional Hospital', 'source': 'OpenGovernmentData'}}"
"{'type': 'node', 'id': 6908083775, 'lat': 23.2505139, 'lon': 91.4676967, 'tags': {'addr:block': 'Belonia', 'addr:district': 'South', 'addr:full': 'Near 1 No Tilla Bazar, Belonia MC, 1 No Tilla Bazar', 'addr:postcode': '799155', 'addr:state': 'Tripura', 'amenity': 'hospital', 'contact:phone': '3823222204', 'description': 'Sub-District Hospital', 'name': 'Belonia Sub-divisional Hospital', 'source': 'OpenGovernmentData'}}"
"{'type': 'node', 'id': 6908100827, 'lat': 23.5166478, 'lon': 91.6502009, 'tags': {'addr:district': 'Gomati', 'addr:full': 'East Bank of Fatik Sagar, Sukumar Colony, Hospital Road, Amarpur Nagar Panchayet', 'addr:postcode': '799101', 'addr:state': 'Tripura', 'addr:subdistrict': 'Amarpur', 'amenity': 'hospital', 'contact:phone': '03821 263557', 'description': 'Sub-District Hospital', 'name': 'Amarpur Sub divisional Hospital', 'source': 'OpenGovernmentData'}}"
"{'type': 'node', 'id': 6909859252, 'lat': 23.6994582, 'lon': 92.6038416, 'tags': {'addr:district': 'Mamit', 'addr:full': 'Reiek Road,Near Chualio Resort,Reiek', 'addr:postcode': '796501', 'addr:state': 'Mizoram', 'addr:subdistrict': 'Reiek', 'healthcare': 'centre', 'name': 'PHC, Reiek', 'source': 'OpenGovernmentData'}}"
"{'type': 'node', 'id': 6909859463, 'lat': 22.8694223, 'lon': 92.5902857, 'tags': {'addr:district': 'Lunglei', 'addr:full': 'Tlabung-Lunglei Road,Near Sports Complex,Lungsen', 'addr:postcode': '796571', 'addr:state': 'Mizoram', 'addr:subdistrict': 'Lungsen', 'healthcare': 'centre', 'name': 'PHC, Lungsen', 'source': 'OpenGovernmentData'}}"
"{'type': 'node', 'id': 6911271614, 'lat': 23.5580717, 'lon': 92.5758903, 'tags': {'addr:district': 'Mamit', 'addr:full': 'Near Kanghmun B.O,North Kanghmun', 'addr:postcode': '796501', 'addr:state': 'Mizoram', 'addr:subdistrict': 'Reiek', 'healthcare': 'centre', 'name': 'PHC, Kanghmun', 'source': 'OpenGovernmentData'}}"
"{'type': 'node', 'id': 6911271619, 'lat': 23.6959179, 'lon': 92.4887922, 'tags': {'addr:district': 'Mamit', 'addr:full': 'West Phaileng', 'addr:postcode': '796431', 'addr:state': 'Mizoram', 'healthcare': 'centre', 'name': 'PHC, West Phaileng', 'source': 'OpenGovernmentData'}}"
"{'type': 'node', 'id': 7127376533, 'lat': 23.1878322, 'lon': 92.4901156, 'tags': {'addr:district': 'Lunglei', 'addr:full': 'Near Police Station,Bunghmun', 'addr:postcode': '796710', 'addr:state': 'Mizoram', 'addr:subdistrict': 'West Bunhgmun', 'description': 'Primary Health Centre', 'healthcare': 'centre', 'name': 'PHC,Bunghmun', 'source': 'OpenGovernmentData'}}"
"{'type': 'node', 'id': 7127376535, 'lat': 23.477444, 'lon': 92.420251, 'tags': {'addr:district': 'Mamit', 'addr:full': 'W Phaileng-Marpara Road,Near BSF Camp,Phuldungsei', 'addr:postcode': '796431', 'addr:state': 'Mizoram', 'addr:subdistrict': 'Westphaileng', 'description': 'Primary Health Centre', 'healthcare': 'centre', 'name': 'PHC,Phuldungsei', 'source': 'OpenGovernmentData'}}"
"{'type': 'node', 'id': 7127376536, 'lat': 22.6163566, 'lon': 92.6382886, 'tags': {'addr:district': 'Lawngtlai', 'addr:full': 'Thana Road,Near Police Station,Chawngte', 'addr:postcode': '796772', 'addr:state': 'Mizoram', 'addr:subdistrict': 'Chawngte', 'amenity': 'hospital', 'description': 'Community Health Center', 'healthcare': 'centre', 'name': 'CHC,Chawngte', 'source': 'OpenGovernmentData'}}"
"{'type': 'node', 'id': 7127376546, 'lat': 22.906431, 'lon': 92.469788, 'tags': {'addr:district': 'Lunglei', 'addr:full': 'TH Lewin Road,Near Post Office,Tlabung', 'addr:postcode': '796751', 'addr:state': 'Mizoram', 'addr:subdistrict': 'Lungsen', 'amenity': 'hospital', 'name': 'Civil Hospital,Tlabung', 'source': 'OpenGovernmentData'}}"
"{'type': 'node', 'id': 7127376547, 'lat': 22.7066754, 'lon': 92.5292909, 'tags': {'addr:district': 'Lawngtlai', 'addr:full': 'Near Police Station,Borapansury II', 'addr:postcode': '796770', 'addr:state': 'Mizoram', 'addr:subdistrict': 'Chawngte', 'amenity': 'hospital', 'name': 'Borapansury Hospital', 'source': 'OpenGovernmentData'}}"
"{'type': 'node', 'id': 7127376557, 'lat': 23.5658198, 'lon': 92.5844894, 'tags': {'addr:district': 'Aizawl', 'addr:full': 'Kanghmun', 'addr:postcode': '796001', 'addr:state': 'Mizoram', 'description': 'Primary Health Centre', 'healthcare': 'centre', 'name': 'Kanghmun PHC', 'source': 'OpenGovernmentData'}}"
"{'type': 'node', 'id': 7127657818, 'lat': 23.1148806, 'lon': 91.707596, 'tags': {'addr:district': 'South', 'addr:full': 'Near Dhamadipa School, Mohamuni ADC Village, Dakshin Manu Bankul', 'addr:postcode': '799145', 'addr:state': 'Tripura', 'addr:subdistrict': 'Rupaichhari', 'description': 'Community Health Center', 'healthcare': 'centre', 'name': 'Manubankul, CHC', 'source': 'OpenGovernmentData'}}"
"{'type': 'node', 'id': 7127657819, 'lat': 23.4848604, 'lon': 91.4983684, 'tags': {'addr:district': 'Gomati', 'addr:full': 'Near Tepania Block, Tepania', 'addr:postcode': '799114', 'addr:state': 'Tripura', 'addr:subdistrict': 'Matarbari', 'amenity': 'hospital', 'description': 'District Hospital', 'name': 'District Integrated AYUSH Hospital, Gomati', 'source': 'OpenGovernmentData'}}"
"{'type': 'node', 'id': 7127657820, 'lat': 23.310504, 'lon': 91.5575974, 'tags': {'addr:district': 'South', 'addr:full': 'Santirbazar, Santirbazar', 'addr:postcode': '799144', 'addr:state': 'Tripura', 'addr:subdistrict': 'Jolaibari', 'amenity': 'hospital', 'name': 'Sub-Divsional Hospital', 'source': 'OpenGovernmentData'}}"
"{'type': 'node', 'id': 7127657822, 'lat': 23.6556741, 'lon': 91.8083302, 'tags': {'addr:district': 'Dhalai', 'addr:full': 'Ultachara, CRPF Camp Gandachara Sub Division, Ambassa Gandachara Road', 'addr:postcode': '799284', 'addr:state': 'Tripura', 'addr:subdistrict': 'Dumburnagar', 'description': 'Primary Health Centre', 'healthcare': 'centre', 'name': 'Jagabandhupara, PHC', 'source': 'OpenGovernmentData'}}"
"{'type': 'node', 'id': 7127657824, 'lat': 23.6050187, 'lon': 91.8177781, 'tags': {'addr:district': 'Dhalai', 'addr:full': 'Near Govt Revenue Duck Bunglow, 60 Card Gandachra Sub Division, Hospital Road', 'addr:postcode': '799284', 'addr:state': 'Tripura', 'addr:subdistrict': 'Dumburnagar', 'amenity': 'hospital', 'contact:phone': '3826265233', 'description': 'Sub-District Hospital', 'name': 'Gandacherra Sub Divisional Hospital', 'source': 'OpenGovernmentData'}}"
"{'type': 'node', 'id': 7127657826, 'lat': 23.1402138, 'lon': 91.6268078, 'tags': {'addr:district': 'South', 'addr:full': 'Near Bhuratoli Road, North Bhuratoli GP, Uttar Bhuratoli', 'addr:postcode': '799143', 'addr:state': 'Tripura', 'addr:subdistrict': 'Satchand', 'description': 'Primary Health Centre', 'healthcare': 'centre', 'name': 'Kalachara, PHC', 'source': 'OpenGovernmentData'}}"
"{'type': 'node', 'id': 7127657827, 'lat': 23.6209384, 'lon': 91.4566533, 'tags': {'addr:district': 'Gomati', 'addr:full': 'Near Atharabhola Tripura Gramin Bank, Atharabhola Para', 'addr:postcode': '799114', 'addr:state': 'Tripura', 'addr:subdistrict': 'Matarbari', 'description': 'Primary Health Centre', 'healthcare': 'centre', 'name': 'Atharabhola, PHC', 'source': 'OpenGovernmentData'}}"
"{'type': 'node', 'id': 7127657829, 'lat': 23.314183, 'lon': 91.327988, 'tags': {'addr:district': 'Sepahijala', 'addr:full': 'Sonamura Barpathori Road., Nidaya GP', 'addr:postcode': '799131', 'addr:state': 'Tripura', 'addr:subdistrict': 'Kathalia', 'description': 'Primary Health Centre', 'healthcare': 'centre', 'name': 'Nidaya, PHC', 'source': 'OpenGovernmentData'}}"
"{'type': 'node', 'id': 7127657830, 'lat': 23.4809103, 'lon': 91.4098092, 'tags': {'addr:district': 'Gomati', 'addr:full': 'Opp. Kakraban PWD Office, Kakraban', 'addr:postcode': '799105', 'addr:state': 'Tripura', 'addr:subdistrict': 'Kakraban', 'description': 'Primary Health Centre', 'healthcare': 'centre', 'name': 'Kakraban, PHC', 'source': 'OpenGovernmentData'}}"
"{'type': 'node', 'id': 7127657833, 'lat': 23.6149232, 'lon': 91.5139593, 'tags': {'addr:district': 'Gomati', 'addr:full': 'Near Assam Rifel Camp, Killa', 'addr:postcode': '799114', 'addr:state': 'Tripura', 'addr:subdistrict': 'Killa', 'description': 'Primary Health Centre', 'healthcare': 'centre', 'name': 'Killa, PHC', 'source': 'OpenGovernmentData'}}"
"{'type': 'node', 'id': 7127657839, 'lat': 23.077206, 'lon': 91.5363, 'tags': {'addr:district': 'South', 'addr:full': 'Near Cold Storage, Joypur GP, Joypur', 'addr:postcode': '799156', 'addr:state': 'Tripura', 'addr:subdistrict': 'Hrishyamukh', 'description': 'Primary Health Centre', 'healthcare': 'centre', 'name': 'Nalua, PHC', 'source': 'OpenGovernmentData'}}"
"{'type': 'node', 'id': 7127657841, 'lat': 23.6685402, 'lon': 91.5030952, 'tags': {'addr:district': 'Sepahijala', 'addr:full': 'Near Thalakung CRPF Camp., Thalakung ADC', 'addr:postcode': '799114', 'addr:state': 'Tripura', 'addr:subdistrict': 'Jampuijala', 'description': 'Primary Health Centre', 'healthcare': 'centre', 'name': 'Thelakung, PHC', 'source': 'OpenGovernmentData'}}"
"{'type': 'node', 'id': 7127657842, 'lat': 23.227229, 'lon': 91.5701374, 'tags': {'addr:district': 'South', 'addr:full': 'Near Muhuripur Bazar, Muhuripur RF GP, Muhuripur', 'addr:postcode': '799142', 'addr:state': 'Tripura', 'addr:subdistrict': 'Jolaibari', 'description': 'Primary Health Centre', 'healthcare': 'centre', 'name': 'Muhuripur, PHC', 'source': 'OpenGovernmentData'}}"
"{'type': 'node', 'id': 7127657843, 'lat': 23.118109, 'lon': 91.5296157, 'tags': {'addr:district': 'South', 'addr:full': 'Near Hrishyamukh School, Haripur GP, Haripur', 'addr:postcode': '799156', 'addr:state': 'Tripura', 'addr:subdistrict': 'Hrishyamukh', 'description': 'Community Health Center', 'healthcare': 'centre', 'name': 'Hrishyamukh, CHC', 'source': 'OpenGovernmentData'}}"
"{'type': 'node', 'id': 7127657845, 'lat': 23.2707782, 'lon': 91.5776803, 'tags': {'addr:district': 'South', 'addr:full': 'Behind Baikhora Girls H.S School, East Charakbai GP, Baikhora Laxmichara Road', 'addr:postcode': '799142', 'addr:state': 'Tripura', 'addr:subdistrict': 'Bokafa', 'description': 'Primary Health Centre', 'healthcare': 'centre', 'name': 'Baikhora, PHC', 'source': 'OpenGovernmentData'}}"
"{'type': 'node', 'id': 7127657847, 'lat': 23.3367451, 'lon': 91.4890474, 'tags': {'addr:district': 'South', 'addr:full': 'Near Forest Beat Office, Paikhola GP, Paikhola', 'addr:postcode': '799125', 'addr:state': 'Tripura', 'addr:subdistrict': 'Rajnagar', 'description': 'Primary Health Centre', 'healthcare': 'centre', 'name': 'Paikhola, PHC', 'source': 'OpenGovernmentData'}}"
"{'type': 'node', 'id': 7127657851, 'lat': 23.297425, 'lon': 91.404781, 'tags': {'addr:district': 'South', 'addr:full': 'Near Samar Choudhury Smriti Milanyatan, Barpathari GP, Belonia - Bhabanipur Rd', 'addr:postcode': '799155', 'addr:state': 'Tripura', 'addr:subdistrict': 'Rajnagar', 'description': 'Primary Health Centre', 'healthcare': 'centre', 'name': 'Barpathari, PHC', 'source': 'OpenGovernmentData'}}"
"{'type': 'node', 'id': 7127657852, 'lat': 23.4387543, 'lon': 91.3718885, 'tags': {'addr:district': 'Sepahijala', 'addr:full': 'Near Taibandal Bazar, Sonamura Sub Division, North Taibandal GP', 'addr:postcode': '799115', 'addr:state': 'Tripura', 'description': 'Primary Health Centre', 'healthcare': 'centre', 'name': 'Taibandal, PHC', 'source': 'OpenGovernmentData'}}"
"{'type': 'node', 'id': 7127657853, 'lat': 23.1144191, 'lon': 91.3792359, 'tags': {'addr:district': 'South', 'addr:full': 'Near Chottakhola HS School, Uttar Srirampur GP, Bhairabnagar', 'addr:postcode': '799015', 'addr:state': 'Tripura', 'addr:subdistrict': 'Rajnagar', 'description': 'Primary Health Centre', 'healthcare': 'centre', 'name': 'Chottakhola, PHC', 'source': 'OpenGovernmentData'}}"
"{'type': 'node', 'id': 7127657854, 'lat': 23.2696842, 'lon': 91.5141774, 'tags': {'addr:district': 'South', 'addr:full': 'Near Maichara Bazar, Maichara, Belonia Sub division, Maichara', 'addr:postcode': '799155', 'addr:state': 'Tripura', 'addr:subdistrict': 'Rajnagar', 'description': 'Primary Health Centre', 'healthcare': 'centre', 'name': 'Maichara, PHC', 'source': 'OpenGovernmentData'}}"
"{'type': 'node', 'id': 7127657857, 'lat': 23.512957, 'lon': 91.563142, 'tags': {'addr:district': 'Gomati', 'addr:full': 'Near 10th BN BSF Camp, Maharani Bazar', 'addr:postcode': '799013', 'addr:state': 'Tripura', 'addr:subdistrict': 'Matarbari', 'description': 'Primary Health Centre', 'healthcare': 'centre', 'name': 'Maharani, PHC', 'source': 'OpenGovernmentData'}}"
"{'type': 'node', 'id': 7127657860, 'lat': 23.4266408, 'lon': 91.4471934, 'tags': {'addr:district': 'Gomati', 'addr:full': 'Near Uttar Tulamura Gram Panchayat, Uttar Tulamura GP', 'addr:postcode': '799105', 'addr:state': 'Tripura', 'addr:subdistrict': 'Kakraban', 'description': 'Primary Health Centre', 'healthcare': 'centre', 'name': 'Tulamura, PHC', 'source': 'OpenGovernmentData'}}"
"{'type': 'node', 'id': 7127657862, 'lat': 23.6764821, 'lon': 91.6348024, 'tags': {'addr:district': 'Gomati', 'addr:full': 'Near Ompinagar Motor Syndicate, Ompinagar', 'addr:postcode': '799101', 'addr:state': 'Tripura', 'addr:subdistrict': 'Amarpur', 'description': 'Community Health Center', 'healthcare': 'centre', 'name': 'Ompi, CHC', 'source': 'OpenGovernmentData'}}"
"{'type': 'node', 'id': 7127657866, 'lat': 23.239399, 'lon': 91.6991821, 'tags': {'addr:district': 'South', 'addr:full': 'Kowaifung Bazar, Kowaifung Turma ADC Village', 'addr:postcode': '799104', 'addr:state': 'Tripura', 'addr:subdistrict': 'Bokafa', 'description': 'Primary Health Centre', 'healthcare': 'centre', 'name': 'Kowaifung, PHC', 'source': 'OpenGovernmentData'}}"
"{'type': 'node', 'id': 7127657867, 'lat': 23.679201, 'lon': 91.369235, 'tags': {'addr:district': 'Sepahijala', 'addr:full': 'Near T. S. R. Camp, Dayarampara ADC Village.', 'addr:postcode': '799102', 'addr:state': 'Tripura', 'addr:subdistrict': 'Bishalgarh', 'description': 'Primary Health Centre', 'healthcare': 'centre', 'name': 'Dayarampara, PHC', 'source': 'OpenGovernmentData'}}"
"{'type': 'node', 'id': 7127657868, 'lat': 23.226004, 'lon': 91.527254, 'tags': {'addr:district': 'South', 'addr:full': 'Near Ratanpur Bazar, Golachipa, Dakshin Sonaichhari', 'addr:postcode': '799155', 'addr:state': 'Tripura', 'addr:subdistrict': 'Hrishyamukh', 'description': 'Primary Health Centre', 'healthcare': 'centre', 'name': 'Ratanpur, PHC', 'source': 'OpenGovernmentData'}}"
"{'type': 'node', 'id': 7127657869, 'lat': 23.3667701, 'lon': 91.320954, 'tags': {'addr:district': 'Sepahijala', 'addr:full': 'Near Kathalia RD Block, Kathalia', 'addr:postcode': '799131', 'addr:state': 'Tripura', 'addr:subdistrict': 'Kathalia', 'description': 'Community Health Center', 'healthcare': 'centre', 'name': 'Kathalia, CHC', 'source': 'OpenGovernmentData'}}"
"{'type': 'node', 'id': 7127657870, 'lat': 23.768532, 'lon': 92.227571, 'tags': {'addr:district': 'North', 'addr:full': 'Purba Bhandarima ADC Village', 'addr:postcode': '799271', 'addr:state': 'Tripura', 'addr:subdistrict': 'Dasda', 'description': 'Primary Health Centre', 'healthcare': 'centre', 'name': 'Bhandarima, PHC', 'source': 'OpenGovernmentData'}}"
"{'type': 'node', 'id': 7127657877, 'lat': 23.7359279, 'lon': 91.3161041, 'tags': {'addr:district': 'West', 'addr:full': 'Near Laxmichara High Sencondary School, Kanchanmala, Shekerkot Kanchamala Road', 'addr:postcode': '799130', 'addr:state': 'Tripura', 'addr:subdistrict': 'Dukli', 'description': 'Primary Health Centre', 'healthcare': 'centre', 'name': 'Kanchanmala, PHC', 'source': 'OpenGovernmentData'}}"
"{'type': 'node', 'id': 7127657886, 'lat': 23.316526, 'lon': 91.555177, 'tags': {'addr:district': 'South', 'addr:full': 'Opps Divisional PWD Office, Santirbazar, Santirbazar, Santirbazar Trijunction', 'addr:postcode': '799144', 'addr:state': 'Tripura', 'addr:subdistrict': 'Bokafa', 'amenity': 'hospital', 'description': 'District Hospital', 'name': 'District Hospital South', 'source': 'OpenGovernmentData'}}"
"{'type': 'node', 'id': 7127657887, 'lat': 23.2310128, 'lon': 91.7709759, 'tags': {'addr:district': 'Gomati', 'addr:full': 'Near Silachai Dak Bangla, Netaji Pally', 'addr:postcode': '799104', 'addr:state': 'Tripura', 'addr:subdistrict': 'Silachari', 'description': 'Primary Health Centre', 'healthcare': 'centre', 'name': 'Silachari, PHC', 'source': 'OpenGovernmentData'}}"
"{'type': 'node', 'id': 7127657894, 'lat': 23.45547, 'lon': 91.9143, 'tags': {'addr:district': 'Dhalai', 'addr:full': 'Near Raishyabari Police Station, Purba Potachhara, Rajbari Road', 'addr:postcode': '799104', 'addr:state': 'Tripura', 'addr:subdistrict': 'Dumburnagar', 'contact:phone': '3826217742', 'description': 'Primary Health Centre', 'healthcare': 'centre', 'name': 'Raishyabari, PHC', 'source': 'OpenGovernmentData'}}"
"{'type': 'node', 'id': 7127657895, 'lat': 23.225287, 'lon': 91.612184, 'tags': {'addr:district': 'South', 'addr:full': 'Near DWS Office, North Jolaibari GP, North Jolaibari', 'addr:postcode': '799141', 'addr:state': 'Tripura', 'addr:subdistrict': 'Jolaibari', 'description': 'Community Health Center', 'healthcare': 'centre', 'name': 'Jolaibari, CHC', 'source': 'OpenGovernmentData'}}"
"{'type': 'node', 'id': 7127657897, 'lat': 23.608801, 'lon': 91.350772, 'tags': {'addr:district': 'Sepahijala', 'addr:full': 'Near Bishramganj Bazar, Shillong - Agartala - Sabrum Rd, Bishramganj GP', 'addr:postcode': '799103', 'addr:state': 'Tripura', 'addr:subdistrict': 'Bishalgarh', 'description': 'Primary Health Centre', 'healthcare': 'centre', 'name': 'Bishramganj, PHC', 'source': 'OpenGovernmentData'}}"
"{'type': 'node', 'id': 7127657900, 'lat': 23.3756537, 'lon': 91.5047888, 'tags': {'addr:district': 'South', 'addr:full': 'Near BC Nagar Bazar, BC Nagar ADC Village, BC Nagar', 'addr:postcode': '799125', 'addr:state': 'Tripura', 'addr:subdistrict': 'Bokafa', 'description': 'Primary Health Centre', 'healthcare': 'centre', 'name': 'Birchandra Memorial Hospital, PHC', 'source': 'OpenGovernmentData'}}"
"{'type': 'node', 'id': 7127657902, 'lat': 23.2351652, 'lon': 91.3956458, 'tags': {'addr:district': 'South', 'addr:full': 'Near Rajnagar RD Block Office, Rajnagar GP, Rajnagar', 'addr:postcode': '799150', 'addr:state': 'Tripura', 'addr:subdistrict': 'Rajnagar', 'description': 'Community Health Center', 'healthcare': 'centre', 'name': 'Rajnagar, CHC', 'source': 'OpenGovernmentData'}}"
"{'type': 'node', 'id': 7127657905, 'lat': 23.551637, 'lon': 91.355324, 'tags': {'addr:district': 'Sepahijala', 'addr:full': 'Near Nalchar Bazar., Paschim Nalchar, Nalchar.', 'addr:postcode': '799115', 'addr:state': 'Tripura', 'description': 'Primary Health Centre', 'healthcare': 'centre', 'name': 'Sukumar Barman Memorial, PHC', 'source': 'OpenGovernmentData'}}"
"{'type': 'node', 'id': 7127657906, 'lat': 23.4255735, 'lon': 91.6800006, 'tags': {'addr:district': 'Gomati', 'addr:full': 'Near Chellagang Bazar, Chellagang', 'addr:postcode': '799144', 'addr:state': 'Tripura', 'addr:subdistrict': 'Karbuk', 'description': 'Primary Health Centre', 'healthcare': 'centre', 'name': 'Chellagang, PHC', 'source': 'OpenGovernmentData'}}"
"{'type': 'node', 'id': 7149251864, 'lat': 23.4868754, 'lon': 91.3301356, 'tags': {'addr:full': 'telkajla', 'addr:state': 'Tripura', 'description': 'Health- Sub Centre', 'healthcare': 'centre', 'name': 'Sub Centre, telkajla', 'source': 'OpenGovernmentData'}}"
"{'type': 'node', 'id': 7149251869, 'lat': 23.5630824, 'lon': 91.4336528, 'tags': {'addr:full': 'Barabhaiya', 'addr:state': 'Tripura', 'description': 'Health- Sub Centre', 'healthcare': 'centre', 'name': 'Sub Health Center ,Barabhaiya', 'source': 'OpenGovernmentData'}}"
"{'type': 'node', 'id': 7149251874, 'lat': 23.0749064, 'lon': 91.3949364, 'tags': {'addr:full': 'Baraiya', 'addr:state': 'Tripura', 'description': 'Health- Sub Centre', 'healthcare': 'centre', 'name': 'Health Sub Centre ,Gouranga Bazar', 'source': 'OpenGovernmentData'}}"
"{'type': 'node', 'id': 7149273586, 'lat': 23.0517508, 'lon': 91.7311751, 'tags': {'addr:full': 'paschim Ludhua', 'addr:state': 'Tripura', 'description': 'Health- Sub Centre', 'healthcare': 'centre', 'name': 'Health Sub-Centre ,West Ludhua', 'source': 'OpenGovernmentData'}}"
"{'type': 'node', 'id': 7149273595, 'lat': 23.0570305, 'lon': 91.634799, 'tags': {'addr:full': 'Kaladhepa', 'addr:state': 'Tripura', 'description': 'Health- Sub Centre', 'healthcare': 'centre', 'name': 'Sub Centre, Kaladhepa', 'source': 'OpenGovernmentData'}}"
"{'type': 'node', 'id': 7149273618, 'lat': 23.1629165, 'lon': 91.8027797, 'tags': {'addr:full': 'Ghruakappa', 'addr:state': 'Tripura', 'description': 'Health- Sub Centre', 'healthcare': 'centre', 'name': 'Sub Centre, Ghurakappa', 'source': 'OpenGovernmentData'}}"
"{'type': 'node', 'id': 7149273641, 'lat': 23.7354387, 'lon': 91.3946142, 'tags': {'addr:full': 'Ratanpur', 'addr:state': 'Tripura', 'description': 'Health- Sub Centre', 'healthcare': 'centre', 'name': 'Health Sub-Centre ,Ratanpur', 'source': 'OpenGovernmentData'}}"
"{'type': 'node', 'id': 7149273651, 'lat': 23.4223587, 'lon': 91.7220828, 'tags': {'addr:full': 'Uttar Ekchhari', 'addr:state': 'Tripura', 'description': 'Health- Sub Centre', 'healthcare': 'centre', 'name': 'health sub centre ,Bhanu Karbari Para', 'source': 'OpenGovernmentData'}}"
"{'type': 'node', 'id': 7149273672, 'lat': 23.5590417, 'lon': 91.634616, 'tags': {'addr:full': 'Bampur', 'addr:state': 'Tripura', 'description': 'Health- Sub Centre', 'healthcare': 'centre', 'name': 'Health Sub Centre ,Bampur', 'source': 'OpenGovernmentData'}}"
"{'type': 'node', 'id': 7149273723, 'lat': 23.5356517, 'lon': 91.883761, 'tags': {'addr:full': 'Tuichakma', 'addr:state': 'Tripura', 'description': 'Health- Sub Centre', 'healthcare': 'centre', 'name': 'Sub Centre, Tuichakma', 'source': 'OpenGovernmentData'}}"
"{'type': 'node', 'id': 7151041291, 'lat': 23.263491, 'lon': 92.4763827, 'tags': {'addr:full': 'Laisawral', 'addr:state': 'Mizoram', 'description': 'Health- Sub Centre', 'healthcare': 'centre', 'name': 'Sub Centre 1, Laisawral', 'source': 'OpenGovernmentData'}}"
"{'type': 'node', 'id': 7151041306, 'lat': 23.2659899, 'lon': 92.4757983, 'tags': {'addr:full': 'Laisawral', 'addr:state': 'Mizoram', 'description': 'Health- Sub Centre', 'healthcare': 'centre', 'name': 'Sub Centre, Laisawral', 'source': 'OpenGovernmentData'}}"
"{'type': 'node', 'id': 7151041358, 'lat': 23.718408, 'lon': 92.4130762, 'tags': {'addr:full': 'Damparengpui', 'addr:state': 'Mizoram', 'description': 'Health- Sub Centre', 'healthcare': 'centre', 'name': 'Sub Centre, Damparengpui', 'source': 'OpenGovernmentData'}}"
"{'type': 'node', 'id': 7151041378, 'lat': 23.0387541, 'lon': 92.577631, 'tags': {'addr:full': 'Zawlpui', 'addr:state': 'Mizoram', 'description': 'Health- Sub Centre', 'healthcare': 'centre', 'name': 'Sub Centre, Zawlpui', 'source': 'OpenGovernmentData'}}"
"{'type': 'node', 'id': 7153678943, 'lat': 23.240547, 'lon': 91.6319022, 'tags': {'addr:full': 'Uttar Hichachara', 'addr:state': 'Tripura', 'description': 'Health- Sub Centre', 'healthcare': 'centre', 'name': 'Sub Centre ,Kalashi', 'source': 'OpenGovernmentData'}}"
"{'type': 'node', 'id': 7210907225, 'lat': 23.4931778, 'lon': 91.3323109, 'tags': {'addr:district': 'South Tripura', 'addr:full': 'Melaghar, Sonamura', 'addr:postcode': '799115', 'addr:state': 'Tripura', 'amenity': 'hospital', 'name': 'Melaghar hospital', 'source': 'OpenGovernmentData'}}"
"{'type': 'node', 'id': 7316812527, 'lat': 22.4977735, 'lon': 91.8074065, 'tags': {'amenity': 'clinic', 'contact:phone': '01819603404', 'health_amenity:type': 'dialysis;x_ray', 'healthcare': 'blood_donation;clinic;doctor;hospital;laboratory', 'healthcare:speciality': 'blood_check', 'name': 'Hathazari Adhunik Hospital', 'operator:type': 'private'}}"
"{'type': 'node', 'id': 7389677452, 'lat': 22.5028239, 'lon': 92.2095287, 'tags': {'addr:city': 'Rangamati', 'addr:housenumber': 'Log gate', 'addr:postcode': '4533', 'addr:street': 'log gate hospital road', 'amenity': 'hospital', 'healthcare': 'hospital', 'healthcare:speciality': 'general', 'internet_access': 'no', 'name': 'লগ গেইট সরকারি হাসপাতাল', 'operator': 'Government', 'source': 'local knowledge;survey'}}"
"{'type': 'node', 'id': 7411762902, 'lat': 22.4524537, 'lon': 91.8317255, 'tags': {'addr:city': 'Chittagong', 'addr:postcode': '4335', 'addr:street': 'Data-Ram Chowdhury Road,Chowdhuryhat,Fatehabad,Hathazari', 'amenity': 'pharmacy', 'dispensing': 'yes', 'drive_through': 'yes', 'healthcare': 'pharmacy', 'name': 'Tishi Medico', 'name:bn': 'তিশী মেডিকো', 'opening_hours': 'Mo-Su 10:00-22:00'}}"
"{'type': 'node', 'id': 7461803432, 'lat': 22.6577767, 'lon': 92.1733986, 'tags': {'addr:city': '4500, Rangamati 4500', 'addr:housenumber': 'North Kalindipur', 'addr:postcode': '0351', 'addr:street': 'Chittagong - Rangamati Rd', 'amenity': 'hospital', 'emergency': 'no', 'healthcare': 'hospital', 'healthcare:speciality': 'radiology', 'name': 'BRAC TB Diagnostic Center Rangamati'}}"
"{'type': 'node', 'id': 7621605927, 'lat': 23.7761829, 'lon': 91.8458544, 'tags': {'addr:district': 'Dhalai', 'addr:full': 'Khowaipara', 'addr:postcode': '799289', 'addr:state': 'Tripura', 'amenity': 'hospital', 'name': 'Ganganagar Hospital', 'source': 'Local Knowledge'}}"
"{'type': 'node', 'id': 7621605928, 'lat': 23.3121204, 'lon': 91.5620323, 'tags': {'addr:district': 'South Tripura', 'addr:full': 'Santir Bazar,Nnear Ramkrishna Seva Sangha, Agartala', 'addr:postcode': '799144', 'addr:state': 'Tripura', 'amenity': 'clinic', 'name': 'Theia Eye Care Centre', 'source': 'Local Knowledge'}}"
"{'type': 'node', 'id': 7621605930, 'lat': 23.428111, 'lon': 91.508952, 'tags': {'addr:district': 'Gomati', 'addr:full': 'Garji', 'addr:postcode': '799125', 'addr:state': 'Tripura', 'description': 'Primary Health Centre', 'healthcare': 'centre', 'name': 'Primary Health Centre, Garji', 'source': 'Local Knowledge'}}"
"{'type': 'node', 'id': 8185944183, 'lat': 23.5491661, 'lon': 91.8701689, 'tags': {'addr:district': 'Dhalai District', 'addr:full': 'Dumburnagar', 'addr:postcode': '799284', 'addr:state': 'Tripura', 'description': 'SubCentre', 'healthcare': 'centre', 'name': 'Thakurachara Sub Centre', 'source': 'Local Knowledge'}}"
"{'type': 'node', 'id': 8186587310, 'lat': 23.6130015, 'lon': 91.7978901, 'tags': {'addr:district': 'Dhalai District', 'addr:full': 'Dumburnagar', 'addr:postcode': '799284', 'addr:state': 'Tripura', 'description': 'SubCentre', 'healthcare': 'centre', 'name': 'Laxmipur Sub Centre', 'source': 'Local Knowledge'}}"
"{'type': 'node', 'id': 8189613704, 'lat': 23.5793436, 'lon': 91.9020778, 'tags': {'addr:district': 'Dhalai District', 'addr:full': 'Ratannagar', 'addr:postcode': '799284', 'addr:state': 'Tripura', 'description': 'SubCentre', 'healthcare': 'centre', 'name': 'Ratannagar Sub Centre', 'source': 'Local Knowledge'}}"
"{'type': 'node', 'id': 8195519391, 'lat': 23.6244562, 'lon': 92.6229739, 'tags': {'addr:district': 'Aizawl', 'addr:full': 'Khawrihnim', 'addr:postcode': '796501', 'addr:state': 'Mizoram', 'description': 'SubCentre', 'healthcare': 'centre', 'name': 'SubCentre, Khawrihnim', 'source': 'Local Knowledge'}}"
"{'type': 'node', 'id': 8195541840, 'lat': 23.4601277, 'lon': 92.6011346, 'tags': {'addr:district': 'Aizawl', 'addr:full': 'Darlung', 'addr:postcode': '796501', 'addr:state': 'Mizoram', 'description': 'SubCentre', 'healthcare': 'centre', 'name': 'SubCentre, Darlung', 'source': 'Local Knowledge'}}"
"{'type': 'node', 'id': 8195582038, 'lat': 23.6902024, 'lon': 92.6211344, 'tags': {'addr:district': 'Aizawl', 'addr:full': 'Ailawng', 'addr:postcode': '796501', 'addr:state': 'Mizoram', 'description': 'SubCentre', 'healthcare': 'centre', 'name': 'SubCentre, Ailawng', 'source': 'Local Knowledge'}}"
"{'type': 'node', 'id': 8195582717, 'lat': 23.6439787, 'lon': 92.594425, 'tags': {'addr:district': 'Aizawl', 'addr:full': 'West Lungdar', 'addr:postcode': '796501', 'addr:state': 'Mizoram', 'description': 'SubCentre', 'healthcare': 'centre', 'name': 'SubCentre, West Lungdar', 'source': 'Local Knowledge'}}"
"{'type': 'node', 'id': 8195630361, 'lat': 23.7291345, 'lon': 91.8774042, 'tags': {'addr:district': 'Dhalai District', 'addr:full': 'Siddhapara', 'addr:postcode': '799289', 'addr:state': 'Tripura', 'description': 'SubCentre', 'healthcare': 'centre', 'name': 'Siddhapara Sub Centre', 'source': 'Local Knowledge'}}"
"{'type': 'node', 'id': 8195755642, 'lat': 23.5919698, 'lon': 91.8253157, 'tags': {'addr:district': 'Dhalai District', 'addr:full': 'Sarma', 'addr:postcode': '799284', 'addr:state': 'Tripura', 'description': 'SubCentre', 'healthcare': 'centre', 'name': 'Sarma Sub Centre', 'source': 'Local Knowledge'}}"
"{'type': 'node', 'id': 8195780536, 'lat': 23.5417304, 'lon': 91.6690314, 'tags': {'addr:district': 'Gomati District', 'addr:full': 'Birganj', 'addr:postcode': '799101', 'addr:state': 'Tripura', 'description': 'SubCentre', 'healthcare': 'centre', 'name': 'Birganj Sub centre', 'source': 'Local Knowledge'}}"
"{'type': 'node', 'id': 8195823524, 'lat': 23.6696917, 'lon': 91.6224575, 'tags': {'addr:district': 'Gomati District', 'addr:full': 'Baishyamani', 'addr:postcode': '799101', 'addr:state': 'Tripura', 'description': 'SubCentre', 'healthcare': 'centre', 'name': 'Baishyamani Sub centre', 'source': 'Local Knowledge'}}"
"{'type': 'node', 'id': 8195841074, 'lat': 23.3940667, 'lon': 91.4407928, 'tags': {'addr:district': 'Gomati District', 'addr:full': 'Dhuptali', 'addr:postcode': '799105', 'addr:state': 'Tripura', 'description': 'SubCentre', 'healthcare': 'centre', 'name': 'Dhuptali Sub centre', 'source': 'Local Knowledge'}}"
"{'type': 'node', 'id': 8195931012, 'lat': 23.5154021, 'lon': 91.6818202, 'tags': {'addr:district': 'Gomati District', 'addr:full': 'West Malbasa', 'addr:postcode': '799101', 'addr:state': 'Tripura', 'description': 'SubCentre', 'healthcare': 'centre', 'name': 'West Malbasa Sub centre', 'source': 'Local Knowledge'}}"
"{'type': 'node', 'id': 8195962906, 'lat': 23.5506216, 'lon': 91.4532684, 'tags': {'addr:district': 'Gomati District', 'addr:full': 'Tepania', 'addr:postcode': '799114', 'addr:state': 'Tripura', 'description': 'SubCentre', 'healthcare': 'centre', 'name': 'Tepania Sub centre', 'source': 'Local Knowledge'}}"
"{'type': 'node', 'id': 8195977099, 'lat': 23.4259261, 'lon': 91.4436802, 'tags': {'addr:district': 'Gomati District', 'addr:full': 'Purba Tulamura', 'addr:postcode': '799105', 'addr:state': 'Tripura', 'description': 'SubCentre', 'healthcare': 'centre', 'name': 'Purba Tulamura Sub centre', 'source': 'Local Knowledge'}}"
"{'type': 'node', 'id': 8195986256, 'lat': 23.5856194, 'lon': 91.4627695, 'tags': {'addr:district': 'Gomati District', 'addr:full': 'Pachim Khupilong', 'addr:postcode': '799114', 'addr:state': 'Tripura', 'description': 'SubCentre', 'healthcare': 'centre', 'name': 'Pachim Khupilong Sub centre', 'source': 'Local Knowledge'}}"
"{'type': 'node', 'id': 8195998855, 'lat': 23.5304617, 'lon': 91.4452118, 'tags': {'addr:district': 'Gomati District', 'addr:full': 'Hadra', 'addr:postcode': '799105', 'addr:state': 'Tripura', 'description': 'SubCentre', 'healthcare': 'centre', 'name': 'Hadra Sub centre', 'source': 'Local Knowledge'}}"
"{'type': 'node', 'id': 8196060225, 'lat': 23.1049648, 'lon': 91.8154612, 'tags': {'addr:district': 'Gomati District', 'addr:full': 'Kaptali', 'addr:postcode': '799104', 'addr:state': 'Tripura', 'description': 'SubCentre', 'healthcare': 'centre', 'name': 'Kaptali Sub centre', 'source': 'Local Knowledge'}}"
"{'type': 'node', 'id': 8196071471, 'lat': 23.4006553, 'lon': 91.7668556, 'tags': {'addr:district': 'Gomati District', 'addr:full': 'Jatan Bari', 'addr:postcode': '799104', 'addr:state': 'Tripura', 'description': 'SubCentre', 'healthcare': 'centre', 'name': 'Jatan Bari Sub centre', 'source': 'Local Knowledge'}}"
"{'type': 'node', 'id': 8200718780, 'lat': 22.541165, 'lon': 92.5489834, 'tags': {'addr:district': 'Lawngtlai', 'addr:full': 'Jarulsury', 'addr:postcode': '796770', 'addr:state': 'Mizoram', 'description': 'SubCentre', 'healthcare': 'centre', 'name': 'SubCentre, Jarulsury', 'source': 'Local Knowledge'}}"
"{'type': 'node', 'id': 8200737631, 'lat': 22.5929426, 'lon': 92.6352818, 'tags': {'addr:district': 'Lawngtlai', 'addr:full': 'Sumsilui', 'addr:postcode': '796770', 'addr:state': 'Mizoram', 'description': 'SubCentre', 'healthcare': 'centre', 'name': 'SubCentre, Sumsilui', 'source': 'Local Knowledge'}}"
"{'type': 'node', 'id': 8200744874, 'lat': 22.6241481, 'lon': 92.6173338, 'tags': {'addr:district': 'Lawngtlai', 'addr:full': 'W Saizawh', 'addr:postcode': '796770', 'addr:state': 'Mizoram', 'description': 'SubCentre', 'healthcare': 'centre', 'name': 'SubCentre, W Saizawh', 'source': 'Local Knowledge'}}"
"{'type': 'node', 'id': 8200830468, 'lat': 23.2459486, 'lon': 92.4849362, 'tags': {'addr:district': 'Lunglei', 'addr:full': 'Sesawm', 'addr:postcode': '796710', 'addr:state': 'Mizoram', 'description': 'SubCentre', 'healthcare': 'centre', 'name': 'SubCentre, Sesawm', 'source': 'Local Knowledge'}}"
"{'type': 'node', 'id': 8200885361, 'lat': 22.919207, 'lon': 92.5255506, 'tags': {'addr:district': 'Lunglei', 'addr:full': 'Tuichawng', 'addr:postcode': '796730', 'addr:state': 'Mizoram', 'description': 'SubCentre', 'healthcare': 'centre', 'name': 'SubCentre, Tuichawng', 'source': 'Local Knowledge'}}"
"{'type': 'node', 'id': 8200897066, 'lat': 23.2527127, 'lon': 92.63682, 'tags': {'addr:district': 'Lunglei', 'addr:full': 'Bunghmun', 'addr:postcode': '796701', 'addr:state': 'Mizoram', 'description': 'SubCentre', 'healthcare': 'centre', 'name': 'SubCentre, Bunghmun', 'source': 'Local Knowledge'}}"
"{'type': 'node', 'id': 8200907204, 'lat': 23.3422909, 'lon': 92.5293352, 'tags': {'addr:district': 'Lunglei', 'addr:full': 'Darngawn', 'addr:postcode': '796710', 'addr:state': 'Mizoram', 'description': 'SubCentre', 'healthcare': 'centre', 'name': 'SubCentre, Darngawn', 'source': 'Local Knowledge'}}"
"{'type': 'node', 'id': 8200909991, 'lat': 23.3192872, 'lon': 92.6431088, 'tags': {'addr:district': 'Lunglei', 'addr:full': 'New Khawlek', 'addr:postcode': '796710', 'addr:state': 'Mizoram', 'description': 'SubCentre', 'healthcare': 'centre', 'name': 'SubCentre, New Khawlek', 'source': 'Local Knowledge'}}"
"{'type': 'node', 'id': 8200932592, 'lat': 23.0537518, 'lon': 92.4183301, 'tags': {'addr:district': 'Lunglei', 'addr:full': 'Puankhai', 'addr:postcode': '796751', 'addr:state': 'Mizoram', 'description': 'SubCentre', 'healthcare': 'centre', 'name': 'SubCentre, Puankhai', 'source': 'Local Knowledge'}}"
"{'type': 'node', 'id': 8200935123, 'lat': 22.9146118, 'lon': 92.4758083, 'tags': {'addr:district': 'Lunglei', 'addr:full': 'Zodin Veng', 'addr:postcode': '796751', 'addr:state': 'Mizoram', 'description': 'SubCentre', 'healthcare': 'centre', 'name': 'SubCentre, Zodin Veng', 'source': 'Local Knowledge'}}"
"{'type': 'node', 'id': 8200954146, 'lat': 22.9302161, 'lon': 92.4922208, 'tags': {'addr:district': 'Lunglei', 'addr:full': 'Diplibagh', 'addr:postcode': '796751', 'addr:state': 'Mizoram', 'description': 'SubCentre', 'healthcare': 'centre', 'name': 'SubCentre, Diplibagh', 'source': 'Local Knowledge'}}"
"{'type': 'node', 'id': 8200965364, 'lat': 22.8380602, 'lon': 92.4800637, 'tags': {'addr:district': 'Lunglei', 'addr:full': 'Tipperaghat', 'addr:postcode': '796751', 'addr:state': 'Mizoram', 'description': 'SubCentre', 'healthcare': 'centre', 'name': 'SubCentre, Tipperaghat', 'source': 'Local Knowledge'}}"
"{'type': 'node', 'id': 8201024335, 'lat': 23.1976003, 'lon': 92.58539, 'tags': {'addr:district': 'Lunglei', 'addr:full': 'Thenhlum', 'addr:postcode': '796701', 'addr:state': 'Mizoram', 'description': 'SubCentre', 'healthcare': 'centre', 'name': 'SubCentre, Thenhlum', 'source': 'Local Knowledge'}}"
"{'type': 'node', 'id': 8201029346, 'lat': 23.174418, 'lon': 92.6120367, 'tags': {'addr:district': 'Lunglei', 'addr:full': 'Changpui', 'addr:postcode': '796701', 'addr:state': 'Mizoram', 'description': 'SubCentre', 'healthcare': 'centre', 'name': 'SubCentre, Changpui', 'source': 'Local Knowledge'}}"
"{'type': 'node', 'id': 8201065220, 'lat': 22.8238319, 'lon': 92.6404728, 'tags': {'addr:district': 'Lunglei', 'addr:full': 'Phairuangkai', 'addr:postcode': '796730', 'addr:state': 'Mizoram', 'description': 'SubCentre', 'healthcare': 'centre', 'name': 'SubCentre, Phairuangkai', 'source': 'Local Knowledge'}}"
"{'type': 'node', 'id': 8201068307, 'lat': 23.127986, 'lon': 92.6124216, 'tags': {'addr:district': 'Lunglei', 'addr:full': 'Lungchem', 'addr:postcode': '796701', 'addr:state': 'Mizoram', 'description': 'SubCentre', 'healthcare': 'centre', 'name': 'SubCentre, Lungchem', 'source': 'Local Knowledge'}}"
"{'type': 'node', 'id': 8201087842, 'lat': 23.0743888, 'lon': 92.5626495, 'tags': {'addr:district': 'Lunglei', 'addr:full': 'Tuisenchhuah', 'addr:postcode': '796710', 'addr:state': 'Mizoram', 'description': 'SubCentre', 'healthcare': 'centre', 'name': 'SubCentre, Tuisenchhuah', 'source': 'Local Knowledge'}}"
"{'type': 'node', 'id': 8201148285, 'lat': 23.4998771, 'lon': 92.4887218, 'tags': {'addr:district': 'Lunglei', 'addr:full': 'Parvatui', 'addr:postcode': '796431', 'addr:state': 'Mizoram', 'description': 'SubCentre', 'healthcare': 'centre', 'name': 'SubCentre, Parvatui', 'source': 'Local Knowledge'}}"
"{'type': 'node', 'id': 8201171260, 'lat': 23.2670296, 'lon': 92.4077744, 'tags': {'addr:district': 'Mamit', 'addr:full': 'Marpara', 'addr:postcode': '796431', 'addr:state': 'Mizoram', 'description': 'SubCentre', 'healthcare': 'centre', 'name': 'SubCentre, Marpara', 'source': 'Local Knowledge'}}"
"{'type': 'node', 'id': 8201301199, 'lat': 23.7697563, 'lon': 92.5202696, 'tags': {'addr:district': 'Mamit', 'addr:full': 'Dapchhuah', 'addr:postcode': '796441', 'addr:state': 'Mizoram', 'description': 'SubCentre', 'healthcare': 'centre', 'name': 'SubCentre, Dapchhuah', 'source': 'Local Knowledge'}}"
"{'type': 'node', 'id': 8201306422, 'lat': 23.3818286, 'lon': 92.3638, 'tags': {'addr:district': 'Mamit', 'addr:full': 'Silsuri', 'addr:postcode': '796431', 'addr:state': 'Mizoram', 'description': 'SubCentre', 'healthcare': 'centre', 'name': 'SubCentre, Silsuri', 'source': 'Local Knowledge'}}"
"{'type': 'node', 'id': 8201306477, 'lat': 23.6202304, 'lon': 92.4615487, 'tags': {'addr:district': 'Mamit', 'addr:full': 'Lallen', 'addr:postcode': '796431', 'addr:state': 'Mizoram', 'description': 'SubCentre', 'healthcare': 'centre', 'name': 'SubCentre, Lallen', 'source': 'Local Knowledge'}}"
"{'type': 'node', 'id': 8201320753, 'lat': 23.7102384, 'lon': 92.5600361, 'tags': {'addr:district': 'Mamit', 'addr:full': 'Rulpuihlim', 'addr:postcode': '796501', 'addr:state': 'Mizoram', 'description': 'SubCentre', 'healthcare': 'centre', 'name': 'SubCentre, Rulpuihlim', 'source': 'Local Knowledge'}}"
"{'type': 'node', 'id': 8201366459, 'lat': 23.6579279, 'lon': 92.4774943, 'tags': {'addr:district': 'Mamit', 'addr:full': 'Kawnmawi', 'addr:postcode': '796431', 'addr:state': 'Mizoram', 'description': 'SubCentre', 'healthcare': 'centre', 'name': 'SubCentre, Kawnmawi', 'source': 'Local Knowledge'}}"
"{'type': 'node', 'id': 8201376015, 'lat': 23.7097172, 'lon': 92.4827445, 'tags': {'addr:district': 'Mamit', 'addr:full': 'W.Phaileng', 'addr:postcode': '796431', 'addr:state': 'Mizoram', 'description': 'SubCentre', 'healthcare': 'centre', 'name': 'SubCentre, W.Phaileng', 'source': 'Local Knowledge'}}"
"{'type': 'node', 'id': 8201380901, 'lat': 23.7088448, 'lon': 92.3268633, 'tags': {'addr:district': 'Mamit', 'addr:full': 'Tuipuibari', 'addr:postcode': '796431', 'addr:state': 'Mizoram', 'description': 'Primary Health Centre', 'healthcare': 'centre', 'name': 'Primary Health Centre, Tuipuibari', 'source': 'Local Knowledge'}}"
"{'type': 'node', 'id': 8201404952, 'lat': 23.6416218, 'lon': 92.5952136, 'tags': {'addr:district': 'Mamit', 'addr:full': 'West Lungdar', 'addr:postcode': '796501', 'addr:state': 'Mizoram', 'description': 'SubCentre', 'healthcare': 'centre', 'name': 'SubCentre, West Lungdar', 'source': 'Local Knowledge'}}"
"{'type': 'node', 'id': 8201421182, 'lat': 23.7727872, 'lon': 92.5988007, 'tags': {'addr:district': 'Mamit', 'addr:full': 'Lengte', 'addr:postcode': '796501', 'addr:state': 'Mizoram', 'description': 'SubCentre', 'healthcare': 'centre', 'name': 'SubCentre, Lengte', 'source': 'Local Knowledge'}}"
"{'type': 'node', 'id': 8201471533, 'lat': 23.5973036, 'lon': 92.5989167, 'tags': {'addr:district': 'Mamit', 'addr:full': 'Hreichuk', 'addr:postcode': '796501', 'addr:state': 'Mizoram', 'description': 'SubCentre', 'healthcare': 'centre', 'name': 'SubCentre, Hreichuk', 'source': 'Local Knowledge'}}"
"{'type': 'node', 'id': 8201474432, 'lat': 23.7212662, 'lon': 92.4168512, 'tags': {'addr:district': 'Mamit', 'addr:full': 'Damparengpui', 'addr:postcode': '796431', 'addr:state': 'Mizoram', 'description': 'SubCentre', 'healthcare': 'centre', 'name': 'SubCentre, Damparengpui', 'source': 'Local Knowledge'}}"
"{'type': 'node', 'id': 8201486971, 'lat': 23.3453834, 'lon': 92.4288429, 'tags': {'addr:district': 'Mamit', 'addr:full': 'Pukzing', 'addr:postcode': '796431', 'addr:state': 'Mizoram', 'description': 'SubCentre', 'healthcare': 'centre', 'name': 'SubCentre, Pukzing', 'source': 'Local Knowledge'}}"
"{'type': 'node', 'id': 8201510095, 'lat': 23.454343, 'lon': 92.6005344, 'tags': {'addr:district': 'Mamit', 'addr:full': 'South Sabual', 'addr:postcode': '796501', 'addr:state': 'Mizoram', 'description': 'SubCentre', 'healthcare': 'centre', 'name': 'SubCentre, South Sabual', 'source': 'Local Knowledge'}}"
"{'type': 'node', 'id': 9692137604, 'lat': 22.8501267, 'lon': 91.3965813, 'tags': {'addr:street': 'Feni - Sonagazi - Muhuriganj Project Road', 'healthcare': 'hospital', 'healthcare:speciality': 'vaccination', 'name': 'Sonagazi Upazila Health Complex'}}"
"{'type': 'node', 'id': 9811234239, 'lat': 22.4712576, 'lon': 91.7942453, 'tags': {'amenity': 'pharmacy', 'name': 'M/S Gram Mongol Pharmacy'}}"
"{'type': 'node', 'id': 9811252827, 'lat': 22.481252, 'lon': 91.7944245, 'tags': {'amenity': 'pharmacy', 'name': 'Nadia Pharmacy'}}"
"{'type': 'node', 'id': 10131802033, 'lat': 22.627147, 'lon': 91.6535305, 'tags': {'healthcare': 'yes', 'name': 'আল আরাফা মেডিকেল হল'}}"
"{'type': 'node', 'id': 10156171339, 'lat': 22.6095163, 'lon': 91.6646559, 'tags': {'amenity': 'hospital', 'healthcare': 'hospital', 'name': 'Sitakund Upazila Health Complex'}}"
"{'type': 'node', 'id': 10164918089, 'lat': 22.6810907, 'lon': 91.624512, 'tags': {'amenity': 'dentist', 'healthcare': 'dentist', 'name': 'আইডিয়াল ডেন্টাল কেয়ার'}}"
"{'type': 'node', 'id': 10164936724, 'lat': 22.6813381, 'lon': 91.6249502, 'tags': {'amenity': 'pharmacy', 'dispensing': 'yes', 'healthcare': 'pharmacy', 'name': 'Parul Pharmacy, Boro Daroga Hat, Chittagong'}}"
"{'type': 'node', 'id': 10181665026, 'lat': 22.7066109, 'lon': 91.6108616, 'tags': {'amenity': 'hospital', 'healthcare': 'hospital', 'name': 'Wahedpur Union Healthcare Center'}}"
"{'type': 'node', 'id': 10189081223, 'lat': 22.7719025, 'lon': 91.5743051, 'tags': {'amenity': 'pharmacy', 'healthcare': 'pharmacy', 'name': 'Rahmania Medical Centre'}}"
"{'type': 'node', 'id': 10199013937, 'lat': 22.7790079, 'lon': 91.5701386, 'tags': {'amenity': 'hospital', 'healthcare': 'hospital', 'name': 'Mirsarai Sheba Adhunik Hospital'}}"
"{'type': 'node', 'id': 10201212028, 'lat': 22.8038053, 'lon': 91.5555516, 'tags': {'amenity': 'hospital', 'healthcare': 'hospital', 'name': 'Hospital and Diagnostics মিঠাছড়া জেনারেল হাসপাতাল'}}"
"{'type': 'node', 'id': 10203138778, 'lat': 22.6168195, 'lon': 91.6603575, 'tags': {'amenity': 'hospital', 'healthcare': 'hospital', 'name': 'Sitakund General Hospital'}}"
"{'type': 'node', 'id': 10219030670, 'lat': 22.9476496, 'lon': 91.4814737, 'tags': {'amenity': 'pharmacy', 'healthcare': 'pharmacy', 'name': 'Shah sultan poultry'}}"
"{'type': 'node', 'id': 10236595613, 'lat': 23.0101349, 'lon': 91.3772861, 'tags': {'amenity': 'hospital', 'healthcare': 'hospital', 'name': 'Bokho Bidhi Clinic'}}"
"{'type': 'node', 'id': 10237588743, 'lat': 22.5704837, 'lon': 91.6844583, 'tags': {'amenity': 'clinic', 'healthcare': 'clinic', 'name': 'Shikdar Medical Hall'}}"
"{'type': 'node', 'id': 10241366020, 'lat': 23.1111089, 'lon': 91.3349786, 'tags': {'amenity': 'hospital', 'healthcare': 'hospital', 'name': 'Gangra Community Clinic'}}"
"{'type': 'node', 'id': 10241429256, 'lat': 23.0993318, 'lon': 91.3417171, 'tags': {'amenity': 'hospital', 'healthcare': 'hospital', 'name': 'Bhazonkora Community Health Center'}}"
"{'type': 'node', 'id': 10260401001, 'lat': 23.1977995, 'lon': 91.312882, 'tags': {'amenity': 'hospital', 'healthcare': 'hospital', 'name': 'Batisa Union Health and Family Welfare Centre'}}"
"{'type': 'node', 'id': 10262777719, 'lat': 23.2215644, 'lon': 91.3128155, 'tags': {'amenity': 'hospital', 'healthcare': 'hospital', 'name': 'Upazila Animal Resources Department and Veterinary Hospital'}}"
"{'type': 'node', 'id': 10266597779, 'lat': 23.2303924, 'lon': 91.3135754, 'tags': {'amenity': 'hospital', 'healthcare': 'hospital', 'name': 'Chauddagram Medinova Diagnostic Centre'}}"
"{'type': 'node', 'id': 10268879481, 'lat': 23.2440315, 'lon': 91.308635, 'tags': {'amenity': 'hospital', 'healthcare': 'hospital', 'name': 'Family Welfare Center. Wazirpur Union'}}"
"{'type': 'node', 'id': 10304474429, 'lat': 23.7771463, 'lon': 91.8452463, 'tags': {'healthcare': 'clinic', 'name': 'Ganganagar Primary Health Centre'}}"
"{'type': 'node', 'id': 10536355176, 'lat': 22.5368596, 'lon': 91.699003, 'tags': {'amenity': 'hospital', 'healthcare': 'hospital', 'name': 'Dr. Dipnagkar Medcal Hall, Kumira, Chattogram'}}"
"{'type': 'node', 'id': 10961014028, 'lat': 22.8926764, 'lon': 91.5332519, 'tags': {'amenity': 'hospital', 'healthcare': 'hospital', 'name': 'Baraiyarhat General Hospital,Dhaka-Chittagong Hwy, Baraiyarhat, Chittagong'}}"
"{'type': 'node', 'id': 10961016897, 'lat': 22.8941176, 'lon': 91.534155, 'tags': {'amenity': 'hospital', 'healthcare': 'hospital', 'name': 'Bariarhat Eye Hospital, Old Dhaka-Chittagong Hwy, Baraiyarhat, Chittagong'}}"
"{'type': 'node', 'id': 10963285677, 'lat': 22.8407643, 'lon': 91.5468366, 'tags': {'amenity': 'hospital', 'healthcare': 'hospital', 'name': 'মস্তাননগর স্বাস্থ্য কমপ্লেক্স'}}"
"{'type': 'node', 'id': 10963292533, 'lat': 22.8406506, 'lon': 91.546909, 'tags': {'amenity': 'hospital', 'healthcare': 'hospital', 'name': 'Mostan Nagar Hospital'}}"
"{'type': 'node', 'id': 10970475291, 'lat': 22.8394164, 'lon': 91.5501851, 'tags': {'amenity': 'clinic', 'healthcare': 'clinic', 'name': 'Nimrat Diagnostic and Pain Centre, Mirsharai, Chittagong'}}"
"{'type': 'node', 'id': 10970475800, 'lat': 22.8409529, 'lon': 91.5469435, 'tags': {'amenity': 'hospital', 'healthcare': 'hospital', 'name': 'Mostan Nagar Hospital'}}"
"{'type': 'node', 'id': 10978274717, 'lat': 22.7739786, 'lon': 91.5737918, 'tags': {'amenity': 'hospital', 'healthcare': 'hospital', 'name': 'Hope Mother & Child Hospital'}}"
"{'type': 'node', 'id': 10983812580, 'lat': 22.7579593, 'lon': 91.5845185, 'tags': {'amenity': 'pharmacy', 'healthcare': 'pharmacy', 'name': 'Hridoy Pharmacy, Dhaka - Chittagong Hwy, Mirsharai, Chittagong'}}"
"{'type': 'node', 'id': 11029470816, 'lat': 22.6240514, 'lon': 91.6379243, 'tags': {'healthcare': 'laboratory', 'name': 'Sharif Homeo Hall, Hazari Rd, Saidpur, Chittagong'}}"
"{'type': 'node', 'id': 11056148199, 'lat': 22.5744325, 'lon': 91.6808694, 'tags': {'amenity': 'hospital', 'healthcare': 'hospital', 'name': 'Barabkund Union shasto O Poribarkollan kendro, Dhaka - Chittagong Hwy, Barabkunda, Chittagong'}}"
"{'type': 'node', 'id': 11062892860, 'lat': 22.5474965, 'lon': 91.6851999, 'tags': {'healthcare': 'yes', 'name': 'Health Centre, Barabkunda, Chittagong'}}"
"{'type': 'node', 'id': 11064294286, 'lat': 22.5345942, 'lon': 91.6975819, 'tags': {'amenity': 'pharmacy', 'healthcare': 'pharmacy', 'name': 'Maya Traders/Aroti Pharmacy / Jononi Homio Hall, Sultana Mondir, Chattogram'}}"
"{'type': 'node', 'id': 11070535099, 'lat': 22.5161279, 'lon': 91.7096021, 'tags': {'amenity': 'pharmacy', 'healthcare': 'pharmacy', 'name': 'Alamgir Pharmachy, Kazi Para Rd, Kumira, Chittagong'}}"
"{'type': 'node', 'id': 11093240865, 'lat': 22.4977085, 'lon': 91.7140273, 'tags': {'amenity': 'pharmacy', 'healthcare': 'pharmacy', 'name': 'Nahar Pharmacy, Joramtol Bazar, Joramtol, Sitakunda, Chattogram'}}"
"{'type': 'node', 'id': 11096373368, 'lat': 22.4898617, 'lon': 91.7187789, 'tags': {'amenity': 'pharmacy', 'healthcare': 'pharmacy', 'name': 'Chowdhury Pharmacy, Sonaichhari, Chattogram'}}"
"{'type': 'node', 'id': 11098748392, 'lat': 22.4787438, 'lon': 91.7207332, 'tags': {'amenity': 'pharmacy', 'healthcare': 'pharmacy', 'name': 'Bara-Awlia Medical Hall,Dhaka - Chittagong Hwy, Sonaichhari, Chattogram'}}"
"{'type': 'node', 'id': 11098812274, 'lat': 22.475469, 'lon': 91.7268393, 'tags': {'amenity': 'pharmacy', 'healthcare': 'pharmacy', 'name': 'Niramoy pharmacy, 8 no sonaisori, 5no word, Chattogram'}}"
"{'type': 'node', 'id': 11101080238, 'lat': 22.4587429, 'lon': 91.7303848, 'tags': {'amenity': 'pharmacy', 'healthcare': 'pharmacy', 'name': 'EKOTA ENGINEERING SOHEL MISTRI GARAGE,Madanhat Bridge, Bhatiari, Chattogram'}}"
"{'type': 'node', 'id': 11118296988, 'lat': 22.4381413, 'lon': 91.7376346, 'tags': {'amenity': 'pharmacy', 'healthcare': 'pharmacy', 'name': 'Habiba Pharmacy, Madam Bibir Hat ,Batiari, Shitakundo, Chattogram'}}"
"{'type': 'node', 'id': 11129557257, 'lat': 22.4384037, 'lon': 91.738378, 'tags': {'amenity': 'pharmacy', 'healthcare': 'pharmacy', 'name': 'M/s Haque Medical Hall, Madam Bibir Hat, Bhatiyari, Sitakunda, Chattogram'}}"
"{'type': 'node', 'id': 11130059910, 'lat': 22.4376397, 'lon': 91.7386442, 'tags': {'amenity': 'pharmacy', 'healthcare': 'pharmacy', 'name': 'New Pharmacy, Bhatiari, Chattogram'}}"
"{'type': 'node', 'id': 11389682964, 'lat': 22.4627318, 'lon': 92.0073931, 'tags': {'amenity': 'hospital', 'healthcare': 'hospital', 'name': 'Pomra Family Planning center'}}"
"{'type': 'node', 'id': 11406968558, 'lat': 22.5450864, 'lon': 92.0015382, 'tags': {'amenity': 'clinic', 'healthcare': 'clinic', 'name': 'Surjer Hashi Clinic'}}"
"{'type': 'node', 'id': 11505641472, 'lat': 22.4984211, 'lon': 91.8069484, 'tags': {'amenity': 'pharmacy', 'healthcare': 'pharmacy', 'name': 'M/s. Darbar Medical Hall, Hathazari Bus Stand, Chattogram'}}"
"{'type': 'node', 'id': 11505651701, 'lat': 22.498935, 'lon': 91.8069145, 'tags': {'amenity': 'pharmacy', 'healthcare': 'pharmacy', 'name': 'M/S. B. B Pharmacy, Bus Stand, Hathazari, Chattogram'}}"
"{'type': 'node', 'id': 11505684781, 'lat': 22.5025691, 'lon': 91.8070966, 'tags': {'amenity': 'pharmacy', 'healthcare': 'pharmacy', 'name': 'Hathazari Medical Hall, Hathazari Bazar, Hathazari Pourosobha, Chattogram'}}"
"{'type': 'node', 'id': 11505687287, 'lat': 22.503416, 'lon': 91.806842, 'tags': {'amenity': 'pharmacy', 'name': 'Janaseba Pharmacy, Chittagong - Khagrachhari Road, Upojela Market, Hathazari, Chattogram'}}"
"{'type': 'node', 'id': 11505720398, 'lat': 22.5082249, 'lon': 91.8065202, 'tags': {'amenity': 'hospital', 'healthcare': 'hospital', 'name': 'Maruf Work House Hospital, Medical Gate, Hathazari Pourosova, Chattogram'}}"
"{'type': 'node', 'id': 11507855061, 'lat': 22.4350699, 'lon': 91.8201032, 'tags': {'amenity': 'clinic', 'healthcare': 'clinic', 'name': 'Miyaji Harvanga Clinic, Chattogram - Rangamati-Khagrachari Highway, Chattogram'}}"
"{'type': 'node', 'id': 11507963268, 'lat': 22.4453943, 'lon': 91.8183256, 'tags': {'amenity': 'pharmacy', 'healthcare': 'pharmacy', 'name': 'New Janata Pharmacy, Station Road, Chowdhury Hat, Hathazari, Foteyabad, Chattogram'}}"
"{'type': 'node', 'id': 11507978254, 'lat': 22.4415514, 'lon': 91.8199173, 'tags': {'amenity': 'pharmacy', 'healthcare': 'pharmacy', 'name': 'Bismillah Pharma, Chattogram - Rangamati-Khagrachari Highway, Chattogram'}}"
"{'type': 'node', 'id': 11508000196, 'lat': 22.4452322, 'lon': 91.8180578, 'tags': {'amenity': 'pharmacy', 'healthcare': 'pharmacy', 'name': 'M/s New Madarsha Pharmacy, Chattogram - Rangamati-Khagrachari Highway, Chattogram'}}"
"{'type': 'node', 'id': 11524080703, 'lat': 22.5165508, 'lon': 91.8021729, 'tags': {'amenity': 'pharmacy', 'healthcare': 'pharmacy', 'name': 'Muhammad Medico & Hijama Centre, Chittagong - Khagrachhari Rd, Hathazari, Chattogram'}}"
"{'type': 'node', 'id': 11524116604, 'lat': 22.5585728, 'lon': 91.7968635, 'tags': {'amenity': 'hospital', 'healthcare': 'hospital', 'name': 'Gani Hospital Limited, Goni shopping complex, Sarkarhat, Chattogram'}}"
"{'type': 'node', 'id': 11524123611, 'lat': 22.5834769, 'lon': 91.7944392, 'tags': {'amenity': 'pharmacy', 'healthcare': 'pharmacy', 'name': 'Star Pharmacey, Chittagong - Khagrachhari Rd, Anayetpur, Chattogram'}}"
"{'type': 'node', 'id': 11527266350, 'lat': 22.4703196, 'lon': 91.8153084, 'tags': {'amenity': 'dentist', 'healthcare': 'dentist', 'name': 'Green Health Dental Care, Chattogram - Rangamati-Khagrachari Highway, Chattogram'}}"
"{'type': 'node', 'id': 11527312733, 'lat': 22.4739813, 'lon': 91.8144432, 'tags': {'amenity': 'pharmacy', 'healthcare': 'pharmacy', 'name': 'M/S R.AW Medical Hall, Chattogram - Rangamati-Khagrachari Highway, Chattogram'}}"
"{'type': 'node', 'id': 11536101703, 'lat': 22.4836027, 'lon': 91.8101308, 'tags': {'amenity': 'pharmacy', 'healthcare': 'pharmacy', 'name': 'M/s Arfin & Arman Pharmacy, Chattogram - Rangamati-Khagrachari Highway, Chattogram'}}"
"{'type': 'node', 'id': 11536202527, 'lat': 22.6307593, 'lon': 91.799692, 'tags': {'healthcare': 'laboratory', 'name': 'M/S Joy Medicine & Feed Center (Unit-2), Chittagong - Khagrachhari Rd, Nazirhat, Chattogram'}}"
"{'type': 'node', 'id': 11539887373, 'lat': 22.685225, 'lon': 91.7901942, 'tags': {'amenity': 'pharmacy', 'healthcare': 'pharmacy', 'name': 'Mercas Bismillah Poultry Complex, Pharmacy, Chittagong - Khagrachhari Rd, Bibir Hat, Chattogram'}}"
"{'type': 'node', 'id': 11542269489, 'lat': 22.688355, 'lon': 91.7897534, 'tags': {'amenity': 'hospital', 'healthcare': 'hospital', 'name': 'Popular Diagnostic Centre, Hospital, Chittagong - Khagrachhari Rd, Bibir Hat, Chattogram'}}"
"{'type': 'node', 'id': 11545827656, 'lat': 22.6878891, 'lon': 91.7906451, 'tags': {'amenity': 'hospital', 'healthcare': 'hospital', 'name': 'Al Nur Hospital, Chittagong - Khagrachhari Rd, Bibir Hat, Chattogram'}}"
"{'type': 'node', 'id': 11545960893, 'lat': 22.6869351, 'lon': 91.7904983, 'tags': {'amenity': 'pharmacy', 'healthcare': 'pharmacy', 'name': 'Modern Pharmacy, Bibirhat, Chittagong - Khagrachhari Rd, Chattogram'}}"
"{'type': 'node', 'id': 11548869421, 'lat': 22.6860749, 'lon': 91.7903948, 'tags': {'amenity': 'hospital', 'healthcare': 'hospital', 'name': 'Hazem Child Care Centre, Childrens hospital, Chittagong - Khagrachhari Rd, Chattogram'}}"
"{'type': 'node', 'id': 11548948707, 'lat': 22.6313728, 'lon': 91.800599, 'tags': {'amenity': 'pharmacy', 'healthcare': 'pharmacy', 'name': 'Nazirhat Pharmacy, Nanupur Road, Chittagong - Khagrachhari Rd, Chattogram'}}"
"{'type': 'node', 'id': 11548970119, 'lat': 22.6310611, 'lon': 91.8003706, 'tags': {'amenity': 'pharmacy', 'healthcare': 'pharmacy', 'name': 'G.S Agro vet Pharmacy, Nazirhat, Chittagong - Khagrachhari Rd, Chattogram'}}"
"{'type': 'node', 'id': 11549053434, 'lat': 22.6168144, 'lon': 91.7945452, 'tags': {'amenity': 'pharmacy', 'healthcare': 'pharmacy', 'name': 'Samiya pharmacy, Emergency care physician, Nur Ali Mear Hat Bazar Rd, Forhadabad, Chattogram'}}"
"{'type': 'node', 'id': 11549159666, 'lat': 22.5834438, 'lon': 91.794863, 'tags': {'amenity': 'pharmacy', 'healthcare': 'pharmacy', 'name': 'S.M Medical Hall, Chittagong - Khagrachhari Rd, Anayetpur, Chattogram'}}"
"{'type': 'node', 'id': 11549199919, 'lat': 22.5770849, 'lon': 91.7952359, 'tags': {'amenity': 'doctors', 'healthcare': 'doctor', 'name': 'Enayetpur Dental Center, Doctor, Chittagong - Khagrachhari Rd, Chattogram'}}"
"{'type': 'node', 'id': 11549205725, 'lat': 22.5596292, 'lon': 91.7978546, 'tags': {'amenity': 'clinic', 'healthcare': 'dialysis', 'healthcare:speciality': 'nephrology', 'name': 'Silva Diagnostic Centre, Chittagong - Khagrachhari Rd, Sarkar Hat, Chattogram'}}"
"{'type': 'node', 'id': 11563312275, 'lat': 22.5493553, 'lon': 91.7987297, 'tags': {'amenity': 'pharmacy', 'healthcare': 'pharmacy', 'name': 'Dr. Musa Pharmacy, Hathazari, Chittagong - Khagrachhari Rd, Chattogram'}}"
"{'type': 'node', 'id': 11563559274, 'lat': 22.4985089, 'lon': 91.8072165, 'tags': {'amenity': 'hospital', 'healthcare': 'hospital', 'name': 'Mother and Child Hospital, Hospital, Ramgor Road, Bus Stand, Hathazari, Pourasaba, Chattogram'}}"
"{'type': 'node', 'id': 11568959865, 'lat': 22.4731012, 'lon': 91.8148421, 'tags': {'amenity': 'pharmacy', 'healthcare': 'pharmacy', 'name': 'Maa Pharmacy, Chittagong - Rangamati-Khagrachhari Rd, Chattogram'}}"
"{'type': 'node', 'id': 11568960176, 'lat': 22.4739499, 'lon': 91.8147848, 'tags': {'amenity': 'hospital', 'healthcare': 'hospital', 'name': 'Green Health Hospital And Diagnostic Center, Hathazari, Rangamati-Khagrachhari Rd, Chattogram'}}"
"{'type': 'node', 'id': 11572069949, 'lat': 22.444624, 'lon': 91.819113, 'tags': {'amenity': 'hospital', 'healthcare': 'hospital', 'name': 'Fatehabad Clinic & Diagnostic Centre, Chittagong - Rangamati-Khagrachhari Rd, Chattogram'}}"
"{'type': 'node', 'id': 11572099995, 'lat': 22.444835, 'lon': 91.8191076, 'tags': {'amenity': 'pharmacy', 'healthcare': 'pharmacy', 'name': 'Familiar Medicine Center, Hathazari Road, Fatehabad, Chowdhury Hat, Chattogram'}}"
"{'type': 'node', 'id': 11572154352, 'lat': 22.4420794, 'lon': 91.8202499, 'tags': {'amenity': 'pharmacy', 'healthcare': 'pharmacy', 'name': 'Uposhom Homeo Hall, Chowdhuryhat, Foteyabad, Hatbazar, Chattogram'}}"
"{'type': 'node', 'id': 11586101534, 'lat': 22.5100571, 'lon': 91.8385631, 'tags': {'amenity': 'pharmacy', 'healthcare': 'pharmacy', 'name': 'Healthcare Medicine House, Ichapur Bazar, Rangamati Road, Hathazari, Chattogram'}}"
"{'type': 'node', 'id': 11586136840, 'lat': 22.5103205, 'lon': 91.8393822, 'tags': {'amenity': 'pharmacy', 'healthcare': 'pharmacy', 'name': 'Sadek Medical Hall, Chand Ghazi Road, Ichapur Faizia Bazar, Hathajari, Chattogram'}}"
"{'type': 'node', 'id': 11586158744, 'lat': 22.5014699, 'lon': 91.809166, 'tags': {'amenity': 'hospital', 'healthcare': 'hospital', 'name': 'One Diagnostic Centre, Chattogram-Hathazari Raujan Highway, Hathazari, Chattogram'}}"
"{'type': 'node', 'id': 11586177951, 'lat': 22.5028731, 'lon': 91.8104911, 'tags': {'amenity': 'pharmacy', 'healthcare': 'pharmacy', 'name': 'Maya Pharmacy, Kacari Rd, Hathazari, Chattogram'}}"
"{'type': 'node', 'id': 11586184621, 'lat': 22.5032278, 'lon': 91.8106523, 'tags': {'amenity': 'hospital', 'healthcare': 'hospital', 'name': 'Hathazari Digital Diagonstic Center ,Hathazari, Kacari Rd, Hathazari, Chattogram'}}"
"{'type': 'node', 'id': 11586187052, 'lat': 22.521727, 'lon': 91.8676747, 'tags': {'amenity': 'pharmacy', 'healthcare': 'pharmacy', 'name': 'Badhon Medical Hall, Chattogram-Hathazari Raujan Highway, Gohira, Chattogram'}}"
"{'type': 'node', 'id': 11586197349, 'lat': 22.5227126, 'lon': 91.8691718, 'tags': {'amenity': 'pharmacy', 'healthcare': 'pharmacy', 'name': 'Mishon Poultry and Dairy, Pharmacy, Chittagong - Rangamati Hwy, Chattogram'}}"
"{'type': 'node', 'id': 11586749130, 'lat': 22.5350963, 'lon': 91.9097504, 'tags': {'amenity': 'pharmacy', 'healthcare': 'pharmacy', 'name': 'New Rupali Pharmacy, Chittagong - Rangamati Hwy, Chattogram'}}"
"{'type': 'node', 'id': 11586758784, 'lat': 22.5317159, 'lon': 91.8870318, 'tags': {'amenity': 'pharmacy', 'healthcare': 'pharmacy', 'name': 'Mohajon Pharmacy, Shoroter Dokan, Pathan Para, Chittagong - Rangamati Hwy, Chattogram'}}"
"{'type': 'node', 'id': 11590969177, 'lat': 22.5350105, 'lon': 91.9203983, 'tags': {'amenity': 'pharmacy', 'healthcare': 'pharmacy', 'name': 'Super Lab Diagnostic Cenret, Chittagong - Rangamati Hwy, Raozan, Chattogram'}}"
"{'type': 'node', 'id': 11590972289, 'lat': 22.5358339, 'lon': 91.9250837, 'tags': {'amenity': 'pharmacy', 'healthcare': 'pharmacy', 'name': 'M/S SIMUL PHARMACY, Pharmacy, Chittagong - Rangamati Hwy, Raozan, Chattogram'}}"
"{'type': 'node', 'id': 11590973605, 'lat': 22.5350013, 'lon': 91.9197717, 'tags': {'amenity': 'pharmacy', 'healthcare': 'pharmacy', 'name': 'Deposit Pharmacy, Pharmacy, Chittagong - Rangamati Hwy, Raozan, Chattogram'}}"
"{'type': 'node', 'id': 11590973606, 'lat': 22.5369512, 'lon': 91.9294774, 'tags': {'amenity': 'pharmacy', 'healthcare': 'pharmacy', 'name': 'Simul pharmicy, Chittagong - Rangamati Hwy, Raozan, Chattogram'}}"
"{'type': 'node', 'id': 11693044331, 'lat': 22.5348713, 'lon': 91.9137923, 'tags': {'amenity': 'pharmacy', 'healthcare': 'pharmacy', 'name': 'An Noor Pharmacy, Chittagong - Rangamati Hwy, Raozan, Chattogram'}}"
"{'type': 'node', 'id': 11693127167, 'lat': 22.5324818, 'lon': 91.8921099, 'tags': {'amenity': 'pharmacy', 'healthcare': 'pharmacy', 'name': 'Raozan Medical Hall, Chittagong - Rangamati Hwy, Raozan, Chattogram'}}"
"{'type': 'node', 'id': 11693484194, 'lat': 22.5100252, 'lon': 91.8393062, 'tags': {'amenity': 'pharmacy', 'healthcare': 'pharmacy', 'name': 'Arfin Pharmacy, Chittagong - Rangamati Hwy, Hathazari, Chattogram'}}"
"{'type': 'node', 'id': 11693525146, 'lat': 22.509966, 'lon': 91.8399409, 'tags': {'amenity': 'pharmacy', 'healthcare': 'pharmacy', 'name': 'M/s Faizia Pharmacy, Ichapur Faizia Bazar, Rangamati Road, Hathazari, Chattogram'}}"
"{'type': 'node', 'id': 11693525679, 'lat': 22.5103449, 'lon': 91.8400552, 'tags': {'amenity': 'doctors', 'healthcare': 'doctor', 'name': 'Dr. Hafizur Rahman Chamber, Rangamati road, Hathazari, Chittagong - Rangamati Hwy, Chattogram'}}"
"{'type': 'node', 'id': 11693537853, 'lat': 22.5101933, 'lon': 91.8397716, 'tags': {'amenity': 'pharmacy', 'healthcare': 'pharmacy', 'name': 'M/S Be Alam Pharmacy, Rangamati Road, Ichapur Fauzia Bazar, Rangamati Hwy, Hathazari, Chattogram'}}"
"{'type': 'node', 'id': 11697177264, 'lat': 22.5027762, 'lon': 91.8138491, 'tags': {'amenity': 'pharmacy', 'healthcare': 'pharmacy', 'name': 'S. Ahammad pharmacy, Chittagong - Rangamati Hwy, Hathazari, Chattogram'}}"
"{'type': 'node', 'id': 11697182179, 'lat': 22.5030615, 'lon': 91.8154155, 'tags': {'amenity': 'pharmacy', 'healthcare': 'pharmacy', 'name': 'Salam Pharmacy, Hathazari, Chittagong - Rangamati Hwy, Chattogram'}}"
"{'type': 'node', 'id': 11699626321, 'lat': 22.4997, 'lon': 91.808165, 'tags': {'amenity': 'pharmacy', 'healthcare': 'pharmacy', 'name': 'M/s. Ferdous Pharmacy, Chittagong - Rangamati Hwy, Hathazari, Chattogram'}}"
"{'type': 'node', 'id': 11699654327, 'lat': 22.499308, 'lon': 91.8076402, 'tags': {'amenity': 'pharmacy', 'healthcare': 'pharmacy', 'name': 'New Hathazari Medical Hall, Rangamati Road, Hathazari Pourshaba, Chattogram'}}"
"{'type': 'node', 'id': 12153537948, 'lat': 23.1634294, 'lon': 92.1880336, 'tags': {'amenity': 'hospital', 'healthcare': 'hospital', 'name': 'বাঘাইছড়ি উপজেলা স্বাস্থ্য কমপ্লেক্স', 'name:en': 'Baghaichhari Upazila Health Complex'}}"
"{'type': 'node', 'id': 12153811061, 'lat': 23.1390075, 'lon': 92.2212186, 'tags': {'amenity': 'hospital', 'healthcare': 'hospital', 'name': 'উগলছড়ি হেলথ কমপ্লেক্স', 'name:en': 'Ugalchhari Health Complex'}}"
