OSM_Data
"{'type': 'node', 'id': 266877864, 'lat': 23.8747993, 'lon': 90.396733, 'tags': {'addr:city': 'Uttara, Dhaka', 'addr:housenumber': 'House 34, Road 4, Sector 9', 'addr:postcode': '1230', 'addr:street': 'Sonargaon Janapath', 'amenity': 'hospital', 'emergency': 'yes', 'name': 'উত্তরা আধুনিক মেডিকেল কলেজ ও হাসপাতাল', 'name:bn': 'উত্তরা আধুনিক মেডিকেল কলেজ ও হাসপাতাল', 'name:en': 'Uttara Adhunik Medical College', 'phone': '+88028911600', 'ref': 'Bangladesh Medical College'}}"
"{'type': 'node', 'id': 266885101, 'lat': 23.867307, 'lon': 90.3966708, 'tags': {'amenity': 'hospital', 'name': 'Uttara Cresent'}}"
"{'type': 'node', 'id': 621454326, 'lat': 23.8562496, 'lon': 90.265914, 'tags': {'addr:city': 'Savar, Dhaka', 'addr:postcode': '1343', 'addr:street': 'C R P Road', 'amenity': 'hospital', 'emergency': 'yes', 'name': 'C R P'}}"
"{'type': 'node', 'id': 621454556, 'lat': 23.8560828, 'lon': 90.265239, 'tags': {'addr:city': 'Savar, Dhaka', 'addr:postcode': '1343', 'addr:street': 'C R P Road', 'amenity': 'pharmacy'}}"
"{'type': 'node', 'id': 1148733433, 'lat': 23.8067659, 'lon': 90.3679588, 'tags': {'amenity': 'pharmacy', 'healthcare': 'pharmacy', 'name': 'Prince Pharma'}}"
"{'type': 'node', 'id': 1148733438, 'lat': 23.8025826, 'lon': 90.3601186, 'tags': {'healthcare': 'hospice', 'name': 'Kidney Research Institute'}}"
"{'type': 'node', 'id': 1496120242, 'lat': 23.8745527, 'lon': 90.3935646, 'tags': {'amenity': 'pharmacy', 'name': 'Pharmaland'}}"
"{'type': 'node', 'id': 1496128734, 'lat': 23.8704897, 'lon': 90.4035461, 'tags': {'addr:city': 'Dhaka', 'addr:housenumber': '32', 'addr:postcode': '1230', 'addr:street': 'Isha Khan Avenue, Sector 6, Uttara Model Town', 'amenity': 'hospital', 'emergency': 'yes', 'name': 'আমেরিকান সুপারস্পেসটিটি হাসপাতাল', 'name:en': 'American SuperSpecialty Hospital', 'phone': '+880 2 8932345, +880 2 8918319, +880 2 8918349, +880 2 8918395, +8806662617496, +8801921346125, +8801733559050', 'source': 'http://www.americanhospital-bd.com', 'website': 'http://www.americanhospital-bd.com', 'wheelchair': 'yes'}}"
"{'type': 'node', 'id': 2178263960, 'lat': 23.8119328, 'lon': 90.4306397, 'tags': {'amenity': 'pharmacy', 'dispensing': 'yes', 'name': 'Tamanna Pharmacy', 'opening_hours': '24/7'}}"
"{'type': 'node', 'id': 2332679000, 'lat': 24.4064424, 'lon': 90.3816307, 'tags': {'amenity': 'hospital', 'healthcare': 'hospital', 'name': 'Bhaluka Upazillz Health Complex'}}"
"{'type': 'node', 'id': 2332679001, 'lat': 24.462716, 'lon': 90.5451623, 'tags': {'addr:street': 'Mymensingh-Gafargaon Highway', 'amenity': 'hospital', 'emergency': 'yes', 'healthcare': 'hospital', 'name': 'Gafargaon Upazilla Health Complex'}}"
"{'type': 'node', 'id': 2332679003, 'lat': 24.4657899, 'lon': 90.8718753, 'tags': {'amenity': 'hospital', 'name': 'Karimganj Upazilla Health Complex'}}"
"{'type': 'node', 'id': 2332679004, 'lat': 24.2443695, 'lon': 90.7978091, 'tags': {'amenity': 'hospital', 'name': 'Katiyadi Upazilla Health Complex'}}"
"{'type': 'node', 'id': 2332679006, 'lat': 24.5661403, 'lon': 90.6902107, 'tags': {'addr:street': 'Nandail - Hossainpur Road', 'amenity': 'hospital', 'level': '4', 'name': 'Nandail Upazilla Health Complex', 'operator': 'Government', 'operator:type': 'public'}}"
"{'type': 'node', 'id': 2332679007, 'lat': 24.3258926, 'lon': 90.9336303, 'tags': {'amenity': 'hospital', 'name': 'Nikli Upazilla Health Complex'}}"
"{'type': 'node', 'id': 2332679008, 'lat': 24.3293628, 'lon': 90.6794941, 'tags': {'addr:city': 'Pakundia', 'addr:country': 'BD', 'addr:district': 'Kishoreganj', 'addr:street': 'Pakundia - Kishoreganj Road', 'amenity': 'hospital', 'name': 'Pakundia Upazilla Health Complex'}}"
"{'type': 'node', 'id': 2332679009, 'lat': 24.5764913, 'lon': 90.3948003, 'tags': {'addr:street': 'ঢাকা-ময়মনসিংহ মহাসড়ক', 'amenity': 'hospital', 'emergency': 'yes', 'healthcare': 'hospital', 'name': 'Trishal Upazilla Health Complex'}}"
"{'type': 'node', 'id': 2332679846, 'lat': 24.2005371, 'lon': 90.4785541, 'tags': {'amenity': 'hospital', 'healthcare': 'hospital', 'name': 'Sreepur Upazilla Health Complex'}}"
"{'type': 'node', 'id': 2332686512, 'lat': 23.7878589, 'lon': 90.327993, 'tags': {'amenity': 'hospital', 'name': 'Aminbazar union Health Center'}}"
"{'type': 'node', 'id': 2332686513, 'lat': 23.9137071, 'lon': 90.227525, 'tags': {'amenity': 'hospital', 'healthcare': 'hospital', 'name': 'Dhamrai Upazilla Health Complex'}}"
"{'type': 'node', 'id': 2332686514, 'lat': 23.9925472, 'lon': 90.4248042, 'tags': {'amenity': 'hospital', 'name': 'Gazipur General Hospital'}}"
"{'type': 'node', 'id': 2332686519, 'lat': 23.8386649, 'lon': 90.2478719, 'tags': {'amenity': 'hospital', 'name': 'Savar Upazilla Health Complex'}}"
"{'type': 'node', 'id': 2332686520, 'lat': 23.8137908, 'lon': 90.1490043, 'tags': {'amenity': 'hospital', 'name': 'Singair Upazilla Health Complex'}}"
"{'type': 'node', 'id': 2332856859, 'lat': 25.1014026, 'lon': 91.3039972, 'tags': {'amenity': 'hospital', 'healthcare': 'hospital'}}"
"{'type': 'node', 'id': 2332856875, 'lat': 25.090095, 'lon': 90.5134661, 'tags': {'amenity': 'hospital', 'name': 'Dhobaura Upazila Health Complex'}}"
"{'type': 'node', 'id': 2332856898, 'lat': 25.074178, 'lon': 90.8931413, 'tags': {'amenity': 'hospital', 'name': 'Kalmakanda Upazila Health Complex'}}"
"{'type': 'node', 'id': 2332856909, 'lat': 25.0934153, 'lon': 90.188886, 'tags': {'amenity': 'hospital', 'name': 'Nalitabari Upazila Health Complex'}}"
"{'type': 'node', 'id': 2332856912, 'lat': 24.9484441, 'lon': 90.3648299, 'tags': {'amenity': 'hospital', 'name': 'Phulpur Upazila Health Complex'}}"
"{'type': 'node', 'id': 2332856927, 'lat': 25.0651231, 'lon': 91.410647, 'tags': {'amenity': 'hospital', 'name': 'Sunamganj General Hospital'}}"
"{'type': 'node', 'id': 2332856931, 'lat': 25.0979172, 'lon': 91.1854831, 'tags': {'addr:district': 'Sunamganj', 'addr:union': 'Borodol', 'addr:ward': '6', 'amenity': 'hospital', 'building': 'yes', 'damage': 'no', 'description': ""it's not any damaged yet."", 'name': 'Tahirpur Upazila Health Complex', 'source': 'survey', 'source:date': '2018-07-22', 'source:name': 'logic_undp', 'source_ref': 'https://www.openstreetmap.org/user/aHaSaN/diary', 'type': 'institutional'}}"
"{'type': 'node', 'id': 2332872344, 'lat': 24.9987899, 'lon': 91.2356038, 'tags': {'amenity': 'hospital', 'name': 'Jamalganj Upazila Health Complex'}}"
"{'type': 'node', 'id': 2332872347, 'lat': 24.8792089, 'lon': 90.9820953, 'tags': {'amenity': 'hospital', 'name': 'Mohanganj Upazila Health Complex'}}"
"{'type': 'node', 'id': 2332892994, 'lat': 24.5515794, 'lon': 91.2355889, 'tags': {'amenity': 'hospital', 'name': 'Ajmiriganj Upazila Health Complex'}}"
"{'type': 'node', 'id': 2332892995, 'lat': 24.5043956, 'lon': 91.363971, 'tags': {'amenity': 'hospital', 'name': 'বানিয়াচং ঊপজেলা স্বাস্থ্য কমপ্লেক্স', 'name:en': 'Baniachang Upazila Health Complex'}}"
"{'type': 'node', 'id': 2332892996, 'lat': 24.3735429, 'lon': 91.4176425, 'tags': {'addr:city': 'Habiganj', 'addr:postcode': '3300', 'amenity': 'hospital', 'name': 'Habiganj General Hospital', 'name:bn': 'হবিগঞ্জ সরকারী হাসপাতাল', 'source': 'hospital'}}"
"{'type': 'node', 'id': 2332919089, 'lat': 24.1940443, 'lon': 91.1962986, 'tags': {'amenity': 'hospital', 'name': 'Nasirnagar Upazila Health Complex'}}"
"{'type': 'node', 'id': 2333151683, 'lat': 23.9764611, 'lon': 91.111005, 'tags': {'amenity': 'hospital', 'healthcare': 'hospital', 'name': 'Brahmanbaria General Hospital'}}"
"{'type': 'node', 'id': 2333151684, 'lat': 24.0971494, 'lon': 91.2875089, 'tags': {'amenity': 'hospital', 'name': 'Madhabpur Upazila Health Complex'}}"
"{'type': 'node', 'id': 2333164527, 'lat': 23.8645379, 'lon': 91.203273, 'tags': {'amenity': 'hospital', 'name': 'Akhaura Upazila Health Complex'}}"
"{'type': 'node', 'id': 2333164528, 'lat': 23.7720763, 'lon': 90.8021663, 'tags': {'amenity': 'hospital', 'healthcare': 'hospital', 'name': 'Bancharampur Upazila Health Complex'}}"
"{'type': 'node', 'id': 2343354456, 'lat': 23.7940859, 'lon': 90.4128239, 'tags': {'amenity': 'hospital', 'name': 'Lab Aid Hospital'}}"
"{'type': 'node', 'id': 2405793400, 'lat': 23.8862864, 'lon': 90.9676658, 'tags': {'amenity': 'hospital', 'name': 'Nabinagar Upazila Health Complex'}}"
"{'type': 'node', 'id': 2409448296, 'lat': 24.9672892, 'lon': 90.1832214, 'tags': {'amenity': 'hospital', 'name': 'Nakla Upazilla Health Complex'}}"
"{'type': 'node', 'id': 2616255489, 'lat': 24.9218234, 'lon': 91.4433542, 'tags': {'amenity': 'hospital', 'name': 'Khaled General Hospital'}}"
"{'type': 'node', 'id': 2697236496, 'lat': 23.8691562, 'lon': 90.4041091, 'tags': {'addr:city': 'Dhaka', 'addr:housenumber': 'House 24', 'addr:postcode': '1230', 'addr:street': 'Road 13, Sector 6, Uttara Model Town', 'amenity': 'hospital', 'name': 'Uttara Community Hospital', 'note': 'House no: 24, Road no: 13, Sector: 06, Uttara, Dhaka-1230 info@uchlbd.com \ufeffTel Phone: 8951475 Mobile: 01924-752988, 01962-407044', 'phone': '+88028951475, +8801924752988, +8801962407044', 'source': 'http://ds24editor.wix.com/uchl', 'website': 'http://ds24editor.wix.com/uchl'}}"
"{'type': 'node', 'id': 2739267671, 'lat': 23.8029679, 'lon': 90.3621223, 'tags': {'healthcare': 'hospice', 'name': 'Institute of Child Health and Shishu Sastho Foundation Hospital'}}"
"{'type': 'node', 'id': 2875626058, 'lat': 23.8139265, 'lon': 90.4007003, 'tags': {'amenity': 'hospital', 'name': 'এএফআইপি', 'name:en': 'AFIP'}}"
"{'type': 'node', 'id': 2877319781, 'lat': 23.7989706, 'lon': 90.3865056, 'tags': {'amenity': 'hospital', 'name': 'MARKS HOSPITAL'}}"
"{'type': 'node', 'id': 2895202033, 'lat': 23.8941807, 'lon': 90.3766464, 'tags': {'amenity': 'hospital', 'name': 'East West Medical College and Hospital'}}"
"{'type': 'node', 'id': 2993160472, 'lat': 23.780555, 'lon': 90.4101087, 'tags': {'addr:city': 'Dhaka', 'addr:housenumber': '28/8/B, 15th Floor', 'addr:postcode': '1200', 'addr:street': 'Bir Uttam A. K. Khandakar Road', 'amenity': 'hospital', 'name': 'Life Care'}}"
"{'type': 'node', 'id': 2993197559, 'lat': 23.7762603, 'lon': 90.4087339, 'tags': {'amenity': 'hospital', 'healthcare': 'hospital', 'name': 'National Institute of Diseases of the Chest & Hospital'}}"
"{'type': 'node', 'id': 3104950858, 'lat': 23.8845564, 'lon': 90.4081926, 'tags': {'amenity': 'clinic'}}"
"{'type': 'node', 'id': 3283392703, 'lat': 23.7735858, 'lon': 90.410826, 'tags': {'amenity': 'hospital'}}"
"{'type': 'node', 'id': 3283392704, 'lat': 23.7739208, 'lon': 90.4099113, 'tags': {'addr:city': 'Dhaka', 'addr:postcode': '1212', 'amenity': 'hospital', 'emergency': 'no', 'name': 'TB Hospital'}}"
"{'type': 'node', 'id': 3448928685, 'lat': 23.8389294, 'lon': 90.2555897, 'tags': {'amenity': 'pharmacy', 'name': 'Bonik Pharmacy'}}"
"{'type': 'node', 'id': 3448929180, 'lat': 23.8388253, 'lon': 90.2554189, 'tags': {'amenity': 'pharmacy', 'name': 'R K Pharmacy'}}"
"{'type': 'node', 'id': 3449986116, 'lat': 23.8478476, 'lon': 90.2569601, 'tags': {'amenity': 'pharmacy', 'name': 'Lucky Pharmacy'}}"
"{'type': 'node', 'id': 3449987022, 'lat': 23.847806, 'lon': 90.2565676, 'tags': {'amenity': 'pharmacy', 'name': 'Mukti Pharmacy'}}"
"{'type': 'node', 'id': 3449987476, 'lat': 23.8481927, 'lon': 90.2562505, 'tags': {'amenity': 'pharmacy', 'name': 'Sonika Pharmacy'}}"
"{'type': 'node', 'id': 3449988114, 'lat': 23.8481704, 'lon': 90.2562912, 'tags': {'amenity': 'pharmacy', 'name': 'D-Pharma'}}"
"{'type': 'node', 'id': 3449989157, 'lat': 23.847754, 'lon': 90.25634, 'tags': {'amenity': 'pharmacy', 'name': 'Tajalli Pharmacy'}}"
"{'type': 'node', 'id': 3450283986, 'lat': 23.7735111, 'lon': 90.3695891, 'tags': {'amenity': 'hospital', 'name': 'National Institute of Traumatology & Orthopaedic Rehabilitation (NITOR)'}}"
"{'type': 'node', 'id': 3558445435, 'lat': 24.8713797, 'lon': 90.7338547, 'tags': {'amenity': 'clinic', 'name': 'Diagonostic Center'}}"
"{'type': 'node', 'id': 3558445437, 'lat': 24.8717249, 'lon': 90.7321918, 'tags': {'amenity': 'hospital', 'name': 'Netrokona Sadar Hospital', 'operator': 'Government'}}"
"{'type': 'node', 'id': 3558445439, 'lat': 24.8708332, 'lon': 90.7341675, 'tags': {'amenity': 'clinic', 'area': 'Netrokona', 'name': 'Tori Madokasokto Niramoy Kendro'}}"
"{'type': 'node', 'id': 3559007759, 'lat': 24.869447, 'lon': 90.7315758, 'tags': {'amenity': 'clinic', 'area': 'Netrokona Sadar', 'name': 'Apollo Diagonostic Center', 'operator': 'Private'}}"
"{'type': 'node', 'id': 3559007771, 'lat': 24.8712454, 'lon': 90.7309338, 'tags': {'amenity': 'clinic', 'area': 'Netrokona Sadar', 'name': 'Nabila Diagonostic Center', 'operator': 'Private'}}"
"{'type': 'node', 'id': 3559007773, 'lat': 24.8713032, 'lon': 90.7304793, 'tags': {'amenity': 'clinic', 'area': 'Netrokona Sadar', 'name': 'Nova Diagonostic Center', 'operator': 'Private'}}"
"{'type': 'node', 'id': 3559112805, 'lat': 24.8710003, 'lon': 90.7318334, 'tags': {'amenity': 'clinic', 'area': 'Netrokona Sadar', 'name': 'Al Raji Diagonostic center', 'road': 'Sadar Hospital Road, Jaynogor'}}"
"{'type': 'node', 'id': 3559113604, 'lat': 24.7167996, 'lon': 90.9453272, 'tags': {'amenity': 'hospital', 'name': 'Madan Upazilla Health Complex'}}"
"{'type': 'node', 'id': 3559115596, 'lat': 24.8708431, 'lon': 90.7318495, 'tags': {'amenity': 'clinic', 'area': 'Netrokona Sadar', 'name': 'Fatema Diagonostic Center', 'road': 'Sadar Hospital Road, Jaynogor'}}"
"{'type': 'node', 'id': 3561656512, 'lat': 24.8794752, 'lon': 90.7312357, 'tags': {'amenity': 'clinic', 'area': 'Netrokona Sadar, Moktarpara Road', 'name': 'City Digital Diagonostic Center'}}"
"{'type': 'node', 'id': 3561656513, 'lat': 24.8786202, 'lon': 90.7307965, 'tags': {'amenity': 'clinic', 'area': 'Netrokona Sadar, Moktarpara Road', 'name': 'D.M Digilab'}}"
"{'type': 'node', 'id': 3561656520, 'lat': 24.8796848, 'lon': 90.7312161, 'tags': {'amenity': 'clinic', 'area': 'Netrokona Sadar, Moktarpara Road', 'name': 'Model Diagonostic Center'}}"
"{'type': 'node', 'id': 3561656524, 'lat': 24.8793661, 'lon': 90.7314299, 'tags': {'amenity': 'hospital', 'area': 'Netrokona Sadar, Moktarpara Road', 'name': 'New Swadesh Hospital and Diagonostic Center'}}"
"{'type': 'node', 'id': 3561656525, 'lat': 24.880044, 'lon': 90.7314073, 'tags': {'amenity': 'clinic', 'area': 'Netrokona Sadar, Moktarpara Road', 'name': 'Nirapod Diagonostic Center'}}"
"{'type': 'node', 'id': 3561656526, 'lat': 24.87864, 'lon': 90.7308304, 'tags': {'amenity': 'clinic', 'area': 'Netrokona Sadar, Moktarpara Road', 'name': 'Nurjahan Digilab'}}"
"{'type': 'node', 'id': 3561814428, 'lat': 24.8796536, 'lon': 90.7315693, 'tags': {'amenity': 'clinic', 'name': 'Maa O Shishu Clinic'}}"
"{'type': 'node', 'id': 3575340362, 'lat': 24.7429322, 'lon': 90.40919, 'tags': {'amenity': 'hospital', 'name': 'Mymensingh medical collage hospital'}}"
"{'type': 'node', 'id': 3702053369, 'lat': 25.106312, 'lon': 90.6728523, 'tags': {'amenity': 'hospital', 'name': 'Health & Family Wlfare Center'}}"
"{'type': 'node', 'id': 3732014453, 'lat': 23.8748207, 'lon': 90.3963555, 'tags': {'amenity': 'pharmacy'}}"
"{'type': 'node', 'id': 3732015526, 'lat': 23.8747594, 'lon': 90.3963609, 'tags': {'amenity': 'pharmacy'}}"
"{'type': 'node', 'id': 3732024134, 'lat': 23.8746415, 'lon': 90.3963689, 'tags': {'amenity': 'pharmacy'}}"
"{'type': 'node', 'id': 3732024135, 'lat': 23.8747088, 'lon': 90.3963618, 'tags': {'amenity': 'pharmacy'}}"
"{'type': 'node', 'id': 3732024972, 'lat': 23.8751676, 'lon': 90.3963429, 'tags': {'amenity': 'pharmacy'}}"
"{'type': 'node', 'id': 3732024974, 'lat': 23.8752657, 'lon': 90.396367, 'tags': {'amenity': 'pharmacy'}}"
"{'type': 'node', 'id': 3732027724, 'lat': 23.8750733, 'lon': 90.3963394, 'tags': {'amenity': 'pharmacy'}}"
"{'type': 'node', 'id': 3732377402, 'lat': 23.8056811, 'lon': 90.3682651, 'tags': {'amenity': 'pharmacy', 'name': 'Mouri Medicine and Tamanna Medicine'}}"
"{'type': 'node', 'id': 3732378507, 'lat': 23.7900973, 'lon': 90.4110127, 'tags': {'addr:city': 'Banani, Dhaka', 'addr:housenumber': '76/B', 'addr:postcode': '1212', 'addr:street': 'Road 11', 'amenity': 'pharmacy', 'name': 'Pharmacy Plus'}}"
"{'type': 'node', 'id': 3732390817, 'lat': 23.8027632, 'lon': 90.370642, 'tags': {'amenity': 'hospital', 'healthcare': 'hospital', 'name': 'Al-Helal Hospital'}}"
"{'type': 'node', 'id': 3734803537, 'lat': 23.8075588, 'lon': 90.3696927, 'tags': {'amenity': 'hospital', 'check_date': '2024-04-22', 'name': 'radda'}}"
"{'type': 'node', 'id': 3734892619, 'lat': 23.796898, 'lon': 90.3731177, 'tags': {'amenity': 'pharmacy', 'name': 'Trisha Medicare Center'}}"
"{'type': 'node', 'id': 3734921272, 'lat': 23.8682156, 'lon': 90.3940639, 'tags': {'amenity': 'hospital'}}"
"{'type': 'node', 'id': 3734952735, 'lat': 23.871708, 'lon': 90.4009833, 'tags': {'amenity': 'pharmacy', 'name': 'Farmacity'}}"
"{'type': 'node', 'id': 3740064551, 'lat': 23.8166526, 'lon': 90.3674582, 'tags': {'amenity': 'hospital', 'name': 'Eye hospital'}}"
"{'type': 'node', 'id': 3740065691, 'lat': 23.8160831, 'lon': 90.3658015, 'tags': {'amenity': 'pharmacy', 'name': 'QPS'}}"
"{'type': 'node', 'id': 3740073250, 'lat': 23.8177973, 'lon': 90.3689639, 'tags': {'amenity': 'pharmacy', 'healthcare': 'pharmacy', 'name': 'Riya Fharmacy'}}"
"{'type': 'node', 'id': 3740075176, 'lat': 23.8182548, 'lon': 90.3686758, 'tags': {'amenity': 'pharmacy', 'healthcare': 'pharmacy', 'name': 'KOrim pharmacy'}}"
"{'type': 'node', 'id': 3781601257, 'lat': 23.8097529, 'lon': 90.3700373, 'tags': {'addr:city': 'Mirpur-10', 'addr:postcode': '1216', 'addr:street': 'Avenue-1, Block-B, Section-10 (Gate no1, Benaroshi polli market)', 'amenity': 'clinic', 'building:levels': '5', 'closing_hours': '9 pm', 'fixme': 'ele(elevation)=No', 'healthcare': 'clinic', 'name': 'Sarkar Homeo Hall', 'note': 'Ladies homeopathy available opposite of ""Top Choice""', 'opening_hours': '16:00-21:00', 'phone': '+8801552373773'}}"
"{'type': 'node', 'id': 3781602856, 'lat': 23.8191107, 'lon': 90.378983, 'tags': {'addr:city': 'mirpur-11,Dhaka', 'addr:housenumber': 'B-block', 'addr:street': 'Road-13', 'amenity': 'pharmacy', 'closing_Hour': '00.00', 'contact:phone': '+8801924478365', 'fee': 'no', 'healthcare': 'pharmacy', 'name': 'মদিনা মেডিক্যাল হল', 'node_id': '3781602856', 'operator': 'জামাল উদ্দিন', 'service_category': 'HLT:15'}}"
"{'type': 'node', 'id': 3781617595, 'lat': 23.8196826, 'lon': 90.3806812, 'tags': {'addr:city': 'mirpur -11,dhaka', 'addr:housenumber': 'E-block, line-3', 'addr:street': 'bazar road', 'amenity': 'pharmacy', 'name': 'Beauty Medical Hall', 'name:bn': 'বিউটি মেডিক্যাল হল', 'opening_hours': '09:00-23:00', 'operator': 'মমতাজ উদ্দিন'}}"
"{'type': 'node', 'id': 3781620034, 'lat': 23.8100388, 'lon': 90.3704262, 'tags': {'addr:city': 'Mirpur-10', 'addr:postcode': '1216', 'addr:street': 'Jodumolla Complex, Benaroshi polli', 'amenity': 'pharmacy', 'check_date': '2023-02-14', 'fixme': 'ele(elevation)=No', 'internet_access': 'no', 'name': 'Prince Pharma', 'note': 'Beside ""Palki"" and Main road', 'payment:cards': 'no', 'payment:credit_cards': 'no', 'payment:debit_cards': 'no', 'phone': '+8801720531011', 'wheelchair': 'no'}}"
"{'type': 'node', 'id': 3781626626, 'lat': 23.8201253, 'lon': 90.3805258, 'tags': {'addr:city': 'Mirpur-11 , bauniabadh,Pallabi.Dhaka', 'addr:street': 'Bazaar Road ,E-block', 'amenity': 'pharmacy', 'contact:phone': '+8801918697178', 'name': 'মিতু ফার্মেসি', 'note': 'no degree', 'operator': 'ফরিদ'}}"
"{'type': 'node', 'id': 3781657800, 'lat': 23.8191076, 'lon': 90.3805302, 'tags': {'addr:city': 'Bauniabadh, Pallabi, Mirpur-11, Dhaka', 'addr:housenumber': 'E-block', 'amenity': 'hospital', 'licensed': 'Government', 'name': 'Government Outdoor Dispensary (GOD)', 'note': 'Muslim Aid Road', 'opening_hours': 'Sa-Th 9:00-14:00; Fr off'}}"
"{'type': 'node', 'id': 3788786313, 'lat': 23.7740437, 'lon': 90.4052251, 'tags': {'amenity': 'hospital', 'name': 'Songkramok Badhi Hospital'}}"
"{'type': 'node', 'id': 3804491314, 'lat': 23.8203079, 'lon': 90.3779965, 'tags': {'addr:city': 'Bauniabadh, Pallabi, Mirpur 11, Dhaka', 'addr:housenumber': 'House 2/28', 'addr:postcode': '1216', 'addr:street': 'Avenue 8', 'addr:suburb': 'Bauniabadh', 'amenity': 'pharmacy', 'building:addr': 'Block B, Section 11, Avenue 8, Bauniabadh,', 'contact:phone': '+8801819140647', 'level': '1', 'name': 'Medicine Corner', 'name:bn': 'মেডিসিন কর্নার', 'opening_hours': '09:00-13:00,17:00-22:00'}}"
"{'type': 'node', 'id': 3804503850, 'lat': 23.8201385, 'lon': 90.3780185, 'tags': {'addr:city': 'Bauniabadh, Pallabi, Mirpur 11, Dhaka', 'addr:housenumber': '1', 'addr:place': 'Block B', 'addr:postcode': '1216', 'addr:street': 'Road 3, Avenue 8', 'addr:suburb': 'Bauniabadh', 'amenity': 'pharmacy', 'building:addr': 'House 1, Road 3, Avenue 8, Block B, Section 11, Bauniabadh', 'contact:phone': '+8801735258377', 'level': '1', 'name': 'Arafat Pharmacy and Medicine', 'name:bn': 'আরাফাত ফার্মেসি এন্ড মেডিসিন', 'opening_hours': '10:00-14:00,17:00-24:00'}}"
"{'type': 'node', 'id': 3804507337, 'lat': 23.8199182, 'lon': 90.3780435, 'tags': {'addr:city': 'Bauniabadh, Pallabi, Mirpur 11, Dhaka', 'addr:housenumber': '1', 'addr:postcode': '1216', 'addr:street': 'Road 4,Block B, Avenue 8', 'addr:suburb': 'Bauniabadh', 'amenity': 'pharmacy', 'building:addr': 'House 1, Road 4, Avenue 8, Bloack B, Section 11, Bauniabadh', 'contact:phone': '+8801912606723', 'level': '1', 'name': 'Maa-Babar Dowa Pharmacy and Dental Care', 'name:bn': 'মা-বাবার দোয়া ফার্মেসি এন্ড ডেন্টাল কেয়ার', 'opening_hours': '16:00-22:00'}}"
"{'type': 'node', 'id': 3804558362, 'lat': 23.8205609, 'lon': 90.3780962, 'tags': {'addr:housenumber': 'Bauniabadh', 'amenity': 'pharmacy', 'name': 'Rabia Pharmacy', 'name:bn': 'রাবিয়া ফার্মেসি'}}"
"{'type': 'node', 'id': 3804558630, 'lat': 23.8200415, 'lon': 90.3792059, 'tags': {'addr:city': 'Bauniabadh, Pallabi, Dhaka', 'addr:housenumber': 'B-block', 'addr:postcode': '1216', 'addr:street': 'Mosque road', 'amenity': 'clinic', 'level': '1', 'name': 'Radda Plan Joint Project', 'name:bn': 'রাড্ডা প্ল্যান যৌথ প্রকল্প', 'note': 'community center', 'opening_hours': '9:00-17:00'}}"
"{'type': 'node', 'id': 3804559064, 'lat': 23.8198956, 'lon': 90.3786701, 'tags': {'addr:city': 'Bauniabadh, Dhaka', 'addr:housenumber': 'Block B', 'addr:place': 'Block B', 'addr:postcode': '1216', 'addr:suburb': 'Bauniabadh', 'amenity': 'pharmacy', 'building:addr': 'Block B, Pallabi, Section 11, Bauniabadh', 'level': '1', 'name': 'Saiful Medical Hall', 'name:bn': 'সাইফুল মেডিক্যাল হল', 'opening_hours': '17:00-18:00; 21:00-23:00'}}"
"{'type': 'node', 'id': 3804562882, 'lat': 23.8206852, 'lon': 90.3782976, 'tags': {'amenity': 'pharmacy', 'name': 'Rafia Medical Hall', 'name:bn': 'রাফিয়া মেডিকেল হল', 'service_category': 'hlt :15'}}"
"{'type': 'node', 'id': 3804589391, 'lat': 23.8228197, 'lon': 90.3784229, 'tags': {'addr:city': 'Bauniabadh, Mirpur 11, Dhaka', 'addr:housenumber': 'House 1', 'addr:place': 'Block C', 'addr:postcode': '1216', 'addr:street': 'Block C, Road 7', 'addr:suburb': 'Bauniabadh', 'amenity': 'pharmacy', 'building:addr': 'House 1, Road 7, Block C, Bauniabadh', 'contact:phone': '+8801710936780', 'level': '1', 'name': 'Bhola Medicine and Telecom', 'name:bn': 'ভোলা মেডিসিন এন্ড টেলিকম', 'opening_hours': 'Sa-Th 09:00-23:30; Fr 09:00-13:00,14:00-23:30'}}"
"{'type': 'node', 'id': 3804590698, 'lat': 23.822824, 'lon': 90.378447, 'tags': {'addr:city': 'Bauniabadh, Mirpur 11, Dhaka', 'addr:housenumber': 'House 1', 'addr:place': 'Block C', 'addr:postcode': '1216', 'addr:street': 'Block C, Road 7', 'addr:suburb': 'Bauniabadh', 'amenity': 'pharmacy', 'building:addr': 'House 1, Road 7, Block C, Bauniabadh', 'level': '1', 'name': 'Snigdha Medicine Point', 'name:bn': 'স্নিগ্ধা মেডিসিন পয়েন্ট', 'opening_hours': '08:00-13:00,16:00-23:00'}}"
"{'type': 'node', 'id': 3804591042, 'lat': 23.8187787, 'lon': 90.3781394, 'tags': {'addr:city': 'Bauniabadh, Pallabi, Dhaka', 'addr:housenumber': 'House 24/A', 'addr:street': 'Block A', 'amenity': 'pharmacy', 'contact:phone': '+8801720172587', 'drive_through': 'yes', 'level': '1', 'name': 'Sheba Pharmacy and Pharmacy', 'name:bn': 'সেবা ফার্মেসী এবং ফার্মেসী', 'opening_hours': 'Su-Sa 08:00-24:00'}}"
"{'type': 'node', 'id': 3804593906, 'lat': 23.8228681, 'lon': 90.3788316, 'tags': {'addr:city': 'Dhaka', 'addr:housenumber': '7/12', 'addr:postcode': '1216', 'addr:street': 'Notun Rasta, Block C, Bauniabadh, Mirpur 11', 'addr:suburb': 'Pallabi', 'amenity': 'pharmacy', 'building:addr': 'House 7/12, Notun Rasta, Block C, Bauniabadh', 'level': '1', 'name': 'Ira Enterprise (Pharmacy)', 'name:bn': 'ইরা এন্টারপ্রাইজ (ফার্মেসি)', 'opening_hours': '17:00-21:00', 'phone': '+8801920169682'}}"
"{'type': 'node', 'id': 3804593911, 'lat': 23.8185088, 'lon': 90.3813206, 'tags': {'addr:city': 'Bauniabadh, Pallabi, Mirpur 11, Dhaka', 'addr:housenumber': 'House 8/12', 'addr:postcode': '1216', 'addr:street': 'Block D', 'amenity': 'pharmacy', 'name': 'Sumaiya Medicine Corner', 'name:bn': 'সুমাইয়া মেডিসিন কর্নার', 'opening_hours': '07:30-13:00, 17:00-24:00', 'operator': 'Mohammad Bashir Ahmed'}}"
"{'type': 'node', 'id': 3804595573, 'lat': 23.8188655, 'lon': 90.3781252, 'tags': {'addr:city': 'Bauniabadh, Pallabi, Dhaka', 'addr:housenumber': '1/1, Block-A', 'amenity': 'pharmacy', 'contact:phone': '+8801712892196', 'name': 'Momota Chikitsaloy', 'name:bn': 'মমতা চিকিৎসালয়', 'opening_hours': 'Su-Sa 08:00-23:00'}}"
"{'type': 'node', 'id': 3804603724, 'lat': 23.8190849, 'lon': 90.3781146, 'tags': {'addr:city': 'Bauniabadh, Pallabi, Dhaka', 'addr:housenumber': 'Block-B', 'addr:street': 'Section 11, Line 8/24', 'amenity': 'pharmacy', 'contact:phone': '+8801724632662', 'level': '1', 'name': 'Satota Pharmacy', 'name:bn': 'সততা ফার্মেসি', 'opening_hours': 'Su-Sa 09:00-01:00'}}"
"{'type': 'node', 'id': 3804615530, 'lat': 23.8190833, 'lon': 90.3782926, 'tags': {'addr:city': 'Bauniabadh, Pallabi, Mirpur-11, Dhaka', 'addr:housenumber': 'Block-B', 'addr:postcode': '1216', 'addr:street': 'Lane-8', 'amenity': 'pharmacy', 'contact:phone': '+8801914490030', 'name': 'Shuvra Pharmacy', 'name:bn': 'শুভ্রা ফার্মেসি', 'opening_hours': '08:00-13:00,15:00-22:00'}}"
"{'type': 'node', 'id': 3804677827, 'lat': 23.8190915, 'lon': 90.3791967, 'tags': {'addr:city': 'Bauniabadh, Pallabi, Mirpur-11, Dhaka', 'addr:housenumber': 'House 9, Block A', 'addr:place': 'Block A', 'addr:postcode': '1216', 'addr:street': 'Line 9', 'addr:suburb': 'Bauniabadh', 'amenity': 'pharmacy', 'building:addr': 'House 9, Line 9, Block A, Bauniabadh', 'contact:phone': '+8801770155797', 'healthcare': 'pharmacy', 'level': '1', 'name': 'Public Medicine Corner', 'name:bn': 'পাবলিক মেডিসিন কর্নার', 'opening_hours': '09:00-23:00'}}"
"{'type': 'node', 'id': 3805085372, 'lat': 23.8191329, 'lon': 90.3799572, 'tags': {'addr:city': 'Bauniabadh, Pallabi, Mirpur-11, Dhaka', 'addr:place': 'Block A', 'addr:street': 'Line 15', 'addr:suburb': 'Bauniabadh', 'amenity': 'pharmacy', 'building:addr': 'House 12, Line 15, Block A, Bauniabadh', 'level': '1', 'name': 'Anik Drug House', 'name:bn': 'অনিক ড্রাগ হাউজ'}}"
"{'type': 'node', 'id': 3805255141, 'lat': 23.8190932, 'lon': 90.3793516, 'tags': {'addr:city': 'Bauniabadh, Pallabi, Mirpur-11, Dhaka', 'addr:housenumber': 'House 12, Block A', 'addr:place': 'Block A', 'addr:postcode': '1216', 'addr:street': 'Line 9', 'addr:suburb': 'Bauniabadh', 'amenity': 'pharmacy', 'building:addr': 'House 12, LIne 9, Block A, Bauniabadh', 'level': '1', 'name': 'Rayhan Pharmacy', 'name:bn': 'রায়হান ফার্মেসি', 'opening_hours': '09:00-21:00'}}"
"{'type': 'node', 'id': 3805261622, 'lat': 23.8191429, 'lon': 90.379912, 'tags': {'addr:city': 'Bauniabadh, Pallabi, Mirpur-11, Dhaka', 'addr:place': 'Block A', 'addr:street': 'Line 15', 'addr:suburb': 'Bauniabadh', 'amenity': 'pharmacy', 'building:addr': 'House 11, Line 15, Block A, Bauniabadh', 'level': '1', 'name': 'Mahi Medical Hall', 'name:bn': 'মাহি মেডিকেল হল', 'opening_hours': '09:00-14:00,17:00-24:00'}}"
"{'type': 'node', 'id': 3810780331, 'lat': 23.8169014, 'lon': 90.3801762, 'tags': {'addr:city': 'Bauniabadh, Pallabi, Mirpur-11, Dhaka', 'addr:housenumber': 'House 12/A', 'addr:street': 'Block D, Road 7/45', 'amenity': 'pharmacy', 'building:levels': '1', 'licenced': 'Trade Licence', 'name': 'Bhola Pharmacy', 'name:bn': 'ভোলা ফার্মেসি', 'opening_hours': '08:00-13:00,14:00-01:00', 'phone': '+8801910007357', 'ref': '02-15875'}}"
"{'type': 'node', 'id': 3810781561, 'lat': 23.8071935, 'lon': 90.3781342, 'tags': {'addr:city': 'Mirpur 13, Dhaka', 'addr:housenumber': 'Block C', 'addr:postcode': '1216', 'addr:street': 'Road 13, Bazar Road', 'amenity': 'pharmacy', 'contact:phone': '+8801731467655', 'name': 'Sheba Pharmacy', 'name:bn': 'সেবা ফার্মেসী', 'opening_hours': '16:00-23:00'}}"
"{'type': 'node', 'id': 3810784257, 'lat': 23.8071501, 'lon': 90.3781006, 'tags': {'addr:city': 'Mirpur 13, Dhaka', 'addr:housenumber': 'Plot 35, Block C', 'addr:postcode': '1216', 'addr:street': 'Line 4, Road 13', 'amenity': 'pharmacy', 'level': '1', 'name': 'Nasir Medicine Corner', 'name:bn': 'নাসির মেডিসিন কর্ণার', 'opening_hours': '09:00-24:00'}}"
"{'type': 'node', 'id': 3810789042, 'lat': 23.8102996, 'lon': 90.3727355, 'tags': {'addr:city': 'Mirpur 10, Dhaka', 'addr:housenumber': 'Bolck C', 'addr:postcode': '1216', 'addr:street': 'Line 2/2', 'amenity': 'pharmacy', 'level': '1', 'name': 'জনতা ফার্মেসি', 'name:bn': 'জনতা ফার্মেসি', 'name:en': 'Jonota Pharmacy', 'opening_hours': '17:30-21:30'}}"
"{'type': 'node', 'id': 3810791329, 'lat': 23.8135117, 'lon': 90.3707107, 'tags': {'addr:city': 'Mirpur 10, Dhaka', 'addr:housenumber': 'House 1, Block D', 'addr:street': 'Road 25', 'amenity': 'pharmacy', 'check_date': '2023-03-08', 'contact:phone': '+8801710420137', 'internet_access': 'no', 'level': '1', 'name': 'Nur Pharmacy', 'name:bn': 'নূর ফার্মেসি', 'opening_hours': 'Sa- Fr 10:00-14:00, 16:00-23:30', 'payment:cards': 'no', 'payment:credit_cards': 'no', 'payment:debit_cards': 'no', 'service_category': 'HLT:15', 'wheelchair': 'no'}}"
"{'type': 'node', 'id': 3810792499, 'lat': 23.8131064, 'lon': 90.3770685, 'tags': {'addr:city': 'Mirpur 11, Dhaka', 'addr:housenumber': 'Block C', 'addr:postcode': '1216', 'addr:street': '15/1 Mehedibag Gate', 'amenity': 'pharmacy', 'contact:phone': '+8801730928712', 'name': 'আল-শেফা ফার্মেসি', 'name:bn': 'আল-শেফা ফার্মেসি', 'name:en': 'Al-Shefa Pharmacy', 'opening_hours': '08:00-11:00'}}"
"{'type': 'node', 'id': 3810796403, 'lat': 23.8141044, 'lon': 90.3747709, 'tags': {'addr:city': 'Mirpur 10, Dhaka', 'addr:postcode': '1216', 'addr:street': 'Road 25 , Paris road,Block B', 'addr:street:bn': 'প্যারিস রোড', 'addr:suburb': 'paris road', 'amenity': 'dentist', 'healthcare': 'dentist', 'landmark info': 'avenuen 5 bottola', 'name': 'মারিশা ডেন্টাল কেয়ার', 'name:bn': 'মারিশা ডেন্টাল কেয়ার', 'name:en': 'Marisha Dental Care', 'opening_hours': 'Sa-Fr 10:00 -13:00, 16:00-22:00', 'phone': '+8801712446142'}}"
"{'type': 'node', 'id': 3810803726, 'lat': 23.8076004, 'lon': 90.3784241, 'tags': {'addr:city': 'Mirpur 13, Dhaka', 'addr:housenumber': 'Molla Market, Plot 35/1-2, Blcok C', 'addr:postcode': '1216', 'addr:street': 'Line 4', 'amenity': 'pharmacy', 'level': '1', 'name': 'Ahasan Pharmacy', 'name:bn': 'আহসান ফার্মেসি', 'opening_hours': '09:00-13:30,15:30-24:00'}}"
"{'type': 'node', 'id': 3810805176, 'lat': 23.8098922, 'lon': 90.3727194, 'tags': {'addr:city': 'Mirpur-10, Dhaka', 'addr:housenumber': 'Block B', 'addr:postcode': '1216', 'addr:street': 'Line 14/14B, Avenue 2', 'amenity': 'pharmacy', 'healthcare': 'pharmacy', 'level': '1', 'name': 'খন্দকার ফার্মেসি', 'name:bn': 'খন্দকার ফার্মেসি', 'name:en': 'Khondokar Pharmacy'}}"
"{'type': 'node', 'id': 3810805180, 'lat': 23.8077051, 'lon': 90.3784904, 'tags': {'addr:city': 'Mirpur 13, Dhaka', 'addr:housenumber': 'Plot 35/1, Block C', 'addr:postcode': '1216', 'addr:street': 'Line 4', 'amenity': 'pharmacy', 'name': 'Nur Pharmacy', 'name:bn': 'নূর ফার্মেসি'}}"
"{'type': 'node', 'id': 3810805552, 'lat': 23.8137565, 'lon': 90.3725727, 'tags': {'addr:city': 'Mirpur 10, Dhaka', 'addr:housenumber': 'House 13, Block 10/D', 'addr:postcode': '1216', 'addr:street': 'Road 25', 'amenity': 'clinic', 'bicycle': 'yes', 'foot': 'yes', 'hgv': 'yes', 'level': '1', 'main road_local': 'yes', 'motor_vehicle': 'yes', 'name': 'মেরী স্টোপস ক্লিনিক', 'name:bn': 'মেরী স্টোপস ক্লিনিক', 'name:en': 'Marie Stopes Clinic', 'opening_hours': '10:00-16:30; Fr off', 'phone': '+880750114103', 'service:category': 'HLT:3,22'}}"
"{'type': 'node', 'id': 3810810790, 'lat': 23.8152795, 'lon': 90.3747328, 'tags': {'addr:city': 'Mirpur 11, Dhaka', 'addr:housenumber': 'Block C', 'addr:postcode': '1216', 'addr:street': 'Avenue 5 , Line 23/1', 'addr:suburb': 'paris road', 'amenity': 'pharmacy', 'healthcare': 'pharmacy', 'landmark info': 'avenuen 5 panir tanki', 'main road_local': 'yes', 'motor_vehicle': 'yes', 'name': 'নিরাময় কর্নার', 'name:bn': 'নিরাময় কর্নার', 'name:en': 'Niramoy Corner'}}"
"{'type': 'node', 'id': 3810811190, 'lat': 23.8074569, 'lon': 90.379076, 'tags': {'addr:city': 'Mirpur 13, Dhaka', 'addr:housenumber': 'House 38/A, Block C', 'addr:postcode': '1216', 'addr:street': 'Line 4', 'amenity': 'doctors', 'healthcare': 'doctor', 'name': 'Adiba Consultation Centre', 'name:bn': 'আদিবা কন্সাল্টেসন সেন্টার'}}"
"{'type': 'node', 'id': 3810811704, 'lat': 23.8095182, 'lon': 90.3728023, 'tags': {'addr:city': 'Mirpur 10, Dhaka', 'addr:housenumber': 'Block B', 'addr:postcode': '1216', 'addr:street': '15/15', 'amenity': 'pharmacy', 'level': '1', 'name': 'মিরপুর ফার্মেসি', 'name:bn': 'মিরপুর ফার্মেসি', 'name:en': 'Mirpur Pharmacy', 'opening_hours': '17:00-22:00'}}"
"{'type': 'node', 'id': 3810815263, 'lat': 23.8078959, 'lon': 90.3783775, 'tags': {'addr:city': 'Mirpur 13, Dhaka', 'addr:housenumber': 'Plot 1/1, Block C', 'addr:postcode': '1216', 'addr:street': 'Line 4', 'amenity': 'pharmacy', 'level': '1', 'name': 'মদিনা ফার্মেসি', 'name:bn': 'মদিনা ফার্মেসি', 'name:en': 'Madina Pharmacy', 'opening_hours': '09:00-14:00,16:00-24:00'}}"
"{'type': 'node', 'id': 3810816315, 'lat': 23.8093807, 'lon': 90.3729847, 'tags': {'addr:city': 'Mirpur-10, Dhaka', 'addr:housenumber': 'Block B', 'addr:postcode': '1216', 'addr:street': 'Line 15/15', 'amenity': 'pharmacy', 'healthcare': 'pharmacy', 'level': '1', 'name': 'ফেজ ফার্মা', 'name:bn': 'ফেজ ফার্মা', 'name:en': 'Phase Pharma'}}"
"{'type': 'node', 'id': 3810835862, 'lat': 23.8132607, 'lon': 90.3765564, 'tags': {'addr:city': 'Mirpur 11, Dhaka', 'addr:housenumber': 'House 7, Block C', 'addr:street': 'Road 15/1', 'amenity': 'pharmacy', 'healthcare': 'pharmacy', 'level': '1', 'name': 'কাদির ফার্মেসি', 'name:bn': 'কাদির ফার্মেসি', 'name:en': 'Kadir Pharmacy', 'opening_hours': '09:00-14:00; 16:00-23:00'}}"
"{'type': 'node', 'id': 3810839112, 'lat': 23.8131884, 'lon': 90.3765799, 'tags': {'addr:city': 'Mirpur 11, Dhaka', 'addr:housenumber': 'Block C, Avenue 5', 'addr:street': 'Road 15/1', 'amenity': 'pharmacy', 'contact:phone': '+8801939417442', 'level': '1', 'name': 'আদর্শ ইউনানি ফার্মেসি', 'name:bn': 'আদর্শ ইউনানি ফার্মেসি', 'name:en': 'Adarsho Unani Pharmacy', 'opening_hours': '09:00-14:00, 16:00-23:00'}}"
"{'type': 'node', 'id': 3810840813, 'lat': 23.8173287, 'lon': 90.3808264, 'tags': {'addr:city': 'Bauniabadh, Pallabi, Mirpur-11, Dhaka', 'addr:housenumber': 'Block- D', 'amenity': 'pharmacy', 'level': '1', 'name': 'Pharma Plus', 'name:bn': 'ফার্মা প্লাস', 'node_id': '3810840813', 'opening_hours': '08:00-13:00,16:00-24:00', 'phone': '+8801914649324'}}"
"{'type': 'node', 'id': 3810844866, 'lat': 23.8144951, 'lon': 90.3730823, 'tags': {'addr:city': 'Mirpur 10, Dhaka', 'addr:housenumber': 'House 11/18, Block D', 'addr:postcode': '1216', 'addr:street': 'Road 25', 'amenity': 'pharmacy', 'level': '1', 'name': 'মা হোমিও ফার্মেসি', 'name:bn': 'মা হোমিও ফার্মেসি', 'name:en': 'Maa Homeo Pharmacy', 'opening_hours': 'Sa-Fr 10:00-13:30,17:00-24:00', 'phone': '+8801705816855'}}"
"{'type': 'node', 'id': 3810847079, 'lat': 23.8078203, 'lon': 90.3791647, 'tags': {'addr:city': 'Mirpur 13, Dhaka', 'addr:housenumber': 'House 5, Block C', 'addr:postcode': '1216', 'addr:street': 'Road 3', 'amenity': 'pharmacy', 'contact:phone': '+8801981110285', 'name': 'পিনাকল মেডিসিন কর্ণার', 'name:bn': 'পিনাকল মেডিসিন কর্ণার', 'name:en': 'Pinakol Medicine Corner'}}"
"{'type': 'node', 'id': 3810852278, 'lat': 23.8082463, 'lon': 90.3728124, 'tags': {'addr:city': 'Mirpur 10, Dhaka', 'addr:housenumber': 'House 2, Block B, Section 10', 'addr:postcode': '1216', 'addr:street': 'Road 19', 'amenity': 'dentist', 'healthcare': 'dentist', 'level': '3', 'name': 'আস্থা ডেন্টাল ক্লিনিক', 'name:bn': 'আস্থা ডেন্টাল ক্লিনিক', 'name:en': 'Aastha Dental Clinic', 'opening_hours': '09:00-21:00'}}"
"{'type': 'node', 'id': 3810855484, 'lat': 23.8130801, 'lon': 90.3735079, 'tags': {'addr:city': 'Pallabi, Mirpur, Dhaka', 'addr:housenumber': 'House 32, Block D', 'addr:postcode': '1216', 'addr:street': 'Road 28, Paris Road', 'amenity': 'pharmacy', 'contact:phone': '+8801914130161,+8801676987262', 'dispensing': 'yes', 'healthcare': 'pharmacy', 'level': '1', 'name': 'আলহাজ্ব দেলোয়ার ফার্মেসি', 'name:bn': 'আলহাজ্ব দেলোয়ার ফার্মেসি', 'name:en': 'Alhajj Delowar Pharmacy'}}"
"{'type': 'node', 'id': 3810861857, 'lat': 23.8127525, 'lon': 90.373591, 'tags': {'addr:city': 'Pallabi, Mirpur 10, Dhaka', 'addr:housenumber': 'House 24,Block D', 'addr:postcode': '1216', 'addr:street': 'Road-30,(Paris Road)', 'amenity': 'pharmacy', 'contact:phone': '+8801942345514', 'name': 'রাজিয়া ফার্মা', 'name:bn': 'রাজিয়া ফার্মা', 'name:en': 'Rajia Pharma'}}"
"{'type': 'node', 'id': 3810864852, 'lat': 23.8081765, 'lon': 90.3733146, 'tags': {'addr:city': 'Dhaka', 'addr:housenumber': 'house 2, lane 7, block C', 'addr:postcode': '1216', 'addr:street': 'Mirpur 10', 'addr:suburb': 'block C, Mirpur 10', 'amenity': 'pharmacy', 'healthcare': 'pharmacy', 'level': '1', 'name': 'অমি মেডিসিন কর্নার', 'name:bn': 'অমি মেডিসিন কর্নার', 'name:en': 'Omi Medicine Corner', 'oneway': 'no', 'opening_hours': 'su-sa 7:00-24:00', 'service_category': 'hlt:15'}}"
"{'type': 'node', 'id': 3810887943, 'lat': 23.8148707, 'lon': 90.3697321, 'tags': {'addr:city': 'Kachabazar road, Mirpur 11, Dhaka', 'addr:housenumber': 'Block C', 'addr:postcode': '1216', 'addr:street': 'Lane 3, Road 2/1 , Section 11', 'addr:suburb': 'paris road', 'amenity': 'pharmacy', 'name': 'Mohammadia Pharma', 'name:bn': 'মোহাম্মদিয়া ফার্মা', 'opening_hours': '10:00 -21:00', 'operator': 'private'}}"
"{'type': 'node', 'id': 3810892016, 'lat': 23.8089393, 'lon': 90.3790506, 'tags': {'addr:city': 'Mirpur 13, Dhaka', 'addr:housenumber': 'House 1, Block C', 'addr:postcode': '1216', 'addr:street': 'Road 1', 'amenity': 'dentist', 'healthcare': 'dentist', 'name': 'সেভেন স্টার ডেন্টাল কেয়ার', 'name:bn': 'সেভেন স্টার ডেন্টাল কেয়ার', 'name:en': 'Seven Star Dental Care'}}"
"{'type': 'node', 'id': 3810897727, 'lat': 23.8097317, 'lon': 90.3745048, 'tags': {'addr:city': 'Mirpur-10, Dhaka', 'addr:postcode': '1216', 'addr:street': '13/15', 'amenity': 'pharmacy', 'level': '1', 'name': 'দিনা মেডিসিন কর্নার', 'name:bn': 'দিনা মেডিসিন কর্নার', 'name:en': 'Dina Medicine Corner', 'opening_hours': '07:00-23:30'}}"
"{'type': 'node', 'id': 3810898477, 'lat': 23.8150108, 'lon': 90.3730985, 'tags': {'addr:city': 'Mirpur 10, Dhaka', 'addr:housenumber': 'House 1, Block C', 'addr:postcode': '1216', 'addr:street': 'Line 12, Road 11, Section 11', 'amenity': 'pharmacy', 'bicycle': 'yes', 'level': '1', 'name': 'মহসিন মেডিকেল হল', 'name:bn': 'মহসিন মেডিকেল হল', 'name:en': 'Mohsin Medical Hall', 'opening_hours': 'Sa-Fr 09:00-14:00,16:00-24:00', 'phone': '+8801675494966', 'service:category': 'HLT:15'}}"
"{'type': 'node', 'id': 3810905497, 'lat': 23.8103627, 'lon': 90.3772777, 'tags': {'addr:city': 'Kafrul, Mirpur 13', 'addr:housenumber': 'House 37', 'addr:postcode': '1216', 'addr:street': 'Block B, Section 13, Road 1', 'amenity': 'pharmacy', 'level': '1', 'name': 'ইউনিকেয়ার ফার্মা', 'name:bn': 'ইউনিকেয়ার ফার্মা', 'name:en': 'Unicare Pharma', 'opening_hours': 'Sa-Th 08:00-14:00,15:00-23:00; Fr 16:00-23:00', 'phone': '+8801989636751'}}"
"{'type': 'node', 'id': 3810907750, 'lat': 23.8101148, 'lon': 90.3745168, 'tags': {'addr:city': 'Mirpur 10, Dhaka', 'addr:postcode': '1216', 'addr:street': 'Line 13', 'amenity': 'pharmacy', 'level': '1', 'name': 'অভি ফার্মা', 'name:bn': 'অভি ফার্মা', 'name:en': 'Ovi Pharma', 'opening_hours': '17:00-22:00'}}"
"{'type': 'node', 'id': 3810907879, 'lat': 23.8130311, 'lon': 90.3754111, 'tags': {'addr:city': 'Mirpur 11, Dhaka', 'addr:housenumber': 'House 1', 'addr:street': 'Line 15, Avenue 5', 'amenity': 'pharmacy', 'name': 'সুমি রুমি ফার্মেসি', 'name:bn': 'সুমি রুমি ফার্মেসি', 'name:en': 'Sumi Rumi Pharmacy', 'opening_hours': '18:00-23:00'}}"
"{'type': 'node', 'id': 3810908251, 'lat': 23.8126039, 'lon': 90.3675244, 'tags': {'addr:city': 'Mirpur 10, Dhaka', 'addr:housenumber': 'House 1, Block A', 'addr:postcode': '1216', 'addr:street': 'Line 11', 'amenity': 'pharmacy', 'check_date': '2024-06-26', 'contact:phone': '+8801912313633', 'internet_access': 'no', 'level': '1', 'name': 'Muna Pharmacy', 'name:bn': 'মুনা ফার্মেসি', 'opening_hours': 'Sa-Fr 10:00-14:00, 17:00-24:00', 'payment:cards': 'no', 'payment:credit_cards': 'no', 'payment:debit_cards': 'no'}}"
"{'type': 'node', 'id': 3810908755, 'lat': 23.8103062, 'lon': 90.374319, 'tags': {'addr:city': 'Mirpur 10, Dhaka', 'addr:postcode': '1216', 'addr:street': 'Line 15', 'amenity': 'pharmacy', 'level': '1', 'name': 'সায়েম ফার্মেসি', 'name:bn': 'সায়েম ফার্মেসি', 'name:en': 'Sayem Pharmacy', 'opening_hours': '07:00-24:00'}}"
"{'type': 'node', 'id': 3810908926, 'lat': 23.8106756, 'lon': 90.3743659, 'tags': {'addr:city': 'Mirpur 10, Dhaka', 'addr:housenumber': 'Block C', 'addr:postcode': '1216', 'addr:street': 'Avenue 1', 'amenity': 'pharmacy', 'level': '1', 'name': 'ভোলা মেডিসিন কর্নার', 'name:bn': 'ভোলা মেডিসিন কর্নার', 'name:en': 'Bhola Medicine Corner', 'phone': '+8801726184666'}}"
"{'type': 'node', 'id': 3810911614, 'lat': 23.8120812, 'lon': 90.3695758, 'tags': {'addr:city': 'Mirpur 10, Dhaka', 'addr:housenumber': 'B/38, Block A', 'addr:postcode': '1216', 'addr:street': 'Benaroshi Polli Road', 'amenity': 'pharmacy', 'check_date': '2024-10-16', 'contact:phone': '+8801922703724', 'healthcare': 'pharmacy', 'internet_access': 'no', 'level': '1', 'name': 'Mukta Pharmacy', 'name:bn': 'মুক্তা ফার্মেসি', 'node_id': '3810911614', 'opening_hours': '10:00-14:00,17:00-24:00; 24/7', 'payment:cards': 'no', 'payment:cash': 'yes', 'payment:credit_cards': 'no', 'payment:debit_cards': 'no', 'wheelchair': 'no'}}"
"{'type': 'node', 'id': 3810912268, 'lat': 23.8136072, 'lon': 90.3751743, 'tags': {'addr:city': 'Mirpur 11, Dhaka', 'addr:housenumber': 'House 1, Block C', 'addr:postcode': '1216', 'addr:street': 'Road-17, Avenue 5', 'amenity': 'pharmacy', 'name': 'শশী মেডিসিন কর্নার', 'name:bn': 'শশী মেডিসিন কর্নার', 'name:en': 'Shoshi Medicine Corner', 'opening_hours': '9:00-23:30'}}"
"{'type': 'node', 'id': 3810912797, 'lat': 23.8129679, 'lon': 90.3694561, 'tags': {'addr:city': 'Mirpur 10, Dhaka', 'addr:housenumber': 'House 2, Block A', 'addr:postcode': '1216', 'addr:street': 'Road 15', 'amenity': 'pharmacy', 'check_date': '2024-12-24', 'dispensing': 'no', 'internet_access': 'no', 'name': 'Islam Medical Hall', 'name:bn': 'ইসলাম মেডিকেল হল', 'opening_hours': '09:00-14:00,17:00-22:00', 'payment:cards': 'no', 'payment:cash': 'yes', 'payment:credit_cards': 'no', 'payment:debit_cards': 'no', 'wheelchair': 'limited'}}"
"{'type': 'node', 'id': 3810912817, 'lat': 23.8150271, 'lon': 90.3697058, 'tags': {'addr:city': 'Mirpur 11, Dhaka', 'addr:housenumber': 'House 1 Block C', 'addr:postcode': '1216', 'addr:street': 'Avenue 3, Road 4', 'addr:suburb': 'paris road', 'amenity': 'pharmacy', 'level': '1', 'name': 'Mahi Medicine Corner', 'name:bn': 'মাহি মেডিসিন কর্নার', 'opening_hours': 'Sa-Fr 09:00-14:30, 17:00-21:30'}}"
"{'type': 'node', 'id': 3810917224, 'lat': 23.8098928, 'lon': 90.3769417, 'tags': {'addr:city': 'Mirpur 13, Dhaka', 'addr:housenumber': 'Block B', 'addr:postcode': '1216', 'addr:street': 'Road  2-2', 'amenity': 'pharmacy', 'level': '1', 'name': 'মা ফার্মা', 'name:bn': 'মা ফার্মা', 'name:en': 'Maa Pharma', 'phone': '+8801920153999'}}"
"{'type': 'node', 'id': 3810921294, 'lat': 23.8130904, 'lon': 90.3694336, 'tags': {'addr:city': 'Mirpur 10, Dhaka', 'addr:housenumber': 'House 17/1', 'addr:postcode': '1216', 'addr:street': 'Block A', 'amenity': 'pharmacy', 'check_date': '2023-02-03', 'name': 'Ahsania Pharmacy', 'name:bn': 'আহসানিয়া ফার্মেসি', 'opening_hours': 'Sa-Fr 10:00-13:30, 17:00-24:00'}}"
"{'type': 'node', 'id': 3810921302, 'lat': 23.8149536, 'lon': 90.3696183, 'tags': {'addr:city': 'Mirpur 11, Dhaka', 'addr:housenumber': 'Shop 14 ,Block C', 'addr:postcode': '1216', 'addr:street': 'Avenue 3 ,KachaBazar Road', 'addr:suburb': 'paris road', 'amenity': 'pharmacy', 'healthcare': 'pharmacy', 'name': 'ডে-নাইট মেডিকেল হল', 'name:bn': 'ডে-নাইট মেডিকেল হল', 'name:en': 'Day-Night Medical Hall', 'opening_hours': 'Sa-Fr 10:00- 14:00,15:00-24:00'}}"
"{'type': 'node', 'id': 3810925177, 'lat': 23.8131397, 'lon': 90.3694159, 'tags': {'addr:city': 'Mirpur 10, Dhaka', 'addr:housenumber': 'House 8, Block A', 'addr:postcode': '1216', 'addr:street': 'Road 16', 'amenity': 'pharmacy', 'check_date': '2024-03-16', 'contact:phone': '+8801817123632', 'internet_access': 'no', 'name': 'Saim Drug House', 'name:bn': 'সাইম ড্রাগ হাউজ', 'opening_hours': '12:00-00:00', 'payment:cards': 'no', 'payment:cash': 'yes', 'payment:credit_cards': 'no', 'payment:debit_cards': 'no', 'wheelchair': 'no'}}"
"{'type': 'node', 'id': 3810925350, 'lat': 23.8095664, 'lon': 90.3771677, 'tags': {'addr:city': 'Mirpur 13, Dhaka', 'addr:housenumber': 'Building 1, House 2', 'addr:postcode': '1216', 'addr:street': 'Block B, Road 1', 'amenity': 'pharmacy', 'level': '1', 'name': 'এম এ খান ফার্মেসি', 'name:bn': 'এম এ খান ফার্মেসি', 'name:en': 'M A Khan Pharmacy', 'opening_hours': 'Sa-Th 09.00-15.00, 17.00-23.00; Fr off  09.00-14.00', 'phone': '+8801191198100'}}"
"{'type': 'node', 'id': 3810925517, 'lat': 23.8153608, 'lon': 90.3708923, 'tags': {'addr:city': 'Mirpur 11, Dhaka', 'addr:housenumber': 'House 12, Block C', 'addr:street': 'Line 11, Road 10', 'amenity': 'pharmacy', 'level': '1', 'name': 'Akbar Medical Hall', 'name:bn': 'আকবর মেডিকেল হল', 'service_category': 'HLT:15'}}"
"{'type': 'node', 'id': 3810926785, 'lat': 23.8103509, 'lon': 90.3752682, 'tags': {'addr:city': 'Mirpur 10, Dhaka', 'addr:housenumber': 'House 20, Block C', 'addr:postcode': '1216', 'addr:street': 'Line16', 'amenity': 'clinic', 'healthcare': 'clinic', 'level': '1', 'licensed': 'BMDC', 'name': 'অ্যাপোলো ডেন্টাল ক্লিনিক এন্ড মেডিকেল কেয়ার', 'name:bn': 'অ্যাপোলো ডেন্টাল ক্লিনিক এন্ড মেডিকেল কেয়ার', 'name:en': 'Apollo Dental Clinic & Medical Care', 'node_id': '3810926785'}}"
"{'type': 'node', 'id': 3810927053, 'lat': 23.8176581, 'lon': 90.3804539, 'tags': {'addr:city': 'Bauniabadh, Pallabi, Mirpur 11, Dhaka', 'addr:housenumber': 'House 10', 'addr:postcode': '1216', 'addr:street': 'Block-D, Line-6', 'amenity': 'pharmacy', 'name': 'Harbal Bonaji Medicine', 'name:bn': 'হারবাল বনাজি ঔষধ', 'phone': '+8801932214366'}}"
"{'type': 'node', 'id': 3810931892, 'lat': 23.815406, 'lon': 90.3712195, 'tags': {'addr:city': 'Mirpur 11, Dhaka', 'addr:housenumber': 'House 20, Block C', 'addr:street': 'Line 11, Road 10', 'amenity': 'pharmacy', 'contact:phone': '+8801711028511', 'level': '1', 'name': 'Messrs Sumaiya Drug House', 'name:bn': 'মেসার্স সুমাইয়া ড্রাগ হাউজ', 'opening_hours': 'Sa-Fr 09:30-14:30, 16:30-24:00', 'service_category': 'HLT:15'}}"
"{'type': 'node', 'id': 3810933802, 'lat': 23.815301, 'lon': 90.3712308, 'tags': {'addr:city': 'Mirpur 11, Dhaka', 'addr:housenumber': 'House 19, Block C', 'addr:street': 'Line 11, Road 10, Tara Medical Road', 'amenity': 'pharmacy', 'level': '1', 'name': 'Ya Ali Medical Hall', 'name:bn': 'ইয়া আলি মেডিকেল হল', 'opening_hours': 'Mo-Sa 10:00-14:00, 16:00-24:00; Su off', 'service_category': 'HLT:15'}}"
"{'type': 'node', 'id': 3810934368, 'lat': 23.8091086, 'lon': 90.3730817, 'tags': {'addr:city': 'Mirpur 10, Dhaka', 'addr:housenumber': 'House 5/1', 'addr:postcode': '1216', 'addr:street': 'Block C', 'amenity': 'pharmacy', 'healthcare': 'pharmacy', 'name': 'হ্যানিম্যান হোমিও হল', 'name:bn': 'হ্যানিম্যান হোমিও হল', 'name:en': 'Hahnemann Homeo Hall'}}"
"{'type': 'node', 'id': 3810934673, 'lat': 23.8153785, 'lon': 90.3713127, 'tags': {'addr:city': 'Mirpur 11, Dhaka', 'addr:housenumber': 'House 1, Block C', 'addr:street': 'Line 10, Road 10, Tara Medical Road', 'amenity': 'pharmacy', 'contact:phone': '+8801915711070', 'level': '1', 'name': 'S. L. Pharma', 'name:bn': 'এস এল ফার্মা', 'opening_hours': 'Mo-Sa 08:30-13:00, 17:00-23:00', 'service_category': 'HLT:15'}}"
"{'type': 'node', 'id': 3810938213, 'lat': 23.8151865, 'lon': 90.371355, 'tags': {'addr:city': 'Mirpur 11, Dhaka', 'addr:housenumber': 'Hosue 2, Block C', 'addr:postcode': '1216', 'addr:street': 'Line 12, Road 10, Tara Medical Road', 'amenity': 'hospital', 'contact:phone': '+8801924521356', 'healthcare': 'hospital', 'level': '1', 'name': 'তারা মেডিকেল সেন্টার', 'name:bn': 'তারা মেডিকেল সেন্টার', 'name:en': 'Tara Medical Centre', 'opening_hours': 'Sa-Fr 09:00-24:00'}}"
"{'type': 'node', 'id': 3810938214, 'lat': 23.8152623, 'lon': 90.3713296, 'tags': {'addr:city': 'Mirpur 11, Dhaka', 'addr:housenumber': 'House 2, Block C', 'addr:street': 'Line 12, Road 10, Tara Medical Road', 'amenity': 'pharmacy', 'contact:phone': '+8801924521356', 'healthcare': 'pharmacy', 'level': '1', 'name': 'তারা মেডিকেল সেন্টার ফার্মেসি', 'name:bn': 'তারা মেডিকেল সেন্টার ফার্মেসি', 'name:en': 'Tara Medical Centre Pharmacy', 'opening_hours': 'Sa-Fr 09:30-24:00', 'service_category': 'HLT:15'}}"
"{'type': 'node', 'id': 3810944961, 'lat': 23.8150127, 'lon': 90.3712852, 'tags': {'addr:city': 'Mirpur 11, Dhaka', 'addr:housenumber': 'House 17, Block C', 'addr:street': 'Line 13, Road 10', 'amenity': 'pharmacy', 'healthcare': 'pharmacy', 'level': '1', 'name': 'Mallik Medical and Dental', 'name:bn': 'মালিক মেডিকেল এন্ড ডেন্টাল', 'service_category': 'HLT:15'}}"
"{'type': 'node', 'id': 3810948592, 'lat': 23.8141041, 'lon': 90.3750539, 'tags': {'addr:city': 'Mirpur 11, Dhaka', 'addr:housenumber': 'House 1, Block C, Avenue 5', 'addr:postcode': '1216', 'addr:street': 'Road 18', 'amenity': 'pharmacy', 'healthcare': 'pharmacy', 'name': 'এস আর এস ফার্মেসি', 'name:bn': 'এস আর এস ফার্মেসি', 'name:en': 'SRS Pharmacy', 'opening_hours': '09:00-12:00; 19:00-23:00'}}"
"{'type': 'node', 'id': 3810949048, 'lat': 23.817636, 'lon': 90.3808792, 'tags': {'addr:city': 'bauniabadh, Pallabi, Mirpur-11, Dhaka', 'addr:housenumber': 'Block D', 'addr:postcode': '1216', 'addr:street': 'Islami Madarasa Link Road', 'amenity': 'pharmacy', 'name': 'Chaiti Medicine Corner', 'name:bn': 'চৈতি মেডিসিন কর্নার', 'node_id': '3810949048', 'opening_hours': '10:00-14:00, 17:00-00:00', 'service_category': 'HLT:15'}}"
"{'type': 'node', 'id': 3810950224, 'lat': 23.8096979, 'lon': 90.3774233, 'tags': {'addr:city': 'Mirpur 13, Dhaka', 'addr:housenumber': 'House 5', 'addr:postcode': '1216', 'addr:street': 'Block B, Avenue 1', 'amenity': 'pharmacy', 'level': '1', 'name': 'ন্যাশনাল হোমিও ফার্মেসি', 'name:bn': 'ন্যাশনাল হোমিও ফার্মেসি', 'name:en': 'National Homeo Pharmacy', 'opening_hours': '17:00-20:00'}}"
"{'type': 'node', 'id': 3810955020, 'lat': 23.8176814, 'lon': 90.3808779, 'tags': {'addr:city': 'bauniabadh, Pallabi, Mirpur-11, Dhaka', 'addr:postcode': '1216', 'addr:street': 'Block D, Islamia Madrasa Link Road', 'amenity': 'pharmacy', 'contact:phone': '+8801627361221', 'name': 'Nowshin Pharmacy', 'name:bn': 'নওশীন ফার্মেসি', 'opening_hours': '09:00-13:00, 16:00-23:30'}}"
"{'type': 'node', 'id': 3810956522, 'lat': 23.8097509, 'lon': 90.3780603, 'tags': {'addr:city': 'Mirpur 13, Dhaka', 'addr:housenumber': 'House 69', 'addr:postcode': '1216', 'addr:street': 'Block B, Avenue 1,  Hazi Ali Hossain Road', 'amenity': 'pharmacy', 'level': '1', 'name': 'প্রেসক্রিপশন সার্ভ', 'name:bn': 'প্রেসক্রিপশন সার্ভ', 'name:en': 'Prescription Serve', 'opening_hours': '08:30-24:00', 'phone': '+8801928707358'}}"
"{'type': 'node', 'id': 3810959950, 'lat': 23.8148464, 'lon': 90.3714369, 'tags': {'addr:city': 'Mirpur 11, Dhaka', 'addr:housenumber': 'House 2, Block C', 'addr:street': 'Line 14, Road 10, Tara Medical Road', 'amenity': 'pharmacy', 'contact:phone': '+8801912017719', 'healthcare': 'pharmacy', 'name': 'Sharmin Medical Care', 'name:bn': 'শারমিন মেডিকেল কেয়ার', 'opening_hours': 'Sa-Fr 09:00-14:00, 16:00-24:00', 'service_category': 'HLT:15'}}"
"{'type': 'node', 'id': 3838504994, 'lat': 23.8609203, 'lon': 90.3995503, 'tags': {'amenity': 'pharmacy', 'name': 'Lazz Pharma'}}"
"{'type': 'node', 'id': 3838505002, 'lat': 23.8583466, 'lon': 90.40072, 'tags': {'amenity': 'clinic', 'name': 'Mohila Medical'}}"
"{'type': 'node', 'id': 3907717965, 'lat': 23.8668616, 'lon': 90.3955096, 'tags': {'addr:city': 'Uttara Dhaka', 'addr:postcode': '1230', 'addr:street': 'Road 13', 'amenity': 'hospital', 'name': 'Uttara Cresent Hospital'}}"
"{'type': 'node', 'id': 4009071642, 'lat': 23.7666477, 'lon': 90.4208934, 'tags': {'amenity': 'clinic', 'name': 'Poribar Porikolpona Clinic'}}"
"{'type': 'node', 'id': 4033053126, 'lat': 23.8113377, 'lon': 90.356759, 'tags': {'addr:city': 'Mirpur', 'addr:postcode': '1216', 'addr:street': 'Road-7', 'amenity': 'pharmacy', 'healthcare': 'pharmacy', 'name': 'm medicine corner'}}"
"{'type': 'node', 'id': 4036542179, 'lat': 23.811958, 'lon': 90.3565905, 'tags': {'addr:city': 'Mirpur', 'addr:postcode': '1216', 'addr:street': 'Road-8', 'amenity': 'pharmacy', 'healthcare': 'pharmacy', 'name': 'Jinil Pharmecy'}}"
"{'type': 'node', 'id': 4058539333, 'lat': 23.8744911, 'lon': 90.391045, 'tags': {'addr:city': 'Dhaka', 'addr:housenumber': 'House: 28, Angelica (4th Floor, Flat: A3)', 'addr:postcode': '1230', 'addr:street': 'Gareeb E Newaz Road, Uttara Sector-11 (Chawrasta) Sonargaon Janapath,', 'amenity': 'dentist', 'description': 'Open 4 PM to 10 PM, Closed Friday. E-mail: ukdentalclinicbd@gmail.com', 'healthcare': 'dentist', 'name': 'UK Dental Clinic', 'opening_hours': '16:00-22:00', 'phone': '+8801944002002', 'website': 'www.ukdentalclinicbd.com'}}"
"{'type': 'node', 'id': 4062874337, 'lat': 23.7644929, 'lon': 90.4134745, 'tags': {'amenity': 'pharmacy', 'name': 'Safe Pharma'}}"
"{'type': 'node', 'id': 4062887948, 'lat': 23.7663545, 'lon': 90.4179505, 'tags': {'amenity': 'pharmacy', 'name': 'Alif Medical Hall'}}"
"{'type': 'node', 'id': 4062930407, 'lat': 23.7665294, 'lon': 90.4179619, 'tags': {'amenity': 'pharmacy', 'name': 'Haque Medical Store'}}"
"{'type': 'node', 'id': 4063021151, 'lat': 23.7666684, 'lon': 90.4176528, 'tags': {'amenity': 'pharmacy', 'name': 'A.R Pharma'}}"
"{'type': 'node', 'id': 4206412116, 'lat': 23.8065469, 'lon': 90.3674517, 'tags': {'amenity': 'hospital', 'name': 'Medinova Hospital'}}"
"{'type': 'node', 'id': 4322832177, 'lat': 23.8174321, 'lon': 90.3683611, 'tags': {'addr:city': 'Dhaka', 'addr:housenumber': '৮', 'addr:street': '১', 'addr:suburb': 'Mirpur-11', 'amenity': 'clinic', 'identifier': '491', 'name': 'Active Social welfare Society Health Clinic(একটিভ সোশাল ওয়েলফেয়ার সোসাইটি হেলথ ক্লিনিক)'}}"
"{'type': 'node', 'id': 4322832178, 'lat': 23.8171764, 'lon': 90.3682997, 'tags': {'addr:city': 'Dhaka', 'addr:street': '৪', 'addr:suburb': 'Mirpur-11', 'amenity': 'clinic', 'healthcare': 'clinic', 'identifier': '454', 'name': 'Adorsho Dental Care(আদর্শ ডেন্টাল কেয়ার)'}}"
"{'type': 'node', 'id': 4322832184, 'lat': 23.8182452, 'lon': 90.3660545, 'tags': {'addr:city': 'Dhaka', 'addr:housenumber': 'প্লট ১', 'addr:suburb': 'Mirpur-11', 'amenity': 'hospital', 'healthcare': 'hospital', 'identifier': '495', 'name': 'Akumunnessa Eye Clinic(আকুমুন্নেসা আই ক্লিনিক)'}}"
"{'type': 'node', 'id': 4322832186, 'lat': 23.8199623, 'lon': 90.3712485, 'tags': {'addr:city': 'Dhaka', 'addr:housenumber': '৪৪', 'addr:street': '১২', 'addr:suburb': 'Mirpur-11', 'amenity': 'pharmacy', 'identifier': '455', 'name': 'Al Shefa Medical Hall(আল শেফা মেডিকেল হল)'}}"
"{'type': 'node', 'id': 4322832188, 'lat': 23.8197648, 'lon': 90.3713279, 'tags': {'addr:city': 'Dhaka', 'addr:housenumber': '৪৩', 'addr:street': '১২', 'addr:suburb': 'Mirpur-11', 'amenity': 'pharmacy', 'identifier': '456', 'name': 'Al-bar Pharmacy(আল- বার ফার্মেসি)'}}"
"{'type': 'node', 'id': 4322832694, 'lat': 23.8187078, 'lon': 90.3685804, 'tags': {'addr:city': 'Dhaka', 'addr:housenumber': '৪৪', 'addr:suburb': 'Mirpur-11', 'amenity': 'pharmacy', 'healthcare': 'pharmacy', 'identifier': '489', 'name': 'Anower Drug House(আনোয়ার ড্রাগ হাউজ)'}}"
"{'type': 'node', 'id': 4322832696, 'lat': 23.8184748, 'lon': 90.377419, 'tags': {'addr:city': 'Dhaka', 'addr:housenumber': '১৬৭', 'addr:suburb': 'Mirpur-11', 'amenity': 'pharmacy', 'identifier': '505', 'name': 'Ash shifa Dental Care(আশ শাইফা ডেন্টাল কেয়ার)'}}"
"{'type': 'node', 'id': 4322832701, 'lat': 23.8196625, 'lon': 90.3673124, 'tags': {'addr:city': 'Dhaka', 'addr:housenumber': '১৪', 'addr:suburb': 'Mirpur-11', 'amenity': 'clinic', 'identifier': '501', 'name': 'BRAC (nurse)(ব্রাক (নার্স))'}}"
"{'type': 'node', 'id': 4322832706, 'lat': 23.816811, 'lon': 90.3676206, 'tags': {'addr:city': 'Dhaka', 'addr:housenumber': '২৪', 'addr:street': '৪', 'addr:suburb': 'Mirpur-11', 'amenity': 'pharmacy', 'identifier': '463', 'name': 'Barisal Optics(বরিশাল অপটিকস)'}}"
"{'type': 'node', 'id': 4322832711, 'lat': 23.8186808, 'lon': 90.3770402, 'tags': {'addr:city': 'Dhaka', 'addr:housenumber': '১০০', 'addr:street': '৬', 'addr:suburb': 'Mirpur-11', 'amenity': 'pharmacy', 'identifier': '449', 'name': 'Bismillah Pharmacy(বিসমিল্লাহ ফার্মেসি)'}}"
"{'type': 'node', 'id': 4322832718, 'lat': 23.8208756, 'lon': 90.3710775, 'tags': {'addr:city': 'Dhaka', 'addr:housenumber': '৬০', 'addr:suburb': 'Mirpur-11', 'amenity': 'pharmacy', 'identifier': '474', 'name': 'Chadpur Pharmacy(চাঁদপুর ফার্মেসি)'}}"
"{'type': 'node', 'id': 4322832719, 'lat': 23.8182441, 'lon': 90.3759682, 'tags': {'addr:city': 'Dhaka', 'addr:housenumber': '৯-১১', 'addr:suburb': 'Mirpur-11', 'amenity': 'pharmacy', 'identifier': '511', 'name': 'Chawdhuri Medicine Corner(চৌধুরী মেডিসিন কর্নার)'}}"
"{'type': 'node', 'id': 4322832720, 'lat': 23.8209536, 'lon': 90.3756405, 'tags': {'addr:city': 'Dhaka', 'addr:housenumber': '১', 'addr:suburb': 'Mirpur-11', 'amenity': 'pharmacy', 'healthcare': 'pharmacy', 'identifier': '440', 'name': 'Chaya Bithi Medicine Corner(ছায়া বিথি মেডিসিন কর্নার)'}}"
"{'type': 'node', 'id': 4322832723, 'lat': 23.8190298, 'lon': 90.3734316, 'tags': {'addr:city': 'Dhaka', 'addr:housename': 'ওয়াপদা ভবন', 'addr:street': '১২', 'addr:suburb': 'Mirpur-11', 'amenity': 'pharmacy', 'identifier': '437', 'name': 'Dadu pharmacy(দাদু ফার্মেসি)'}}"
"{'type': 'node', 'id': 4322832726, 'lat': 23.81683, 'lon': 90.3676413, 'tags': {'addr:city': 'Dhaka', 'addr:housenumber': '24', 'addr:street': '4', 'addr:suburb': 'Mirpur-11', 'amenity': 'doctors', 'healthcare': 'doctor', 'identifier': '464', 'name': 'Dental and Maxilofacial Surgeon', 'name:bn': 'ডেন্টাল এন্ড মাক্সিলোফেসিয়াল সার্জন'}}"
"{'type': 'node', 'id': 4322832736, 'lat': 23.8189451, 'lon': 90.3667453, 'tags': {'addr:city': 'Dhaka', 'addr:housename': '13', 'addr:suburb': 'Mirpur-11', 'healthcare': 'yes', 'healthcare:speciality': 'homeopathy', 'identifier': '497', 'name': 'Emareld Homeo Hall', 'name:bn': 'এমারেল্ড হোমিও হল'}}"
"{'type': 'node', 'id': 4322832743, 'lat': 23.8183299, 'lon': 90.3735637, 'tags': {'addr:city': 'Dhaka', 'addr:housenumber': '২৪', 'addr:street': '১২', 'addr:suburb': 'Mirpur-11', 'amenity': 'pharmacy', 'identifier': '433', 'name': 'Friends Medical Corner(ফ্রেন্ডস মেডিকালের কর্নার)'}}"
"{'type': 'node', 'id': 4322832749, 'lat': 23.8192399, 'lon': 90.3759875, 'tags': {'addr:city': 'Dhaka', 'addr:housenumber': '২', 'addr:street': '৫', 'addr:suburb': 'Mirpur-11', 'amenity': 'pharmacy', 'identifier': '448', 'name': 'Haji Pharmcy(হাজী ফার্মেসি)'}}"
"{'type': 'node', 'id': 4322832751, 'lat': 23.8166549, 'lon': 90.3661683, 'tags': {'addr:city': 'Dhaka', 'addr:street': '১১ নং বাস স্ট্যান্ড', 'addr:suburb': 'Mirpur-11', 'amenity': 'clinic', 'healthcare': 'yes', 'healthcare:speciality': 'homeopathy', 'identifier': '500', 'name': 'Hamdord Laboratory and Health Centre', 'name:bn': 'হামদার্দ ল্যাবরেটরি এন্ড হেলথ সেন্টার'}}"
"{'type': 'node', 'id': 4322832752, 'lat': 23.8200856, 'lon': 90.368187, 'tags': {'addr:city': 'Dhaka', 'addr:housenumber': '29', 'addr:street': '27', 'addr:suburb': 'Mirpur-11', 'healthcare': 'yes', 'healthcare:speciality': 'homeopathy', 'identifier': '483', 'name': 'Haolader Daoakhana', 'name:bn': 'হাওলাদার দাওয়াখানা'}}"
"{'type': 'node', 'id': 4322832755, 'lat': 23.8174321, 'lon': 90.3684551, 'tags': {'addr:city': 'Dhaka', 'addr:housenumber': '৪', 'addr:suburb': 'Mirpur-11', 'amenity': 'pharmacy', 'healthcare': 'pharmacy', 'identifier': '492', 'name': 'Hatiya Homio Hall(হাতিয়া হোমিও হল)'}}"
"{'type': 'node', 'id': 4322832760, 'lat': 23.8168015, 'lon': 90.3676621, 'tags': {'addr:city': 'Dhaka', 'addr:housenumber': '24', 'addr:street': '4', 'addr:suburb': 'Mirpur-11', 'healthcare': 'yes', 'healthcare:speciality': 'homeopathy', 'identifier': '466', 'name': 'Homio Haling Point', 'name:bn': 'হোমিও হলিং পয়েন্ট'}}"
"{'type': 'node', 'id': 4322832764, 'lat': 23.8195104, 'lon': 90.3654856, 'tags': {'addr:city': 'Dhaka', 'addr:housename': 'ইসলামী ব্যাংক বিল্ডিং', 'addr:street': '৩', 'addr:suburb': 'Mirpur-11', 'amenity': 'hospital', 'identifier': '507', 'name': 'ইসলামী ব্যাংক হাসপাতাল', 'name:en': 'Islami Bank Hospital'}}"
"{'type': 'node', 'id': 4322832767, 'lat': 23.8192513, 'lon': 90.3684513, 'tags': {'addr:city': 'Dhaka', 'addr:street': '১৯', 'addr:suburb': 'Mirpur-11', 'amenity': 'pharmacy', 'healthcare': 'pharmacy', 'identifier': '488', 'name': 'Janata Medical Hall(জনতা মেডিকেল হল)'}}"
"{'type': 'node', 'id': 4322832768, 'lat': 23.8196745, 'lon': 90.3683192, 'tags': {'addr:city': 'Dhaka', 'addr:housenumber': '৩৩', 'addr:street': '২৫', 'addr:suburb': 'Mirpur-11', 'amenity': 'pharmacy', 'healthcare': 'pharmacy', 'identifier': '486', 'name': 'জনতা মেডিকেল হল', 'name:bn': 'জনতা মেডিকেল হল', 'name:en': 'Janata Medical Hall'}}"
"{'type': 'node', 'id': 4322832769, 'lat': 23.8186417, 'lon': 90.3777838, 'tags': {'addr:city': 'Dhaka', 'addr:housenumber': '১৬৭', 'addr:suburb': 'Mirpur-11', 'amenity': 'pharmacy', 'identifier': '502', 'name': 'Janata Pharmecy(জনতা ফার্মেসী)'}}"
"{'type': 'node', 'id': 4322832770, 'lat': 23.8203589, 'lon': 90.3730489, 'tags': {'addr:city': 'Dhaka', 'addr:street': '১২', 'addr:suburb': 'Mirpur-11', 'amenity': 'pharmacy', 'healthcare': 'pharmacy', 'identifier': '435', 'name': 'Jannat Pharmacy(জান্নাত ফার্মেসি)'}}"
"{'type': 'node', 'id': 4322832774, 'lat': 23.820295, 'lon': 90.3682928, 'tags': {'addr:city': 'Dhaka', 'addr:housenumber': '২', 'addr:street': '১২', 'addr:suburb': 'Mirpur-11', 'amenity': 'pharmacy', 'healthcare': 'pharmacy', 'identifier': '480', 'name': 'Kakoli Medical corner(কাকলি মেডিকেল কর্নার)'}}"
"{'type': 'node', 'id': 4322832777, 'lat': 23.8181918, 'lon': 90.3686744, 'tags': {'addr:city': 'Dhaka', 'addr:housenumber': '১৭', 'addr:suburb': 'Mirpur-11', 'amenity': 'pharmacy', 'healthcare': 'pharmacy', 'identifier': '490', 'name': 'Karim Pharmacy(করিম ফার্মেসী)'}}"
"{'type': 'node', 'id': 4322832779, 'lat': 23.8186205, 'lon': 90.3771341, 'tags': {'addr:city': 'Dhaka', 'addr:housenumber': '১০০', 'addr:street': '৬', 'addr:suburb': 'Mirpur-11', 'amenity': 'pharmacy', 'identifier': '450', 'name': 'Kazi Drug House(কাজী ড্রাগ হাউজ)'}}"
"{'type': 'node', 'id': 4322832784, 'lat': 23.8168944, 'lon': 90.3684917, 'tags': {'addr:city': 'Dhaka', 'addr:housenumber': '1', 'addr:suburb': 'Mirpur-11', 'amenity': 'dentist', 'healthcare': 'dentist', 'identifier': '452', 'name': 'Lamia Dental Care', 'name:bn': 'লামিয়া ডেন্টাল কেয়ার'}}"
"{'type': 'node', 'id': 4322832992, 'lat': 23.8193601, 'lon': 90.3683985, 'tags': {'addr:city': 'Dhaka', 'addr:housenumber': '৩১', 'addr:suburb': 'Mirpur-11', 'amenity': 'pharmacy', 'healthcare': 'pharmacy', 'identifier': '487', 'mapillary': '984067005743393', 'name': 'M/S Jahanara Pharma(মেসার্স জাহানারা ফার্মা)', 'source': 'survey', 'survey:date': '2017-12-23'}}"
"{'type': 'node', 'id': 4322832993, 'lat': 23.8204239, 'lon': 90.3682865, 'tags': {'addr:city': 'Dhaka', 'addr:suburb': 'Mirpur-11', 'amenity': 'pharmacy', 'healthcare': 'pharmacy', 'identifier': '481', 'name': 'Ma Drug House(মা ড্রাগ হাউজ)'}}"
"{'type': 'node', 'id': 4322832994, 'lat': 23.819834, 'lon': 90.3713138, 'tags': {'addr:city': 'Dhaka', 'addr:housenumber': '৪২', 'addr:street': '১২', 'addr:suburb': 'Mirpur-11', 'amenity': 'pharmacy', 'identifier': '457', 'name': 'Ma Pharmacy(মা ফার্মেসি)'}}"
"{'type': 'node', 'id': 4322832995, 'lat': 23.8200591, 'lon': 90.3757508, 'tags': {'addr:city': 'Dhaka', 'addr:housenumber': '৫৪', 'addr:street': '২', 'addr:suburb': 'Mirpur-11', 'amenity': 'pharmacy', 'identifier': '443', 'name': ""Ma Pharmecy and Doctor\\'s Chember(মা ফার্মেসি এন্ড ডক্টরস চেম্বার)""}}"
"{'type': 'node', 'id': 4322832996, 'lat': 23.8167519, 'lon': 90.3665074, 'tags': {'addr:city': 'Dhaka', 'addr:housename': 'জেনেভা টাওয়ার', 'addr:housenumber': '১', 'addr:street': '৪', 'addr:suburb': 'Mirpur-11', 'amenity': 'clinic', 'healthcare': 'clinic', 'identifier': '458', 'name': 'Maa Dental Care(মা ডেন্টাল কেয়ার)'}}"
"{'type': 'node', 'id': 4322832999, 'lat': 23.8184346, 'lon': 90.3670942, 'tags': {'addr:city': 'Dhaka', 'addr:street': '6', 'addr:suburb': 'Mirpur-11', 'healthcare': 'yes', 'healthcare:speciality': 'homeopathy', 'identifier': '468', 'name': 'Mahmud Homeo Hall', 'name:bn': 'মাহমুদ হোমিও হল'}}"
"{'type': 'node', 'id': 4322833005, 'lat': 23.8161228, 'lon': 90.3753728, 'tags': {'addr:city': 'Dhaka', 'addr:housenumber': '১০/১', 'addr:suburb': 'Mirpur-11', 'amenity': 'pharmacy', 'identifier': '514', 'name': 'Meem Drug House(মিম ড্রাগ হাউজ)'}}"
"{'type': 'node', 'id': 4322833007, 'lat': 23.8204128, 'lon': 90.3756466, 'tags': {'addr:city': 'Dhaka', 'addr:housenumber': '৫৩', 'addr:suburb': 'Mirpur-11', 'amenity': 'pharmacy', 'identifier': '442', 'name': 'Meghna Pharmecy(মেঘনা ফার্মেসি)'}}"
"{'type': 'node', 'id': 4322833008, 'lat': 23.818465, 'lon': 90.3770113, 'tags': {'addr:city': 'Dhaka', 'addr:housenumber': '১৬৩', 'addr:suburb': 'Mirpur-11', 'amenity': 'pharmacy', 'identifier': '504', 'name': 'Mehedi Pharmacy(মেহেদী ফার্মেসী)'}}"
"{'type': 'node', 'id': 4322833011, 'lat': 23.8168918, 'lon': 90.3684452, 'tags': {'addr:city': 'Dhaka', 'addr:housenumber': '২', 'addr:suburb': 'Mirpur-11', 'amenity': 'pharmacy', 'healthcare': 'pharmacy', 'identifier': '453', 'name': 'Mirpur Drugs(মিরপুর ড্রাগস)'}}"
"{'type': 'node', 'id': 4322833016, 'lat': 23.8172897, 'lon': 90.3755712, 'tags': {'addr:city': 'Dhaka', 'addr:housenumber': '৯', 'addr:street': '৪', 'addr:suburb': 'Mirpur-11', 'amenity': 'pharmacy', 'identifier': '515', 'name': 'Mukti Pharmacy(মুক্তি ফার্মেসি)'}}"
"{'type': 'node', 'id': 4322833021, 'lat': 23.8197635, 'lon': 90.3757587, 'tags': {'addr:city': 'Dhaka', 'addr:street': '৪', 'addr:suburb': 'Mirpur-11', 'amenity': 'pharmacy', 'identifier': '445', 'name': 'Nikita Drug House(নিকিতা ড্রাগ হাউজ)'}}"
"{'type': 'node', 'id': 4322833022, 'lat': 23.8174944, 'lon': 90.3754944, 'tags': {'addr:city': 'Dhaka', 'addr:street': '4', 'addr:suburb': 'Mirpur-11', 'healthcare': 'yes', 'healthcare:speciality': 'homeopathy', 'identifier': '513', 'name': 'Niloy Homeo Hall', 'name:bn': 'নিলয় হোমিও হল'}}"
"{'type': 'node', 'id': 4322833027, 'lat': 23.8199163, 'lon': 90.3682134, 'tags': {'addr:city': 'Dhaka', 'addr:housenumber': '৩৪', 'addr:suburb': 'Mirpur-11', 'amenity': 'pharmacy', 'healthcare': 'pharmacy', 'identifier': '484', 'name': 'নুর ফার্মা', 'name:bn': 'নুর ফার্মা', 'name:en': 'Nur Pharma'}}"
"{'type': 'node', 'id': 4322833029, 'lat': 23.8215075, 'lon': 90.3746505, 'tags': {'addr:city': 'Dhaka', 'addr:housenumber': '১', 'addr:street': '১', 'addr:suburb': 'Mirpur-11', 'amenity': 'pharmacy', 'healthcare': 'pharmacy', 'identifier': '439', 'name': 'Nurjahan Medical(নূরজাহান মেডিকেল)'}}"
"{'type': 'node', 'id': 4322833030, 'lat': 23.8172101, 'lon': 90.3663515, 'tags': {'addr:city': 'Dhaka', 'addr:housenumber': '১', 'addr:street': '৫', 'addr:suburb': 'Mirpur-11', 'amenity': 'clinic', 'identifier': '461', 'name': 'PDAP Clinic(পি ডি এ পি ক্লিনিক)'}}"
"{'type': 'node', 'id': 4322833038, 'lat': 23.8206017, 'lon': 90.3711189, 'tags': {'addr:city': 'Dhaka', 'addr:housenumber': '৫৯', 'addr:street': '১', 'addr:suburb': 'Mirpur-11', 'amenity': 'clinic', 'dentist': 'yes', 'healthcare': 'clinic', 'identifier': '475', 'name': 'Popular Dental Care(পপুলার ডেন্টাল কেয়ার)'}}"
"{'type': 'node', 'id': 4322833051, 'lat': 23.8187965, 'lon': 90.3675652, 'tags': {'addr:city': 'Dhaka', 'addr:suburb': 'Mirpur-11', 'healthcare': 'yes', 'healthcare:speciality': 'homeopathy', 'identifier': '498', 'name': 'Regal Homeopathy Hall', 'name:bn': 'রিগাল হোমিও হল'}}"
"{'type': 'node', 'id': 4322833053, 'lat': 23.8177619, 'lon': 90.3690029, 'tags': {'addr:city': 'Dhaka', 'addr:housenumber': '১', 'addr:suburb': 'Mirpur-11', 'amenity': 'pharmacy', 'healthcare': 'pharmacy', 'identifier': '472', 'name': 'Riya Pharmacy(রিয়া ফার্মেসি)'}}"
"{'type': 'node', 'id': 4322833064, 'lat': 23.8188191, 'lon': 90.377184, 'tags': {'addr:city': 'Dhaka', 'addr:street': '৫', 'addr:suburb': 'Mirpur-11', 'amenity': 'pharmacy', 'identifier': '451', 'name': 'S M Pharmacy(এস এম ফার্মেসি)'}}"
"{'type': 'node', 'id': 4322833066, 'lat': 23.8198924, 'lon': 90.3652778, 'tags': {'addr:city': 'Dhaka', 'addr:street': 'মেইন রোড', 'addr:suburb': 'Mirpur-11', 'healthcare': 'yes', 'healthcare:speciality': 'homeopathy', 'identifier': '510', 'name': 'Sadhona Oushadhaloy', 'name:bn': 'সাধনা ঔষধালয়'}}"
"{'type': 'node', 'id': 4322833067, 'lat': 23.8174321, 'lon': 90.3685177, 'tags': {'addr:city': 'Dhaka', 'addr:housenumber': '6', 'addr:suburb': 'Mirpur-11', 'healthcare': 'yes', 'healthcare:speciality': 'homeopathy', 'identifier': '493', 'name': 'Sadia Homio Chember And Gobeshona Kendra', 'name:bn': 'সাদিয়া হোমিও চেম্বার এন্ড গবেশনা কেন্দ্র'}}"
"{'type': 'node', 'id': 4322833068, 'lat': 23.8186451, 'lon': 90.3686846, 'tags': {'addr:city': 'Dhaka', 'addr:street': '১১', 'addr:suburb': 'Mirpur-11', 'amenity': 'pharmacy', 'healthcare': 'pharmacy', 'identifier': '479', 'name': 'Sadia Pharmacy(সাদিয়া ফার্মেসী)'}}"
"{'type': 'node', 'id': 4322833069, 'lat': 23.818174, 'lon': 90.3659183, 'tags': {'addr:city': 'Dhaka', 'addr:housename': 'আহমেদ ফুড প্লাজা', 'addr:housenumber': '২২', 'addr:street': 'মেইন রোড', 'addr:suburb': 'Mirpur-11', 'amenity': 'pharmacy', 'identifier': '496', 'name': 'Sagar Pharmacy(সাগর ফার্মেসি)'}}"
"{'type': 'node', 'id': 4322833073, 'lat': 23.8193513, 'lon': 90.3760213, 'tags': {'addr:city': 'Dhaka', 'addr:housename': '১', 'addr:street': '৫', 'addr:suburb': 'Mirpur-11', 'amenity': 'pharmacy', 'identifier': '447', 'name': 'Setu Pharmecy(সেতু ফার্মেসি)'}}"
"{'type': 'node', 'id': 4322833074, 'lat': 23.8177034, 'lon': 90.3706598, 'tags': {'addr:city': 'Dhaka', 'addr:housenumber': '২', 'addr:street': '৫', 'addr:suburb': 'Mirpur-11', 'amenity': 'pharmacy', 'identifier': '462', 'name': 'Shahin Pharmacy(শাহীন ফার্মেসি)'}}"
"{'type': 'node', 'id': 4322833077, 'lat': 23.8181049, 'lon': 90.3753187, 'tags': {'addr:city': 'Dhaka', 'addr:housenumber': '৯', 'addr:suburb': 'Mirpur-11', 'amenity': 'pharmacy', 'identifier': '512', 'name': 'Shariatpur Medical Hall(শরিয়তপুর মেডিকাল হল)'}}"
"{'type': 'node', 'id': 4322833078, 'lat': 23.8207528, 'lon': 90.3756715, 'tags': {'addr:city': 'Dhaka', 'addr:housenumber': '১', 'addr:street': '১', 'addr:suburb': 'Mirpur-11', 'amenity': 'pharmacy', 'healthcare': 'pharmacy', 'identifier': '441', 'name': 'Shariatpur medical hall(শরিয়তপুত মেডিকেল হল)'}}"
"{'type': 'node', 'id': 4322833080, 'lat': 23.8199129, 'lon': 90.3758471, 'tags': {'addr:city': 'Dhaka', 'addr:housenumber': '৫৪/৩', 'addr:street': '৪', 'addr:suburb': 'Mirpur-11', 'amenity': 'pharmacy', 'identifier': '444', 'name': 'Sharitpur Medical Hall(শরিয়তপুর মেডিকেল হল)'}}"
"{'type': 'node', 'id': 4322833081, 'lat': 23.8193882, 'lon': 90.3734458, 'tags': {'addr:city': 'Dhaka', 'addr:housename': 'ওয়াপদা ভবন', 'addr:street': '১২', 'addr:suburb': 'Mirpur-11', 'amenity': 'pharmacy', 'identifier': '434', 'name': 'Sheba pharmcy(সেবা ফার্মেসি)'}}"
"{'type': 'node', 'id': 4322833085, 'lat': 23.8182491, 'lon': 90.3773117, 'tags': {'addr:city': 'Dhaka', 'addr:housenumber': '১৭৪', 'addr:street': '৯', 'addr:suburb': 'Mirpur-11', 'amenity': 'pharmacy', 'identifier': '506', 'name': 'Shohagh Medical Hall(সোহাগ মেডিকেল হল)'}}"
"{'type': 'node', 'id': 4322833088, 'lat': 23.8200228, 'lon': 90.3667226, 'tags': {'addr:city': 'Dhaka', 'addr:housenumber': '৩', 'addr:street': '১', 'addr:suburb': 'Mirpur-11', 'amenity': 'pharmacy', 'healthcare': 'pharmacy', 'identifier': '508', 'name': 'শর্মিলা ফার্মেসি', 'name:bn': 'শর্মিলা ফার্মেসি', 'name:en': 'Shormila Pharmacy'}}"
"{'type': 'node', 'id': 4322833390, 'lat': 23.8203879, 'lon': 90.3681077, 'tags': {'addr:city': 'Dhaka', 'addr:suburb': 'Mirpur-11', 'healthcare': 'yes', 'healthcare:speciality': 'homeopathy', 'identifier': '482', 'name': 'Siyam Homio Hall', 'name:bn': 'সিয়াম হোমিও হল'}}"
"{'type': 'node', 'id': 4322833397, 'lat': 23.8180448, 'lon': 90.3689137, 'tags': {'addr:city': 'Dhaka', 'addr:housenumber': '২', 'addr:street': '১৮', 'addr:suburb': 'Mirpur-11', 'amenity': 'pharmacy', 'healthcare': 'pharmacy', 'identifier': '476', 'name': 'Sufi drug house(সুফি ড্রাগ হাউজ)'}}"
"{'type': 'node', 'id': 4322833400, 'lat': 23.8184847, 'lon': 90.3772259, 'tags': {'addr:city': 'Dhaka', 'addr:housenumber': '১৬৬', 'addr:suburb': 'Mirpur-11', 'amenity': 'pharmacy', 'identifier': '503', 'name': 'Sulov Pharmacy(সুলভ ফার্মেসী)'}}"
"{'type': 'node', 'id': 4322833408, 'lat': 23.8185005, 'lon': 90.3687373, 'tags': {'addr:city': 'Dhaka', 'addr:housenumber': '১', 'addr:suburb': 'Mirpur-11', 'amenity': 'pharmacy', 'healthcare': 'pharmacy', 'identifier': '478', 'name': 'Taoha Drugs(তাওহা ড্রাগস)'}}"
"{'type': 'node', 'id': 4322833413, 'lat': 23.8185467, 'lon': 90.3678749, 'tags': {'addr:city': 'Dhaka', 'addr:housenumber': '৩৫-৩৭', 'addr:suburb': 'Mirpur-11', 'amenity': 'clinic', 'identifier': '494', 'name': 'The salvation army(দি সালভেসান আর্মি)'}}"
"{'type': 'node', 'id': 4322833416, 'lat': 23.8189086, 'lon': 90.3655472, 'tags': {'addr:city': 'Dhaka', 'addr:housenumber': '২৮', 'addr:street': 'মেইন রোড ৩', 'addr:suburb': 'Mirpur-11', 'amenity': 'clinic', 'identifier': '499'}}"
"{'type': 'node', 'id': 4322833429, 'lat': 23.8197591, 'lon': 90.3682927, 'tags': {'addr:city': 'Dhaka', 'addr:housenumber': '২৫', 'addr:street': '৩৪', 'addr:suburb': 'Mirpur-11', 'amenity': 'pharmacy', 'healthcare': 'pharmacy', 'identifier': '485', 'name': 'kishor homio hall(কিশোর হোমিও হল)'}}"
"{'type': 'node', 'id': 4322833430, 'lat': 23.8177023, 'lon': 90.3663789, 'tags': {'addr:city': 'Dhaka', 'addr:housename': '৩', 'addr:street': '৬', 'addr:suburb': 'Mirpur-11', 'amenity': 'hospital', 'identifier': '467', 'name': 'ফিজিওথেরাপি সেন্টার', 'name:bn': 'ফিজিওথেরাপি সেন্টার', 'name:en': 'Physiotherapy Centre'}}"
"{'type': 'node', 'id': 4322833432, 'lat': 23.8167588, 'lon': 90.366731, 'tags': {'addr:city': 'Dhaka', 'addr:housenumber': '৪', 'addr:street': '৪', 'addr:suburb': 'Mirpur-11', 'amenity': 'clinic', 'healthcare': 'clinic', 'identifier': '459', 'name': 'shakti foundation(শক্তি ফাউন্ডেশন)'}}"
"{'type': 'node', 'id': 4322833433, 'lat': 23.8212392, 'lon': 90.3730252, 'tags': {'addr:city': 'Dhaka', 'addr:housenumber': '১১', 'addr:street': '১', 'addr:suburb': 'Mirpur-11', 'amenity': 'hospital', 'check_date': '2024-04-02', 'identifier': '436', 'name': 'shishu Hospital(শিশু হাসপাতাল)'}}"
"{'type': 'node', 'id': 4331663665, 'lat': 23.8168702, 'lon': 90.3725843, 'tags': {'addr:city': 'Dhaka', 'addr:housenumber': '১', 'addr:street': '১১', 'addr:suburb': 'Mirpur-11', 'amenity': 'pharmacy', 'identifier': '624', 'name': 'Adorsho Medical Hall(আদর্শ মেডিক্যাল হল)'}}"
"{'type': 'node', 'id': 4331663670, 'lat': 23.81674, 'lon': 90.3743339, 'tags': {'addr:city': 'Dhaka', 'addr:housenumber': '৯১/৯২', 'addr:street': '৪', 'addr:suburb': 'Mirpur-11', 'amenity': 'pharmacy', 'healthcare': 'pharmacy', 'identifier': '615', 'name': 'Akondo Medicine Corner(আকন্দ মেডিসিন কর্নার)'}}"
"{'type': 'node', 'id': 4331663671, 'lat': 23.8213173, 'lon': 90.371072, 'tags': {'addr:city': 'Dhaka', 'addr:housename': '১২/ধ', 'addr:housenumber': '৩৪১', 'addr:street': 'কালশি রোড', 'addr:suburb': 'Mirpur-11', 'amenity': 'pharmacy', 'healthcare': 'pharmacy', 'identifier': '637', 'name': 'Al Rabbi Pharmacy(আল রাব্বি ফার্মেসি)'}}"
"{'type': 'node', 'id': 4331663673, 'lat': 23.8162253, 'lon': 90.3726019, 'tags': {'addr:city': 'Dhaka', 'addr:street': '১১', 'addr:suburb': 'Mirpur-11', 'amenity': 'pharmacy', 'identifier': '635', 'name': 'Asfia Pharmacy(আসফিয়া ফার্মেসি)'}}"
"{'type': 'node', 'id': 4331663674, 'lat': 23.8173443, 'lon': 90.3732098, 'tags': {'addr:city': 'Dhaka', 'addr:housenumber': '১০', 'addr:street': '২', 'addr:suburb': 'Mirpur-11', 'amenity': 'hospital', 'identifier': '622', 'name': 'BRAC Metarnity Centre(ব্রাক মেটারনিটি সেন্টার)'}}"
"{'type': 'node', 'id': 4331663675, 'lat': 23.8171705, 'lon': 90.3776712, 'tags': {'addr:city': 'Dhaka', 'addr:street': '১ নং পলাশ নগর', 'addr:suburb': 'Mirpur-11', 'amenity': 'pharmacy', 'identifier': '608', 'name': 'Banna Medicine Corner(বান্না মেডিসিন কর্নার)'}}"
"{'type': 'node', 'id': 4331663677, 'lat': 23.8154276, 'lon': 90.3745392, 'tags': {'addr:city': 'Dhaka', 'addr:housenumber': '২০', 'addr:suburb': 'Mirpur-11', 'amenity': 'pharmacy', 'healthcare': 'pharmacy', 'identifier': '632', 'name': 'Bismillah Pharmacy(বিসমিল্লাহ ফার্মেসী)'}}"
"{'type': 'node', 'id': 4331663678, 'lat': 23.8157076, 'lon': 90.3746004, 'tags': {'addr:city': 'Dhaka', 'addr:housenumber': '১', 'addr:suburb': 'Mirpur-11', 'amenity': 'pharmacy', 'identifier': '633', 'name': 'Bismillah Pharmacy(বিসমিল্লাহ ফার্মেসী)'}}"
"{'type': 'node', 'id': 4331663684, 'lat': 23.8155046, 'lon': 90.3740054, 'tags': {'addr:city': 'Dhaka', 'addr:housenumber': '৩', 'addr:suburb': 'Mirpur-11', 'amenity': 'hospital', 'identifier': '630', 'name': 'Dr. Priyanka Aziz Chamber(ডাঃ প্রিয়াংকা আজিজ চেম্বার)'}}"
"{'type': 'node', 'id': 4331663688, 'lat': 23.8165156, 'lon': 90.3742878, 'tags': {'addr:city': 'Dhaka', 'addr:housenumber': '১৫', 'addr:suburb': 'Mirpur-11', 'amenity': 'pharmacy', 'identifier': '613', 'name': 'Fatema Medical(ফাতেমা মেডিকাল)'}}"
"{'type': 'node', 'id': 4331663790, 'lat': 23.8166086, 'lon': 90.3726022, 'tags': {'addr:city': 'Dhaka', 'addr:housenumber': '১', 'addr:street': '১১', 'addr:suburb': 'Mirpur-11', 'amenity': 'clinic', 'identifier': '625', 'name': 'Friends Dental Care(ফ্রেন্ডস ডেন্টাল কেয়ার)'}}"
"{'type': 'node', 'id': 4331663794, 'lat': 23.8173688, 'lon': 90.3739716, 'tags': {'addr:city': 'Dhaka', 'addr:housename': 'প্রকল্প অফিস', 'addr:suburb': 'Mirpur-11', 'amenity': 'clinic', 'identifier': '623', 'name': 'Icddrb field office(আই সি ডি ডি আর বি ফিল্ড অফিস)'}}"
"{'type': 'node', 'id': 4331663795, 'lat': 23.8208425, 'lon': 90.3653534, 'tags': {'addr:city': 'Dhaka', 'addr:housenumber': '৭০', 'addr:street': '৪', 'addr:suburb': 'Mirpur-11', 'healthcare': 'physiotherapist', 'identifier': '644', 'name': 'ইমপ্রেস ফিজিওথেরাপি এন্ড রিহ্যাবিলিটেশন সেন্টার', 'name:bn': 'ইমপ্রেস ফিজিওথেরাপি এন্ড রিহ্যাবিলিটেশন সেন্টার', 'name:en': 'Impress Physiotherapy and Rehabilitation Centre'}}"
"{'type': 'node', 'id': 4331663799, 'lat': 23.8181103, 'lon': 90.377868, 'tags': {'addr:city': 'Dhaka', 'addr:housenumber': '২২৫', 'addr:street': '৪', 'addr:suburb': 'Mirpur-11', 'amenity': 'pharmacy', 'identifier': '636', 'name': 'Jahan Medicine Corner(জাহান মেডিসিন কর্নার)'}}"
"{'type': 'node', 'id': 4331663803, 'lat': 23.8211953, 'lon': 90.3651331, 'tags': {'addr:city': 'Dhaka', 'addr:housenumber': '৬৭', 'addr:street': '৪', 'addr:suburb': 'Mirpur-11', 'amenity': 'clinic', 'identifier': '645', 'name': 'Layla dental clinic(লায়লা ডেন্টাল ক্লিনিক)'}}"
"{'type': 'node', 'id': 4331663807, 'lat': 23.8171638, 'lon': 90.3741727, 'tags': {'addr:city': 'Dhaka', 'addr:housenumber': '১', 'addr:suburb': 'Mirpur-11', 'amenity': 'pharmacy', 'identifier': '619', 'name': 'Ma pharmacy(মা ফার্মেসী)'}}"
"{'type': 'node', 'id': 4331663811, 'lat': 23.8154824, 'lon': 90.3693899, 'tags': {'addr:city': 'Dhaka', 'addr:housenumber': '১৭', 'addr:street': 'Kachabazar Road', 'addr:suburb': 'Mirpur-11', 'amenity': 'pharmacy', 'identifier': '648', 'name': 'Medi Pharmacy(মেডি ফার্মেসি)'}}"
"{'type': 'node', 'id': 4331663812, 'lat': 23.8159773, 'lon': 90.3745276, 'tags': {'addr:city': 'Dhaka', 'addr:housenumber': '১', 'addr:street': '২৫', 'addr:suburb': 'Mirpur-11', 'amenity': 'pharmacy', 'identifier': '612', 'name': 'Medi fair Pharma(মেডি ফেয়ার ফার্মা)'}}"
"{'type': 'node', 'id': 4331663814, 'lat': 23.8154836, 'lon': 90.3746616, 'tags': {'addr:city': 'Dhaka', 'addr:housenumber': '২', 'addr:suburb': 'Mirpur-11', 'amenity': 'pharmacy', 'identifier': '631', 'name': 'Medicine Gallery(মেডিসিন গ্যালারী)'}}"
"{'type': 'node', 'id': 4331663815, 'lat': 23.8157978, 'lon': 90.3743532, 'tags': {'addr:city': 'Dhaka', 'addr:housenumber': '২০', 'addr:street': '৭', 'addr:suburb': 'Mirpur-11', 'amenity': 'pharmacy', 'identifier': '611', 'name': 'Minha Pharmacy(মিনহা ফার্মেসি)'}}"
"{'type': 'node', 'id': 4331663818, 'lat': 23.8149161, 'lon': 90.3757023, 'tags': {'addr:city': 'Dhaka', 'addr:housenumber': '263', 'addr:street': '20', 'addr:suburb': 'Mirpur-11', 'healthcare': 'yes', 'healthcare:speciality': 'homeopathy', 'identifier': '642', 'name': 'Mohammodi Homeo Hall', 'name:bn': 'মোহাম্মদী হোমিও হল'}}"
"{'type': 'node', 'id': 4331663819, 'lat': 23.8151422, 'lon': 90.3746389, 'tags': {'addr:city': 'Dhaka', 'addr:housename': '১৯', 'addr:suburb': 'Mirpur-11', 'amenity': 'pharmacy', 'identifier': '639', 'name': 'Mrinal Medical Hall(মৃনাল মেডিকাল হল)'}}"
"{'type': 'node', 'id': 4331663823, 'lat': 23.8165096, 'lon': 90.3773528, 'tags': {'addr:city': 'Dhaka', 'addr:street': '১৬ পলাশ নগর', 'addr:suburb': 'Mirpur-11', 'amenity': 'pharmacy', 'identifier': '609', 'name': 'Nur Medical Hall(নুর মেডিকেল হল)'}}"
"{'type': 'node', 'id': 4331663825, 'lat': 23.8169143, 'lon': 90.3742443, 'tags': {'addr:city': 'Dhaka', 'addr:housenumber': '১৩১/১৩২', 'addr:street': '৪', 'addr:suburb': 'Mirpur-11', 'amenity': 'pharmacy', 'identifier': '614', 'name': 'Omi Drug House(অমি ড্রাগ হাউজ)'}}"
"{'type': 'node', 'id': 4331663827, 'lat': 23.8152832, 'lon': 90.3730095, 'tags': {'addr:city': 'Dhaka', 'addr:housename': 'প্রিয়াঙ্গন টাওয়ার', 'addr:housenumber': '১', 'addr:street': '১১', 'addr:suburb': 'Mirpur-11', 'amenity': 'pharmacy', 'identifier': '628', 'name': 'Priyangon Pharmacy(প্রিয়াঙ্গন ফার্মেসি)'}}"
"{'type': 'node', 'id': 4331663830, 'lat': 23.8159773, 'lon': 90.3750506, 'tags': {'addr:city': 'Dhaka', 'addr:housenumber': '১৫', 'addr:suburb': 'Mirpur-11', 'amenity': 'pharmacy', 'identifier': '610', 'name': 'RAF pharmacy(আর এ এফ ফার্মেসি)'}}"
"{'type': 'node', 'id': 4331663833, 'lat': 23.8206813, 'lon': 90.3650449, 'tags': {'addr:city': 'Dhaka', 'addr:street': '৪', 'addr:suburb': 'Mirpur-11', 'amenity': 'pharmacy', 'identifier': '643', 'name': 'Rizvy Pharma(রিজভী ফার্মেসী)'}}"
"{'type': 'node', 'id': 4331663837, 'lat': 23.8176428, 'lon': 90.3727566, 'tags': {'addr:city': 'Dhaka', 'addr:housenumber': 'Plot 8', 'addr:street': '12', 'addr:suburb': 'Mirpur-11', 'healthcare': 'yes', 'healthcare:speciality': 'homeopathy', 'identifier': '621', 'name': 'Salimullah Homeo Clinic', 'name:bn': 'সলিমুল্লাহ হোমিও ক্লিনিক'}}"
"{'type': 'node', 'id': 4331663839, 'lat': 23.817411, 'lon': 90.3741189, 'tags': {'addr:city': 'Dhaka', 'addr:housenumber': '২২', 'addr:street': '১', 'addr:suburb': 'Mirpur-11', 'amenity': 'pharmacy', 'identifier': '620', 'name': 'Shah Ali Medical Hall(শাহ আলি মেডিকাল হল)'}}"
"{'type': 'node', 'id': 4331663842, 'lat': 23.8169485, 'lon': 90.3742427, 'tags': {'addr:city': 'Dhaka', 'addr:housenumber': '৯০', 'addr:street': '৩', 'addr:suburb': 'Mirpur-11', 'amenity': 'pharmacy', 'identifier': '616', 'name': 'Siam Drug House(সিয়াম ড্রাগ হাউজ)'}}"
"{'type': 'node', 'id': 4331663848, 'lat': 23.8143752, 'lon': 90.3748309, 'tags': {'addr:city': 'Dhaka', 'addr:housenumber': '৬', 'addr:street': 'এভিনিউ ৫, মেইন রোড', 'addr:suburb': 'Mirpur-11', 'amenity': 'pharmacy', 'identifier': '627', 'name': 'Tanjila Medicine Corner(তানজিলা মেডিসিন কর্নার)'}}"
"{'type': 'node', 'id': 4331663856, 'lat': 23.8227657, 'lon': 90.3707882, 'tags': {'addr:city': 'Dhaka', 'addr:suburb': 'Mirpur-11', 'amenity': 'pharmacy', 'healthcare': 'pharmacy', 'identifier': '638', 'name': 'modina medical(মদিনা মেডিক্যাল)'}}"
"{'type': 'node', 'id': 4348283298, 'lat': 23.7660616, 'lon': 90.3694902, 'tags': {'amenity': 'clinic', 'name': 'Health Sub Center'}}"
"{'type': 'node', 'id': 4363222821, 'lat': 23.7727645, 'lon': 90.3545031, 'tags': {'addr:city': 'Adabor, Dhaka', 'addr:postcode': '1207', 'addr:street': 'Rd 11', 'amenity': 'pharmacy', 'drive_through': 'yes', 'name': 'Pran Dental Care & pharmacy'}}"
"{'type': 'node', 'id': 4381969649, 'lat': 23.780488, 'lon': 90.4078897, 'tags': {'amenity': 'clinic', 'name': 'Rafa Medical Service and Cancer Home'}}"
"{'type': 'node', 'id': 4381970989, 'lat': 23.7805382, 'lon': 90.407903, 'tags': {'amenity': 'clinic', 'name': 'Reliance Medical Service'}}"
"{'type': 'node', 'id': 4382062783, 'lat': 23.7800716, 'lon': 90.4075416, 'tags': {'amenity': 'clinic', 'name': 'DOCTORS Diagnostic Center'}}"
"{'type': 'node', 'id': 4388826037, 'lat': 24.7134238, 'lon': 90.294617, 'tags': {'addr:city': 'Mymensingh', 'addr:postcode': '2216', 'addr:street': 'Foraji Bari Road', 'amenity': 'clinic', 'name': 'Bashna Community Clinic'}}"
"{'type': 'node', 'id': 4407990956, 'lat': 23.8163301, 'lon': 90.3683887, 'tags': {'addr:city': 'Dhaka', 'addr:housenumber': '২৯', 'addr:street': '৩', 'addr:suburb': 'Mirpur-11', 'amenity': 'pharmacy', 'identifier': '770', 'name': 'A Hossain Pharmacy(এ হোসাইন ফার্মেসী)'}}"
"{'type': 'node', 'id': 4407990962, 'lat': 23.8268838, 'lon': 90.3684116, 'tags': {'addr:city': 'Dhaka', 'addr:housenumber': '২/১', 'addr:street': '১৫', 'addr:suburb': 'Mirpur-12', 'amenity': 'pharmacy', 'healthcare': 'pharmacy', 'identifier': '705', 'name': 'Al Amin Medicine Corner(আল আমিন মেডিসিন কর্নার)'}}"
"{'type': 'node', 'id': 4407990965, 'lat': 23.8280066, 'lon': 90.3679825, 'tags': {'addr:city': 'Dhaka', 'addr:housenumber': '৪৭', 'addr:street': '৪', 'addr:suburb': 'Mirpur-12', 'amenity': 'pharmacy', 'healthcare': 'pharmacy', 'identifier': '693', 'name': 'Al Mokka Pharmacy(আল মক্কা ফার্মেসী)'}}"
"{'type': 'node', 'id': 4407990969, 'lat': 23.8278677, 'lon': 90.3660488, 'tags': {'addr:city': 'Dhaka', 'addr:housenumber': '১', 'addr:street': '৩', 'addr:suburb': 'Mirpur-12', 'amenity': 'pharmacy', 'identifier': '696', 'name': 'Ali Medical Store(আলী মেডিকেল ষ্টোর)'}}"
"{'type': 'node', 'id': 4407990970, 'lat': 23.8158687, 'lon': 90.3682279, 'tags': {'addr:city': 'Dhaka', 'addr:housenumber': '৯', 'addr:street': '৯', 'addr:suburb': 'Mirpur-11', 'amenity': 'pharmacy', 'identifier': '661', 'name': 'Alif Pharmacy(আলিফ ফার্মেসী)'}}"
"{'type': 'node', 'id': 4407990974, 'lat': 23.8287622, 'lon': 90.3706335, 'tags': {'addr:city': 'Dhaka', 'addr:housenumber': '২৬', 'addr:street': '৩১', 'addr:suburb': 'Mirpur-12', 'amenity': 'pharmacy', 'healthcare': 'pharmacy', 'identifier': '678', 'name': 'Anisha Medicine(আনিশা মেডিসিন কর্নার)'}}"
"{'type': 'node', 'id': 4407990975, 'lat': 23.8279814, 'lon': 90.3660176, 'tags': {'addr:city': 'Dhaka', 'addr:housenumber': '২', 'addr:street': '২', 'addr:suburb': 'Mirpur-12', 'amenity': 'pharmacy', 'identifier': '697', 'name': 'Anoara Pharma(আনোয়ারা ফার্মা)'}}"
"{'type': 'node', 'id': 4407990977, 'lat': 23.8280958, 'lon': 90.3696981, 'tags': {'addr:city': 'Dhaka', 'addr:street': '৪', 'addr:suburb': 'Mirpur-12', 'amenity': 'pharmacy', 'healthcare': 'pharmacy', 'identifier': '684', 'name': 'Asad Medicall Hall(আসাদ মেডিকেল হল)'}}"
"{'type': 'node', 'id': 4407990978, 'lat': 23.8267202, 'lon': 90.3681542, 'tags': {'addr:city': 'Dhaka', 'addr:housenumber': '৪১', 'addr:street': '৮', 'addr:suburb': 'Mirpur-12', 'amenity': 'pharmacy', 'healthcare': 'pharmacy', 'identifier': '704', 'name': 'Ash Shifa Pharmacy(আশ শিফা ফার্মেসী)'}}"
"{'type': 'node', 'id': 4407990979, 'lat': 23.8157914, 'lon': 90.3676714, 'tags': {'addr:city': 'Dhaka', 'addr:street': '৩', 'addr:suburb': 'Mirpur-11', 'amenity': 'pharmacy', 'identifier': '660', 'name': 'B Rahman Pharmacy(বি. রহমান ফার্মেসী)'}}"
"{'type': 'node', 'id': 4407990981, 'lat': 23.8231931, 'lon': 90.3688566, 'tags': {'addr:city': 'Dhaka', 'addr:housenumber': '১৬১', 'addr:street': '৯', 'addr:suburb': 'Mirpur-12', 'amenity': 'pharmacy', 'healthcare': 'pharmacy', 'identifier': '667', 'name': 'Bikrompur Pharmacy(বিক্রমপুর ফার্মেসি)'}}"
"{'type': 'node', 'id': 4407990984, 'lat': 23.8283386, 'lon': 90.3659702, 'tags': {'addr:city': 'Dhaka', 'addr:housenumber': '2', 'addr:street': '1', 'addr:suburb': 'Mirpur-12', 'healthcare': 'yes', 'healthcare:speciality': 'homeopathy', 'identifier': '700', 'name': 'Bismillah Homeo Hall', 'name:bn': 'বিসমিল্লাহ হোমিও হল-ড. আইরিন আক্তার'}}"
"{'type': 'node', 'id': 4407990985, 'lat': 23.8243154, 'lon': 90.3668786, 'tags': {'addr:city': 'Dhaka', 'addr:suburb': 'Mirpur-12', 'amenity': 'pharmacy', 'identifier': '664', 'name': 'Bismillah Pharmacy(বিসমিল্লাহ ফার্মেসি)'}}"
"{'type': 'node', 'id': 4407990986, 'lat': 23.8234323, 'lon': 90.3688029, 'tags': {'addr:city': 'Dhaka', 'addr:suburb': 'Mirpur-12', 'amenity': 'pharmacy', 'healthcare': 'pharmacy', 'identifier': '668', 'name': 'Biswas Pharma(বিশ্বাস ফার্মা)'}}"
"{'type': 'node', 'id': 4407994589, 'lat': 23.8281186, 'lon': 90.3678834, 'tags': {'addr:city': 'Dhaka', 'addr:housenumber': '৪৭', 'addr:street': '৩', 'addr:suburb': 'Mirpur-12', 'amenity': 'pharmacy', 'healthcare': 'pharmacy', 'identifier': '695', 'name': 'Brothers Pharmacy(ব্রাদার্স ফার্মেসী)'}}"
"{'type': 'node', 'id': 4407994594, 'lat': 23.8277889, 'lon': 90.3644727, 'tags': {'addr:city': 'Dhaka', 'addr:street': '৮', 'addr:suburb': 'Mirpur-12', 'amenity': 'pharmacy', 'identifier': '701', 'name': 'Desh Pharma(দেশ ফার্মা)'}}"
"{'type': 'node', 'id': 4407994596, 'lat': 23.823019, 'lon': 90.3688928, 'tags': {'addr:city': 'Dhaka', 'addr:housenumber': '১৫১', 'addr:street': '৪', 'addr:suburb': 'Mirpur-12', 'amenity': 'hospital', 'healthcare': 'hospital', 'identifier': '670', 'name': 'Dr Ainul Islam Khan Chamber(ড আইনুল ইসলাম চেম্বার)'}}"
"{'type': 'node', 'id': 4407994598, 'lat': 23.8228712, 'lon': 90.3689304, 'tags': {'addr:city': 'Dhaka', 'addr:housenumber': '১৫১', 'addr:street': '৮', 'addr:suburb': 'Mirpur-12', 'amenity': 'hospital', 'healthcare': 'hospital', 'identifier': '672', 'name': 'Dr Nighat Rahman Chamber(ড নিঘাত রহমান)'}}"
"{'type': 'node', 'id': 4407994599, 'lat': 23.8230876, 'lon': 90.368862, 'tags': {'addr:city': 'Dhaka', 'addr:housenumber': '১৬১', 'addr:street': '৯', 'addr:suburb': 'Mirpur-12', 'amenity': 'hospital', 'healthcare': 'hospital', 'identifier': '669', 'name': 'Dr Sayeda Dil Afroz Chamber(ড সায়েদা দিল আফরোজ)'}}"
"{'type': 'node', 'id': 4407994607, 'lat': 23.8284472, 'lon': 90.3695759, 'tags': {'addr:city': 'Dhaka', 'addr:suburb': 'Mirpur-12', 'amenity': 'pharmacy', 'healthcare': 'pharmacy', 'identifier': '685', 'name': 'Farjana Pharmacy and Business Point(ফারজানা ফার্মেসী এন্ড বিজনেস পয়েন্ট)'}}"
"{'type': 'node', 'id': 4407994609, 'lat': 23.8219383, 'lon': 90.367654, 'tags': {'addr:city': 'Dhaka', 'addr:housenumber': '8', 'addr:street': '7/2', 'addr:suburb': 'Mirpur-12', 'amenity': 'pharmacy', 'healthcare': 'pharmacy', 'identifier': '665', 'name': 'Fatema Drug House(ফাতেমা ড্রাগ হাউজ)'}}"
"{'type': 'node', 'id': 4407994610, 'lat': 23.8165263, 'lon': 90.3670085, 'tags': {'addr:city': 'Dhaka', 'addr:housenumber': '১৩', 'addr:street': '৪', 'addr:suburb': 'Mirpur-11', 'amenity': 'clinic', 'healthcare': 'clinic', 'identifier': '762', 'name': 'Fatema nursing home(ফাতেমা নার্সিং হোম)'}}"
"{'type': 'node', 'id': 4407994611, 'lat': 23.8161651, 'lon': 90.3709048, 'tags': {'addr:city': 'Dhaka', 'addr:housenumber': '১৫', 'addr:street': '১০', 'addr:suburb': 'Mirpur-11', 'amenity': 'pharmacy', 'identifier': '765', 'name': 'Fazia Pharmacy(ফাজিয়া ফার্মেসী)'}}"
"{'type': 'node', 'id': 4407994615, 'lat': 23.8282079, 'lon': 90.3681123, 'tags': {'addr:city': 'Dhaka', 'addr:housenumber': '১০', 'addr:street': '৩৬', 'addr:suburb': 'Mirpur-12', 'amenity': 'pharmacy', 'healthcare': 'pharmacy', 'identifier': '691', 'name': 'Green Pharmacy(গ্রিন ফার্মেসি)'}}"
"{'type': 'node', 'id': 4407994616, 'lat': 23.8285617, 'lon': 90.368045, 'tags': {'addr:city': 'Dhaka', 'addr:housenumber': '৫/৬', 'addr:street': '৩৬', 'addr:suburb': 'Mirpur-12', 'amenity': 'pharmacy', 'healthcare': 'pharmacy', 'identifier': '686', 'name': 'Halima Medicine Korner(হালিমা মেডিসিন কর্নার)'}}"
"{'type': 'node', 'id': 4407994623, 'lat': 23.8164039, 'lon': 90.3662395, 'tags': {'addr:city': 'Dhaka', 'addr:street': '৪', 'addr:suburb': 'Mirpur-11', 'amenity': 'pharmacy', 'identifier': '760', 'name': 'Jaif pharmacy(জাইফ ফার্মেসী)'}}"
"{'type': 'node', 'id': 4407994628, 'lat': 23.8161299, 'lon': 90.3677307, 'tags': {'addr:city': 'Dhaka', 'addr:street': '৩', 'addr:suburb': 'Mirpur-11', 'amenity': 'pharmacy', 'identifier': '659', 'name': 'Janani Pharmacy(জননী ফার্মেসী)'}}"
"{'type': 'node', 'id': 4407994630, 'lat': 23.8278947, 'lon': 90.3647213, 'tags': {'addr:city': 'Dhaka', 'addr:housenumber': '13', 'addr:street': '8', 'addr:suburb': 'N/A', 'healthcare': 'yes', 'healthcare:speciality': 'homeopathy', 'identifier': '956', 'name': 'Jannat Homeo Hall', 'name:bn': 'জান্নাত হোমিও হল'}}"
"{'type': 'node', 'id': 4407994635, 'lat': 23.8284944, 'lon': 90.3705997, 'tags': {'addr:city': 'Dhaka', 'addr:housenumber': '২৩', 'addr:street': '29', 'addr:suburb': 'Mirpur-12', 'amenity': 'pharmacy', 'healthcare': 'pharmacy', 'identifier': '680', 'name': 'Life Care Pharma(লাইফ কেয়ার ফার্মা)'}}"
"{'type': 'node', 'id': 4407994642, 'lat': 23.8281186, 'lon': 90.3679363, 'tags': {'addr:city': 'Dhaka', 'addr:housenumber': '৩', 'addr:street': '৪৩', 'addr:suburb': 'Mirpur-12', 'amenity': 'pharmacy', 'healthcare': 'pharmacy', 'identifier': '694', 'name': 'Ma Homeo Hall(মা হোমিও হল)'}}"
"{'type': 'node', 'id': 4407994643, 'lat': 23.8281739, 'lon': 90.3660126, 'tags': {'addr:city': 'Dhaka', 'addr:street': '৩', 'addr:suburb': 'Mirpur-12', 'amenity': 'pharmacy', 'identifier': '699', 'name': 'Ma Moni Medical Hall', 'name:bn': 'মা মনি মেডিকেল হল'}}"
"{'type': 'node', 'id': 4407994648, 'lat': 23.8285084, 'lon': 90.3707219, 'tags': {'addr:city': 'Dhaka', 'addr:housenumber': '২৫', 'addr:street': '২৯', 'addr:suburb': 'Mirpur-12', 'amenity': 'pharmacy', 'healthcare': 'pharmacy', 'identifier': '681', 'name': 'Masram Homio Pharma(মাশরাম হোমিও ফার্মা)'}}"
"{'type': 'node', 'id': 4407994650, 'lat': 23.8158657, 'lon': 90.3664254, 'tags': {'addr:city': 'Dhaka', 'addr:street': '৩', 'addr:suburb': 'Mirpur-11', 'amenity': 'pharmacy', 'identifier': '758', 'name': 'Mazumder Pharmacy(মজুমদার ফার্মেসী)'}}"
"{'type': 'node', 'id': 4407994651, 'lat': 23.8160338, 'lon': 90.3709526, 'tags': {'addr:city': 'Dhaka', 'addr:street': '১০', 'addr:suburb': 'Mirpur-11', 'amenity': 'pharmacy', 'identifier': '766', 'name': 'Medicine fair(মেডিসিন ফেয়ার)'}}"
"{'type': 'node', 'id': 4407994654, 'lat': 23.8233796, 'lon': 90.3690604, 'tags': {'addr:city': 'Dhaka', 'addr:housenumber': '২০-২১', 'addr:street': '৫', 'addr:suburb': 'Mirpur-12', 'amenity': 'hospital', 'healthcare': 'hospital', 'identifier': '666', 'name': 'Mirpur Adhunik Hospital(মিরপুর আধুনিক হাসপাতাল)'}}"
"{'type': 'node', 'id': 4407994660, 'lat': 23.8285519, 'lon': 90.3679193, 'tags': {'addr:city': 'Dhaka', 'addr:housenumber': '১/৪৮', 'addr:suburb': 'Mirpur-12', 'amenity': 'clinic', 'healthcare': 'clinic', 'identifier': '689', 'name': 'Monoara Dental Care(মনোআরা ডেন্টাল কেয়ার)'}}"
"{'type': 'node', 'id': 4407994666, 'lat': 23.8165725, 'lon': 90.3712615, 'tags': {'addr:city': 'Dhaka', 'addr:housenumber': '৫', 'addr:street': '১০', 'addr:suburb': 'Mirpur-11', 'amenity': 'pharmacy', 'identifier': '763', 'name': 'New Marko herbal and pharma medical(নিউ মার্কো হার্বাল এন্ড ফার্মা মেডিকেল)'}}"
"{'type': 'node', 'id': 4407994667, 'lat': 23.8165413, 'lon': 90.3674841, 'tags': {'addr:city': 'Dhaka', 'addr:housenumber': '১৪', 'addr:street': '৪', 'addr:suburb': 'Mirpur-11', 'amenity': 'pharmacy', 'identifier': '769', 'name': 'Nowshin medical hall(নউশিন মেডিকেল হল)'}}"
"{'type': 'node', 'id': 4407994668, 'lat': 23.828201, 'lon': 90.3706608, 'tags': {'addr:city': 'Dhaka', 'addr:street': '২৬', 'addr:suburb': 'Mirpur-12', 'amenity': 'pharmacy', 'healthcare': 'pharmacy', 'identifier': '682', 'name': 'Nur Medical Centre(নুর মেডিকেল সেন্টার)'}}"
"{'type': 'node', 'id': 4407994673, 'lat': 23.8282386, 'lon': 90.3680954, 'tags': {'addr:city': 'Dhaka', 'addr:housename': '১', 'addr:housenumber': '১০', 'addr:street': '৩৬', 'addr:suburb': 'Mirpur-12', 'amenity': 'clinic', 'healthcare': 'clinic', 'identifier': '692', 'name': 'Oral Dental Care(ওরাল ডেন্টাল কেয়ার)'}}"
"{'type': 'node', 'id': 4407994680, 'lat': 23.8268842, 'lon': 90.3662785, 'tags': {'addr:city': 'Dhaka', 'addr:housenumber': '০১', 'addr:street': '০৬', 'addr:suburb': 'Mirpur-12', 'amenity': 'hospital', 'healthcare': 'hospital', 'identifier': '675', 'name': 'Popular Medicine Corner (পপুলার মেডিসিন কর্নার)'}}"
"{'type': 'node', 'id': 4407994683, 'lat': 23.8265626, 'lon': 90.3648013, 'tags': {'addr:city': 'Dhaka', 'addr:housenumber': '71', 'addr:street': '6', 'addr:suburb': 'Mirpur-12', 'amenity': 'hospital', 'identifier': '676', 'name': 'Rabeya Maternity(রাবেয়া ম্যাটারনিটি)'}}"
"{'type': 'node', 'id': 4407994688, 'lat': 23.8163646, 'lon': 90.366261, 'tags': {'addr:city': 'Dhaka', 'addr:housenumber': '১২', 'addr:street': '৩', 'addr:suburb': 'Mirpur-11', 'amenity': 'pharmacy', 'identifier': '759', 'name': 'Ruma pharmacy(রুমা ফার্মেসী)'}}"
"{'type': 'node', 'id': 4407994790, 'lat': 23.8280417, 'lon': 90.3707909, 'tags': {'addr:city': 'Dhaka', 'addr:housenumber': '২৬', 'addr:street': '২৭', 'addr:suburb': 'Mirpur-12', 'amenity': 'pharmacy', 'healthcare': 'pharmacy', 'identifier': '683', 'name': 'S R Pharmacy(এস আর ফার্মেসী)'}}"
"{'type': 'node', 'id': 4407994793, 'lat': 23.8230325, 'lon': 90.3693058, 'tags': {'addr:city': 'Dhaka', 'addr:housenumber': '১৯৭', 'addr:street': '৩', 'addr:suburb': 'Mirpur-12', 'amenity': 'pharmacy', 'healthcare': 'pharmacy', 'identifier': '673', 'name': 'Samir Pharmacy(সমির ফার্মেসি)'}}"
"{'type': 'node', 'id': 4407994796, 'lat': 23.8242999, 'lon': 90.3668104, 'tags': {'addr:city': 'Dhaka', 'addr:housenumber': '12/231', 'addr:street': 'Road 1', 'addr:suburb': 'Mirpur-12', 'amenity': 'pharmacy', 'identifier': '663', 'name': 'Satata Pharmacy(সততা ফার্মেসী)'}}"
"{'type': 'node', 'id': 4407994800, 'lat': 23.8208669, 'lon': 90.3680168, 'tags': {'addr:city': 'Dhaka', 'addr:housenumber': '৮২/ এ', 'addr:suburb': 'Mirpur-12', 'amenity': 'pharmacy', 'healthcare': 'pharmacy', 'identifier': '674', 'name': 'Shaheen Pharmacy(শাহিন ফার্মাসি)'}}"
"{'type': 'node', 'id': 4407994806, 'lat': 23.8286486, 'lon': 90.3664786, 'tags': {'addr:city': 'Dhaka', 'addr:street': '1', 'addr:suburb': 'Mirpur-12', 'healthcare': 'yes', 'healthcare:speciality': 'homeopathy', 'identifier': '698', 'name': 'Sheikh Homeo Hall', 'name:bn': 'শেখ হোমিও হল'}}"
"{'type': 'node', 'id': 4407994807, 'lat': 23.8228939, 'lon': 90.368929, 'tags': {'addr:city': 'Dhaka', 'addr:housenumber': '১৫১', 'addr:street': '৮', 'addr:suburb': 'Mirpur-12', 'amenity': 'hospital', 'healthcare': 'hospital', 'identifier': '671', 'name': 'Shishir Medical Hall(শিশির মেডিক্যাল হল)'}}"
"{'type': 'node', 'id': 4407994808, 'lat': 23.8238239, 'lon': 90.3646517, 'tags': {'addr:city': 'Dhaka', 'addr:suburb': 'Mirpur-12', 'amenity': 'pharmacy', 'identifier': '771', 'name': 'Sikdar pharma(সিকদার ফার্মা)'}}"
"{'type': 'node', 'id': 4407994810, 'lat': 23.8161735, 'lon': 90.3711166, 'tags': {'addr:city': 'Dhaka', 'addr:housenumber': '১', 'addr:street': '১০', 'addr:suburb': 'Mirpur-11', 'amenity': 'pharmacy', 'identifier': '768', 'name': 'Sohel homio hall(সোহেল হোমিও হল)'}}"
