OSM_Data
"{'type': 'node', 'id': 50456325, 'lat': 47.8068218, 'lon': 9.6367802, 'tags': {'addr:city': 'Weingarten', 'addr:country': 'DE', 'addr:housenumber': '2', 'addr:postcode': '88250', 'addr:street': 'Talstraße', 'amenity': 'pharmacy', 'contact:email': 'rosenapothekewgt@t-online.de', 'contact:fax': '+49 751 554202', 'contact:phone': '+49 751 43513', 'contact:website': 'http://www.rosenapotheke-weingarten.de/', 'healthcare': 'pharmacy', 'name': 'Rosen-Apotheke', 'opening_hours': 'Mo-Fr 08:30-12:30,14:00-18:00; Sa 09:00-12:30', 'operator': 'Dr. Silke Rieser', 'wheelchair': 'yes'}}"
"{'type': 'node', 'id': 53208229, 'lat': 47.6732275, 'lon': 9.0527613, 'tags': {'healthcare': 'physiotherapist', 'name': 'SanitasVital Physiotherapie'}}"
"{'type': 'node', 'id': 60060042, 'lat': 48.1785014, 'lon': 9.2130695, 'tags': {'addr:city': 'Veringenstadt', 'addr:country': 'DE', 'addr:housenumber': '122', 'addr:postcode': '72519', 'addr:street': 'Im Städtle', 'amenity': 'pharmacy', 'check_date': '2023-09-02', 'dispensing': 'yes', 'fax': '+49 7577 7326', 'name': 'Strüb Apotheke', 'opening_hours': 'Mo-Th 09:00-12:30,15:00-19:00; Fr 09:00-12:30,15:00-18:30; Sa 09:00-12:00', 'phone': '+49 7577 3568'}}"
"{'type': 'node', 'id': 75757805, 'lat': 47.2409751, 'lon': 8.7262277, 'tags': {'addr:city': 'Stäfa', 'addr:housenumber': '4', 'addr:postcode': '8712', 'addr:street': 'Grundstrasse', 'amenity': 'pharmacy', 'brand': 'Fortis', 'healthcare': 'pharmacy', 'name': 'Apotheke zum Rebstock', 'opening_hours': 'Mo-Fr 08:00-12:30,13:30-18:30', 'website': 'https://apothekezumrebstock.ch/'}}"
"{'type': 'node', 'id': 76064978, 'lat': 47.2383127, 'lon': 9.5974849, 'tags': {'addr:city': 'Feldkirch', 'addr:country': 'AT', 'addr:housenumber': '1', 'addr:postcode': '6800', 'addr:street': 'Herrengasse', 'amenity': 'pharmacy', 'contact:email': 'herz-jesu.apotheke@helfe.com', 'contact:fax': '+43 5522 32499 3', 'contact:phone': '+43 5522 32499 0', 'healthcare': 'pharmacy', 'name': 'Herz-Jesu-Apotheke', 'opening_hours': 'Mo-Fr 08:00-12:00, 14:00-18:00; Sa 08:00-13:00', 'operator': 'Herz Jesu Apotheke & Parfümerie Mag. pharm. Ingrid Heller KG', 'wikidata': 'Q38080846'}}"
"{'type': 'node', 'id': 76066249, 'lat': 47.2376393, 'lon': 9.5951902, 'tags': {'addr:city': 'Feldkirch', 'addr:country': 'AT', 'addr:housenumber': '22', 'addr:postcode': '6800', 'addr:street': 'Kreuzgasse', 'amenity': 'pharmacy', 'contact:phone': '+43 5522 72333', 'dispensing': 'yes', 'drive_through': 'no', 'healthcare': 'pharmacy', 'name': ""A.Clessin'sche Stadt-Apotheke"", 'opening_hours': 'Mo-Fr 08:00-12:00, 14:00-18:00; Sa 08:00-12:00', 'wikidata': 'Q38081090'}}"
"{'type': 'node', 'id': 76094199, 'lat': 47.2260358, 'lon': 9.582457, 'tags': {'addr:city': 'Feldkirch', 'addr:country': 'AT', 'addr:housenumber': '94a', 'addr:postcode': '6800', 'addr:street': 'Liechtensteiner Straße', 'amenity': 'pharmacy', 'contact:phone': '+43 5522 39363', 'healthcare': 'pharmacy', 'name': 'Fidelis Apotheke', 'opening_hours': 'Mo-Fr 08:00-12:00, 14:00-18:00, Sa 08:00-12:00'}}"
"{'type': 'node', 'id': 76157491, 'lat': 47.2208372, 'lon': 9.6041706, 'tags': {'addr:city': 'Frastanz', 'addr:country': 'AT', 'addr:housenumber': '17', 'addr:postcode': '6820', 'addr:street': 'Maria Ebene', 'amenity': 'hospital', 'email': 'krankenhaus@mariaebene.at', 'healthcare': 'hospital', 'name': 'Krankenhaus Maria Ebene', 'operator': 'Stiftung Maria Ebene', 'phone': '+43 5522 727460', 'website': 'https://krankenhaus.mariaebene.at', 'wikidata': 'Q85911977'}}"
"{'type': 'node', 'id': 132405322, 'lat': 47.520987, 'lon': 8.540215, 'tags': {'addr:city': 'Bülach', 'addr:housenumber': '28', 'addr:postcode': '8180', 'addr:street': 'Bahnhofstrasse', 'amenity': 'pharmacy', 'branch': 'Bülach Sonnenhof', 'brand': 'Amavita', 'brand:wikidata': 'Q93733901', 'brand:wikipedia': 'de:Amavita', 'dispensing': 'omitted', 'email': 'ama325@amavita.ch', 'fax': '+41 58 878 14 69', 'healthcare': 'pharmacy', 'level': '0', 'name': 'Amavita', 'opening_hours': 'Mo-Th 09:00-19:00; Fr 08:00-19:00; Sa 08:00-17:00', 'operator': 'GaleniCare', 'phone': '+41 58 878 14 60', 'website': 'https://www.amavita.ch/de/amavita-apotheke-sonnenhof'}}"
"{'type': 'node', 'id': 193844929, 'lat': 47.6637104, 'lon': 9.3642244, 'tags': {'amenity': 'pharmacy', 'fax': '+49 7545 2995', 'name': 'See Apotheke', 'opening_hours': 'Mo-Fr 08:30-12:30,14:30-18:30; Sa 08:30-12:30', 'phone': '+49 7545 6736', 'toilets:wheelchair': 'no', 'website': 'https://www.see-apotheke-immenstaad.de/', 'wheelchair': 'no', 'wheelchair:description': 'Stufe am Eingang'}}"
"{'type': 'node', 'id': 246249851, 'lat': 47.4917575, 'lon': 8.7060655, 'tags': {'addr:city': 'Winterthur', 'addr:housenumber': '102', 'addr:postcode': '8406', 'addr:street': 'Zürcherstrasse', 'alt_name': 'Topwell Apotheke Zentrum Töss', 'amenity': 'pharmacy', 'branch': 'Winterthur Töss', 'brand': 'Medbase', 'brand:wikidata': 'Q50038690', 'name': 'Medbase Apotheke Zentrum Töss', 'opening_hours': 'Mo-Fr 08:00-18:30, Sa 08:00-16:00', 'operator': 'Medbase Apotheken', 'website': 'https://www.topwell.ch/medbaseapothekewinterthurzentrum/'}}"
"{'type': 'node', 'id': 246249855, 'lat': 47.4990282, 'lon': 8.7242591, 'tags': {'addr:city': 'Winterthur', 'addr:country': 'CH', 'addr:housenumber': '39', 'addr:postcode': '8400', 'addr:street': 'Untertor', 'amenity': 'pharmacy', 'check_date:opening_hours': '2024-02-24', 'name': 'Adler-Apotheke', 'opening_hours': 'Mo-Fr 07:45-20:00; Sa 07:45-18:00; Su 10:00-17:00', 'wheelchair': 'yes'}}"
"{'type': 'node', 'id': 247098046, 'lat': 47.7050827, 'lon': 9.7472624, 'tags': {'amenity': 'pharmacy', 'entrance': 'yes', 'name': 'Schloss-Apotheke', 'wheelchair': 'yes'}}"
"{'type': 'node', 'id': 248973324, 'lat': 47.2014994, 'lon': 9.3398705, 'tags': {'addr:city': 'Wildhaus', 'addr:country': 'CH', 'addr:housenumber': '93', 'addr:postcode': '9658', 'addr:street': 'Hauptstrasse', 'contact:email': 'info@drogerie-wildhaus.ch', 'contact:phone': '+41 71 999 17 17', 'healthcare': 'pharmacy', 'name': 'Drogerie Abderhalden', 'opening_hours': 'Mo-Fr 08:00-12:00,14:00-18:30; Sa 08:00-12:00,14:00-16:00; Th off', 'shop': 'chemist', 'website': 'https://www.drogerie-wildhaus.ch/'}}"
"{'type': 'node', 'id': 252134667, 'lat': 48.1771556, 'lon': 9.0913636, 'tags': {'addr:city': 'Straßberg', 'addr:country': 'DE', 'addr:housenumber': '19', 'addr:postcode': '72479', 'addr:street': 'Kirchstraße', 'amenity': 'pharmacy', 'contact:phone': '+49 7434 3036', 'dispensing': 'yes', 'name': 'Strassberger Apotheke', 'opening_hours': 'Mo-Fr 09:00-12:30; Mo,Tu,Th,Fr 15:00-18:30'}}"
"{'type': 'node', 'id': 257151496, 'lat': 47.6589307, 'lon': 9.4840933, 'tags': {'addr:postcode': '88046', 'amenity': 'pharmacy', 'contact:email': 'ba@bodensee-apotheke.de', 'contact:facebook': 'https://de-de.facebook.com/Bodensee-Apotheke-181411278555400', 'contact:phone': '+49 7541 950160', 'contact:website': 'https://www.bodensee-apotheke.de/', 'dispensing': 'yes', 'drive_through': 'yes', 'healthcare': 'pharmacy', 'name': 'Bodensee-Apotheke', 'opening_hours': 'Mo-Fr 08:00-19:00, Sa 08:30-13:30; Su,PH off', 'wheelchair': 'yes'}}"
"{'type': 'node', 'id': 262378047, 'lat': 47.3697086, 'lon': 8.5557788, 'tags': {'addr:city': 'Zürich', 'addr:country': 'CH', 'addr:housenumber': '55', 'addr:postcode': '8032', 'addr:street': 'Freiestrasse', 'alt_name': 'DROPA Apotheke & Post Hottingen', 'amenity': 'pharmacy', 'branch': 'Zürich Hottingen', 'brand': 'DROPA', 'brand:wikidata': 'Q1260273', 'check_date:opening_hours': '2023-08-29', 'contact:phone': '+41 44 251 29 42', 'contact:website': 'http://www.apotheke-hottingen.ch/', 'name': 'Dropa Hottingen', 'official_name': 'Hottinger-Apotheke & Post GmbH', 'old_name': 'Hottinger-Apotheke', 'opening_hours': 'Mo-Fr 08:00-18:30; Sa 08:00-12:00', 'operator': 'Dr. Bähler Dropa', 'website': 'https://dropa.ch/standorte/dropa-apotheke-post-hottingen', 'wheelchair': 'yes'}}"
"{'type': 'node', 'id': 262609751, 'lat': 48.2800182, 'lon': 9.0000122, 'tags': {'addr:city': 'Albstadt', 'addr:country': 'DE', 'addr:housenumber': '65', 'addr:postcode': '72461', 'addr:street': 'Hauptstraße', 'addr:suburb': 'Onstmettingen', 'amenity': 'pharmacy', 'dispensing': 'yes', 'drive_through': 'no', 'email': 'info@zollern-apotheke.de', 'fax': '+49 7432 22953', 'healthcare': 'pharmacy', 'name': 'Zollern-Apotheke', 'opening_hours': 'Mo-Fr 08:30-13:00,14:00-18:30; Sa 08:30-12:30', 'phone': '+49 7432 21791', 'website': 'http://www.zollern-apotheke.de/', 'wheelchair': 'no'}}"
"{'type': 'node', 'id': 268127681, 'lat': 47.225295, 'lon': 8.8160014, 'tags': {'amenity': 'pharmacy', 'dispensing': 'yes', 'healthcare': 'pharmacy', 'name': 'Bahnhof-Apotheke', 'opening_hours': 'Mo-Fr 08:00-12:00,13:00-18:30; Sa 08:00-12:00,13:00-17:00', 'operator': 'Dr. Stoffel', 'website': 'https://www.apotheke-drstoffel.ch/'}}"
"{'type': 'node', 'id': 268603397, 'lat': 47.3668025, 'lon': 8.5461401, 'tags': {'addr:city': 'Zürich', 'addr:country': 'CH', 'addr:housenumber': '14', 'addr:place': 'Bellevue', 'addr:postcode': '8001', 'addr:street': 'Theaterstrasse', 'amenity': 'pharmacy', 'check_date': '2023-09-19', 'contact:email': 'info@bellevue-apotheke.ch', 'contact:fax': '+41 44 261 02 10', 'contact:phone': '+41 44 266 62 22', 'contact:website': 'http://www.bellevue-apotheke.ch/', 'name': 'Bellevue Apotheke', 'opening_hours': '24/7', 'wheelchair': 'yes'}}"
"{'type': 'node', 'id': 269229974, 'lat': 47.2578696, 'lon': 9.5983908, 'tags': {'addr:city': 'Feldkirch', 'addr:country': 'AT', 'addr:housenumber': '5', 'addr:postcode': '6800', 'addr:street': 'Kapfstraße', 'amenity': 'pharmacy', 'check_date': '2023-07-18', 'contact:email': 'office@sebastian-apotheke.at', 'contact:fax': '+43 5522 36300 3', 'contact:phone': '+43 5522 363000', 'healthcare': 'pharmacy', 'name': 'Sebastian Apotheke', 'opening_hours': 'Mo-Fr 08:00-12:00, 14:00-18:00; Sa 08:00-12:00', 'operator': 'Mag.pharm. Barbara Hennig e.U.', 'website': 'https://www.sebastian-apotheke.at/'}}"
"{'type': 'node', 'id': 269234979, 'lat': 47.350967, 'lon': 8.7206281, 'tags': {'addr:city': 'Uster', 'addr:housenumber': '9', 'addr:postcode': '8610', 'addr:street': 'Brunnenstrasse', 'alt_name': 'DROPA Apotheke Brunnen', 'amenity': 'pharmacy', 'branch': 'Uster Brunnen', 'brand': 'DROPA', 'brand:wikidata': 'Q1260273', 'healthcare': 'pharmacy', 'name': 'Dropa Brunnen', 'old_name': 'Brunnenapotheke', 'opening_hours': 'Mo-Fr 08:00-12:00, 13:30-18:30; Sa 09:00-16:00', 'operator': 'Dr. Bähler Dropa', 'website': 'https://dropa.ch/standorte/dropa-apotheke-brunnen'}}"
"{'type': 'node', 'id': 269956824, 'lat': 47.951628, 'lon': 9.3810736, 'tags': {'addr:housenumber': '29', 'addr:street': 'Hauptstraße', 'amenity': 'pharmacy', 'name': ""Götz'sche Apotheke"", 'operator': 'Claudius Götz', 'website': 'https://www.goetzsche-apotheke-ostrach.de/', 'wheelchair': 'no'}}"
"{'type': 'node', 'id': 270599000, 'lat': 47.224771, 'lon': 8.984745, 'tags': {'amenity': 'pharmacy', 'dispensing': 'yes'}}"
"{'type': 'node', 'id': 271223620, 'lat': 47.3546412, 'lon': 8.5753312, 'tags': {'addr:city': 'Zürich', 'addr:country': 'CH', 'addr:housenumber': '331', 'addr:postcode': '8008', 'addr:street': 'Forchstrasse', 'amenity': 'pharmacy', 'brand': 'Rotpunkt Apotheke', 'check_date': '2023-10-08', 'name': 'Balgrist Apotheke', 'opening_hours': 'Mo-Fr 07:00-19:00; Sa 08:00-16:00; Su off', 'operator': 'Rotpunkt Pharma', 'phone': '+41 44 388 00 50', 'website': 'https://www.balgrist-apotheke.ch/', 'wheelchair': 'yes'}}"
"{'type': 'node', 'id': 271225056, 'lat': 47.3604238, 'lon': 8.5676494, 'tags': {'addr:city': 'Zürich', 'addr:country': 'CH', 'addr:housenumber': '193', 'addr:postcode': '8032', 'addr:street': 'Forchstrasse', 'amenity': 'pharmacy', 'check_date': '2024-03-03', 'name': 'Hirslanden-Apotheke', 'opening_hours': 'Mo-Fr 07:45-18:30; Sa 07:45-16:00', 'operator': 'Dr. rer. nat. Karl-Rudolf Reichenbach', 'wheelchair': 'no'}}"
"{'type': 'node', 'id': 272354353, 'lat': 47.3676704, 'lon': 8.545276, 'tags': {'addr:city': 'Zürich', 'addr:country': 'CH', 'addr:housenumber': '2', 'addr:postcode': '8001', 'addr:street': 'Limmatquai', 'amenity': 'pharmacy', 'branch': 'Zürich Bellevue', 'brand': 'Achillea Apotheke', 'healthcare': 'pharmacy', 'level': '0', 'name': 'Odeon Apotheke', 'opening_hours': 'Mo-Su 08:00-20:00', 'operator': 'Dr. Bähler Dropa', 'website': 'https://achillea.ch/standorte/odeon-apotheke', 'wheelchair': 'yes'}}"
"{'type': 'node', 'id': 274970306, 'lat': 48.1534067, 'lon': 9.4753388, 'tags': {'addr:city': 'Riedlingen', 'addr:country': 'DE', 'addr:housenumber': '15', 'addr:postcode': '88499', 'addr:street': 'Marktplatz', 'amenity': 'pharmacy', 'dispensing': 'yes', 'email': 'info@apotheke-am-marktplatz.de', 'fax': '+49 7371 9351111', 'name': 'Apotheke am Marktplatz', 'opening_hours': 'Mo-Fr 08:00-18:00; Sa 08:30-12:30', 'operator': 'Reiner Henn e.K.', 'phone': '+49 7371 93510', 'website': 'https://www.apotheke-am-marktplatz.de/', 'wheelchair': 'yes'}}"
"{'type': 'node', 'id': 276203959, 'lat': 47.2398075, 'lon': 9.5817976, 'tags': {'amenity': 'doctors', 'healthcare': 'doctor', 'wheelchair': 'yes'}}"
"{'type': 'node', 'id': 277227366, 'lat': 47.1745757, 'lon': 8.8973622, 'tags': {'addr:city': 'Siebnen', 'addr:housenumber': '1', 'addr:postcode': '8854', 'addr:street': 'Glarnerstrasse', 'amenity': 'pharmacy', 'branch': 'Siebnen', 'brand': 'TopPharm', 'dispensing': 'yes', 'healthcare': 'pharmacy', 'kids_area': 'yes', 'kids_area:fee': 'no', 'kids_area:indoor': 'yes', 'kids_area:outdoor': 'no', 'kids_area:supervised': 'no', 'name': 'TopPharm Apotheke Siebnen', 'old_name': 'Apotheke Dr. Hahn', 'operator': 'TopPharm Genossenschaft', 'payment:twint': 'yes', 'website': 'https://www.apotheke.ch/siebnen'}}"
"{'type': 'node', 'id': 282857528, 'lat': 47.7449288, 'lon': 8.9637029, 'tags': {'addr:city': 'Radolfzell am Bodensee', 'addr:country': 'DE', 'addr:housenumber': '48', 'addr:postcode': '78315', 'addr:street': 'Haselbrunnstraße', 'amenity': 'pharmacy', 'check_date': '2024-02-25', 'contact:email': 'michael.dohm@scheffel-apotheke.de', 'contact:phone': '+49 7732 2551', 'contact:website': 'http://www.scheffel-apotheke.de', 'healthcare': 'pharmacy', 'name': 'Scheffel-Apotheke', 'opening_hours': 'Mo-Fr 08:00-19:00; Sa 08:00-13:00', 'toilets:wheelchair': 'no', 'wheelchair': 'yes'}}"
"{'type': 'node', 'id': 282857675, 'lat': 47.7457414, 'lon': 8.9590859, 'tags': {'addr:city': 'Radolfzell am Bodensee', 'addr:housenumber': '21', 'addr:postcode': '78315', 'addr:street': 'Hegaustraße', 'amenity': 'pharmacy', 'healthcare': 'pharmacy', 'name': 'Sonnen-Apotheke', 'opening_hours': 'Mo-Fr 08:30-12:30,14:30-18:15; Sa 08:30-12:30', 'phone': '+49 7732 971053', 'toilets:wheelchair': 'no', 'website': 'https://www.sonnenapotheke-radolfzell.de/', 'wheelchair': 'yes'}}"
"{'type': 'node', 'id': 283302485, 'lat': 47.237218, 'lon': 9.5820461, 'tags': {'amenity': 'doctors', 'healthcare': 'doctor', 'wheelchair': 'no'}}"
"{'type': 'node', 'id': 285897176, 'lat': 48.2866385, 'lon': 8.724913, 'tags': {'addr:city': 'Rosenfeld', 'addr:country': 'DE', 'addr:housenumber': '15', 'addr:postcode': '72348', 'addr:street': 'Balinger Straße', 'amenity': 'pharmacy', 'dispensing': 'yes', 'healthcare': 'pharmacy', 'name': 'Stadtapotheke', 'opening_hours': 'Mo-Fr 08:00-12:30,14:30-18:30;Sa 08:00-12:30', 'website': 'https://www.stadt-apotheke-rosenfeld.de/'}}"
"{'type': 'node', 'id': 287262549, 'lat': 47.0210267, 'lon': 8.6523296, 'tags': {'addr:city': 'Schwyz', 'addr:country': 'CH', 'addr:housenumber': '6', 'addr:postcode': '6430', 'addr:street': 'Postplatz', 'amenity': 'pharmacy', 'contact:fax': '+41 41 8116416', 'contact:phone': '+41 41 8115616', 'dispensing': 'yes', 'drive_through': 'no', 'email': 'hofmatt.apo@ovan.ch', 'healthcare': 'pharmacy', 'name': 'Hofmatt Apotheke', 'source': 'survey and website;local knowledge', 'website': 'https://www.hofmatt-apotheke.ch/'}}"
"{'type': 'node', 'id': 292017549, 'lat': 47.6967268, 'lon': 9.8220373, 'tags': {'addr:city': 'Wangen im Allgäu', 'addr:country': 'DE', 'addr:housenumber': '12', 'addr:postcode': '88239', 'addr:street': 'Siemensstraße', 'amenity': 'pharmacy', 'contact:email': 'info@staufen-apotheke.de', 'contact:fax': '+49 7522 931088', 'contact:phone': '+49 7522 931077', 'contact:website': 'http://www.staufen-apotheke.de/', 'dispensing': 'yes', 'name': 'Apotheke im Gesundheitszentrum', 'opening_hours': 'Mo-Fr 08:00-19:00, Sa,PH off', 'operator': 'Silke Jahn-Burth', 'wheelchair': 'yes'}}"
"{'type': 'node', 'id': 292360012, 'lat': 47.5674526, 'lon': 9.1102435, 'tags': {'amenity': 'pharmacy', 'check_date:opening_hours': '2022-10-24', 'name': 'Apotheke Aemisegger', 'opening_hours': 'Mo-Fr 08:00-18:30; Sa 08:00-16:00', 'website': 'https://www.aemisegger-apotheke.ch/'}}"
"{'type': 'node', 'id': 293114369, 'lat': 47.5569073, 'lon': 8.5092618, 'tags': {'amenity': 'doctors', 'healthcare': 'doctor', 'name': 'Arzt'}}"
"{'type': 'node', 'id': 295710136, 'lat': 47.6742179, 'lon': 9.4921454, 'tags': {'addr:city': 'Friedrichshafen', 'addr:country': 'DE', 'addr:housenumber': '4', 'addr:postcode': '88046', 'addr:street': 'Merkurstraße', 'amenity': 'clinic', 'check_date': '2023-07-23', 'emergency': 'no', 'healthcare': 'clinic', 'name': 'Psychiatrische Tagesklinik', 'website': 'https://tagesklinik-fn.de/'}}"
"{'type': 'node', 'id': 295868186, 'lat': 47.7761664, 'lon': 9.1907043, 'tags': {'addr:city': 'Überlingen', 'addr:country': 'DE', 'addr:housenumber': '60', 'addr:postcode': '88662', 'addr:street': 'Lippertsreuter Straße', 'amenity': 'pharmacy', 'dispensing': 'yes', 'healthcare': 'pharmacy', 'name': 'Apotheke im La Piazza', 'opening_hours': 'Mo-Sa 08:00-20:00', 'wheelchair': 'yes'}}"
"{'type': 'node', 'id': 301315781, 'lat': 47.7837013, 'lon': 9.5779627, 'tags': {'addr:city': 'Ravensburg', 'addr:country': 'DE', 'addr:housenumber': '6', 'addr:postcode': '88213', 'addr:street': 'Hochbergstraße', 'amenity': 'pharmacy', 'contact:email': 'hochberg.apo.rv@t-online.de', 'contact:fax': '+49 751 96440', 'contact:phone': '+49 751 96866', 'contact:website': 'http://www.hochberg-apotheke.de/apotheke/willkommen.htm', 'dispensing': 'no', 'name': 'Hochberg-Apotheke', 'opening_hours': 'Mo-Fr 08:00-18:30; Sa 08:00-13:00'}}"
"{'type': 'node', 'id': 301815427, 'lat': 47.3731732, 'lon': 8.5293204, 'tags': {'addr:city': 'Zürich', 'addr:country': 'CH', 'addr:housenumber': '26', 'addr:postcode': '8004', 'addr:street': 'Stauffacherstrasse', 'amenity': 'pharmacy', 'branch': 'Zürich Stauffacher', 'brand': 'Medbase', 'brand:wikidata': 'Q50038690', 'dispensing': 'yes', 'name': 'Berg-Apotheke by Medbase', 'opening_hours': 'Mo-Sa 07:00-19:00; Su,PH closed', 'operator': 'Medbase Apotheken', 'website': 'https://www.medbase-apotheken.ch/apotheken/detail/berg-apotheke-by-medbase', 'wheelchair': 'yes'}}"
"{'type': 'node', 'id': 301815428, 'lat': 47.373683, 'lon': 8.53089, 'tags': {'addr:city': 'Zürich', 'addr:country': 'CH', 'addr:housenumber': '6', 'addr:postcode': '8004', 'addr:street': 'Badenerstrasse', 'amenity': 'pharmacy', 'brand': 'Rotpunkt Apotheke', 'check_date:opening_hours': '2023-02-17', 'dispensing': 'yes', 'name': 'Olympia Apotheke', 'opening_hours': 'Mo-Fr 08:00-19:00; Sa 09:00-17:00', 'operator': 'Rotpunkt Pharma', 'website': 'https://www.olympia-apotheke.ch/', 'wheelchair': 'yes'}}"
"{'type': 'node', 'id': 302108723, 'lat': 47.81555, 'lon': 9.6293303, 'tags': {'addr:city': 'Weingarten', 'addr:country': 'DE', 'addr:housenumber': '12', 'addr:postcode': '88250', 'addr:street': 'Boschstraße', 'amenity': 'pharmacy', 'contact:email': 'info@welfen-apotheke.de', 'contact:fax': '+49 751 553002', 'contact:phone': '+49 751 48080', 'contact:website': 'http://www.welfen-apotheke.de/', 'dispensing': 'no', 'name': 'Welfen Apotheke', 'opening_hours': 'Mo-Fr 08:00-18:30; Sa 08:00-12:30', 'operator': 'Moritz Bringmann', 'wheelchair': 'yes'}}"
"{'type': 'node', 'id': 303587196, 'lat': 47.7852881, 'lon': 9.6168342, 'tags': {'addr:city': 'Ravensburg', 'addr:housenumber': '22-24', 'addr:postcode': '88212', 'addr:street': 'Gartenstraße', 'amenity': 'pharmacy', 'contact:email': 'info@zeppelinapotheke.de', 'contact:fax': '+49 751 3524107', 'contact:phone': '+49 751 22588', 'contact:website': 'http://www.zeppelinapotheke.de/apotheke/willkommen.htm', 'healthcare': 'pharmacy', 'name': 'Zeppelinapotheke', 'operator': 'Michael Heid'}}"
"{'type': 'node', 'id': 304799045, 'lat': 47.8066495, 'lon': 9.6398688, 'tags': {'addr:city': 'Weingarten', 'addr:housenumber': '7', 'addr:postcode': '88250', 'addr:street': 'Löwenplatz', 'contact:email': 'info@optikhaus-blandfort.de', 'contact:fax': '+49 751 54499', 'contact:phone': '+49 751 45050', 'contact:website': 'http://www.optikhaus-blandfort.de', 'healthcare': 'optometrist', 'name': 'Optik Blandfort', 'opening_hours': 'We 08:00-18:00; Mo,Tu,Th,Fr 09:00-18:00; Sa 09:00-14:00; Su,PH off', 'shop': 'optician', 'wheelchair': 'yes'}}"
"{'type': 'node', 'id': 305707117, 'lat': 47.4429955, 'lon': 8.6308615, 'tags': {'amenity': 'pharmacy', 'healthcare': 'pharmacy', 'name': 'Apotheke Rosengarten', 'opening_hours': 'Mo-Th 08:00-12:15,13:30-19:00; Fr 08:00-19:00; Sa 08:00-17:00', 'wheelchair': 'yes'}}"
"{'type': 'node', 'id': 306048310, 'lat': 47.7527123, 'lon': 8.8447993, 'tags': {'amenity': 'pharmacy', 'dispensing': 'no', 'fax': '+49 7731 8276-58', 'healthcare': 'pharmacy', 'name': 'AVIE Apotheke im Kaufland', 'opening_hours': 'Mo-Sa 07:00-22:00', 'operator': 'Daniel Hölzle', 'phone': '+49 7731 8276-57', 'website': 'http://www.avie-apotheke-singen.de/', 'wheelchair': 'yes'}}"
"{'type': 'node', 'id': 306048315, 'lat': 47.759733, 'lon': 8.8394044, 'tags': {'amenity': 'pharmacy', 'contact:city': 'Singen (Hohentwiel)', 'contact:country': 'DE', 'contact:housenumber': '26', 'contact:phone': '+49 7731 64317', 'contact:postcode': '78224', 'contact:street': 'Hegaustraße', 'contact:website': 'http://www.centralapotheke.com/', 'fax': '+49 7731 60126', 'healthcare': 'pharmacy', 'name': 'Central Apotheke', 'opening_hours': 'Mo-Fr 08:30-18:30; We 08:30-18:00; Sa 08:30-13:00', 'operator': 'Johannes Danassis', 'wheelchair': 'yes'}}"
"{'type': 'node', 'id': 306048316, 'lat': 47.7591351, 'lon': 8.8375766, 'tags': {'amenity': 'pharmacy', 'check_date:opening_hours': '2024-10-06', 'contact:city': 'Singen', 'contact:country': 'DE', 'contact:email': 'info@apotheke-hohentwiel.de', 'contact:housenumber': '14', 'contact:phone': '+49 7731 90568-0', 'contact:postcode': '78224', 'contact:street': 'Hegaustraße', 'contact:website': 'https://www.apotheke-hohentwiel.de/', 'fax': '+49 7731 64002', 'healthcare': 'pharmacy', 'name': 'Hohentwiel Apotheke', 'opening_hours': 'Mo-Fr 08:00-18:30; Sa 08:00-13:00', 'operator': 'Faisa Younes', 'wheelchair': 'yes'}}"
"{'type': 'node', 'id': 306623063, 'lat': 47.7508879, 'lon': 8.8431127, 'tags': {'amenity': 'pharmacy', 'contact:city': 'Singen (Hohentwiel)', 'contact:country': 'DE', 'contact:housenumber': '2', 'contact:phone': '+49 7731 61700', 'contact:postcode': '78224', 'contact:street': 'Friedrich-Ebert-Platz', 'healthcare': 'pharmacy', 'name': 'Bärenapotheke', 'wheelchair': 'yes'}}"
"{'type': 'node', 'id': 307103804, 'lat': 48.2141398, 'lon': 9.029149, 'tags': {'amenity': 'pharmacy', 'dispensing': 'no', 'healthcare': 'pharmacy', 'name': 'Schlossberg Apotheke', 'toilets:wheelchair': 'yes', 'wheelchair': 'yes'}}"
"{'type': 'node', 'id': 307364393, 'lat': 47.5075362, 'lon': 8.7115007, 'tags': {'addr:city': 'Winterthur', 'addr:housenumber': '84', 'addr:postcode': '8400', 'addr:street': 'Wülflingerstrasse', 'amenity': 'pharmacy', 'brand': 'Rotpunkt Apotheke', 'dispensing': 'yes', 'drive_through': 'no', 'name': 'Bachtel Apotheke', 'opening_hours': 'Mo-Fr 08:00-18:30; Sa 08:00-13:00', 'phone': '+41 52 222 23 74', 'website': 'https://www.bachtel-apotheke.ch/'}}"
"{'type': 'node', 'id': 307494089, 'lat': 47.2082665, 'lon': 8.70671, 'tags': {'addr:city': 'Richterswil', 'addr:housenumber': '4', 'addr:postcode': '8805', 'addr:street': 'Chrüzweg', 'amenity': 'pharmacy', 'brand': 'Fortis', 'name': 'Paracelsus Apotheke', 'opening_hours': 'Mo-Fr 08:00-13:00,14:00-18:30, Sa 09:00-16:00', 'operator': 'Paracelsus-Spital Richterswil', 'website': 'https://paracelsus-spital.com/apotheke/'}}"
"{'type': 'node', 'id': 308097088, 'lat': 48.213011, 'lon': 9.028472, 'tags': {'amenity': 'pharmacy', 'dispensing': 'no', 'healthcare': 'pharmacy', 'name': 'Alb-Apotheke', 'wheelchair': 'yes'}}"
"{'type': 'node', 'id': 308097117, 'lat': 48.2127006, 'lon': 9.0271211, 'tags': {'addr:city': 'Albstadt', 'addr:country': 'DE', 'addr:housenumber': '11', 'addr:postcode': '72458', 'addr:street': 'Marktstraße', 'addr:suburb': 'Ebingen', 'amenity': 'pharmacy', 'contact:email': 'info@untereapotheke.de', 'contact:fax': '+49 7431 56916', 'contact:phone': '+49 7431 2240', 'contact:website': 'http://www.untereapotheke.de/', 'dispensing': 'yes', 'healthcare': 'pharmacy', 'name': 'Untere Apotheke', 'opening_hours': 'Mo-Fr 08:00-19:00; Sa 08:00-13:00', 'wheelchair': 'yes'}}"
"{'type': 'node', 'id': 308097133, 'lat': 48.2129971, 'lon': 9.0252261, 'tags': {'addr:city': 'Albstadt', 'addr:country': 'DE', 'addr:housenumber': '44', 'addr:postcode': '72458', 'addr:street': 'Marktstraße', 'addr:suburb': 'Ebingen', 'amenity': 'pharmacy', 'contact:email': 'info@obere-apo-albstadt.de', 'contact:fax': '+49 7431 54174', 'contact:phone': '+49 7431 3240', 'contact:website': 'http://www.apotheken.de/club/72458/obere-apotheke', 'dispensing': 'yes', 'healthcare': 'pharmacy', 'name': 'Obere Apotheke', 'opening_hours': 'Mo-Fr 08:30-18:30; Sa 08:30-13:00', 'operator': 'Hermann Merkle', 'wheelchair': 'yes'}}"
"{'type': 'node', 'id': 308131215, 'lat': 47.2299189, 'lon': 8.6734768, 'tags': {'addr:city': 'Wädenswil', 'addr:country': 'CH', 'addr:housenumber': '2', 'addr:postcode': '8820', 'addr:street': 'Zugerstrasse', 'alt_name': 'Sun Store Wädenswil', 'amenity': 'pharmacy', 'branch': 'Wädenswil', 'brand': 'Sun Store SA', 'brand:wikidata': 'Q2365840', 'name': 'Sun Store', 'operator': 'GaleniCare', 'website': 'https://www.sunstore.ch/'}}"
"{'type': 'node', 'id': 308131245, 'lat': 47.2289352, 'lon': 8.6750569, 'tags': {'addr:city': 'Wädenswil', 'addr:housenumber': '5', 'addr:postcode': '8820', 'addr:street': 'Bahnhofstrasse', 'amenity': 'pharmacy', 'branch': 'Wädenswil Bahnhof', 'brand': 'Amavita', 'name': 'Amavita Wädenswil Bahnhof', 'opening_hours': 'Mo-Fr 07:30-18:30; Sa 07:30-16:00; Su 10:00-12:00', 'operator': 'GaleniCare', 'phone': '+41 58 851 33 06', 'website': 'https://www.amavita.ch/de/amavita-apotheke-bahnhof-wadenswil', 'wheelchair': 'no'}}"
"{'type': 'node', 'id': 308813283, 'lat': 48.09976, 'lon': 9.7929774, 'tags': {'amenity': 'pharmacy', 'check_date': '2024-05-03', 'contact:email': 'info@allmannsche-apotheke.de', 'contact:phone': '+49 731 1800018', 'contact:website': 'https://www.allmannsche-apotheke.de', 'dispensing': 'yes', 'healthcare': 'pharmacy', 'name': 'Apotheke im ÄrzteHaus', 'opening_hours': 'Mo-Th 08:30-19:00; Fr 08:30-18:00; Sa 09:00-13:00', 'wheelchair': 'yes'}}"
"{'type': 'node', 'id': 309021746, 'lat': 47.8172247, 'lon': 9.0575475, 'tags': {'addr:city': 'Bodman-Ludwigshafen', 'addr:country': 'DE', 'addr:housenumber': '8', 'addr:postcode': '78351', 'addr:street': 'Hauptstraße', 'addr:suburb': 'Ludwigshafen', 'amenity': 'pharmacy', 'check_date:opening_hours': '2024-05-15', 'dispensing': 'yes', 'name': 'Seeapotheke', 'opening_hours': 'Mo-Fr 08:30-12:30,14:30-18:30; Sa 08:30-12:30', 'phone': '+49 7773 920023', 'website': 'https://www.see-apo.de/', 'wheelchair': 'yes'}}"
"{'type': 'node', 'id': 310133210, 'lat': 47.4205226, 'lon': 8.5487362, 'tags': {'addr:city': 'Zürich', 'addr:country': 'CH', 'addr:housenumber': '479', 'addr:postcode': '8052', 'addr:street': 'Schaffhauserstrasse', 'alt_name': 'Topwell Apotheke Niklaus', 'amenity': 'pharmacy', 'branch': 'Zürich Seebach', 'brand': 'Medbase', 'brand:wikidata': 'Q50038690', 'check_date': '2024-01-21', 'dispensing': 'yes', 'name': 'Medbase Apotheke Seebach', 'old_name': 'Niklaus Apotheke', 'opening_hours': 'Mo-Fr 08:00-18:30; Sa 08:00-16:00', 'operator': 'Medbase Apotheken', 'website': 'https://www.topwell.ch/medbaseapothekezuerichseebach/', 'wheelchair': 'yes'}}"
"{'type': 'node', 'id': 310928121, 'lat': 47.8101286, 'lon': 8.8097658, 'tags': {'addr:city': 'Mühlhausen-Ehingen', 'addr:country': 'DE', 'addr:housenumber': '40', 'addr:postcode': '78259', 'addr:street': 'Schloßstraße', 'amenity': 'pharmacy', 'contact:email': 'info@wasmuth-apotheke.de', 'contact:fax': '+49 7733 505373', 'contact:phone': '+49 7733 5152', 'contact:website': 'http://www.wasmuth-apotheke.de', 'dispensing': 'yes', 'healthcare': 'pharmacy', 'name': 'Wasmuth-Apotheke', 'opening_hours': 'Mo-Fr 08:30-12:30,14:30-18:30; Sa 08:30-12:30; Su,PH off', 'operator': 'Pinelopi Argiti e. K.', 'wheelchair': 'yes', 'wheelchair:description': 'Öffnungszeiten: Montag - Freitag: 8:30 Uhr - 12:30 Uhr + 14:30 Uhr - 18:30 Uhr, Samstag 8:30 Uhr - 12:30 Uhr'}}"
"{'type': 'node', 'id': 311859327, 'lat': 47.4146984, 'lon': 8.5394808, 'tags': {'email': 'oerlikon@dongfangtcm.ch', 'healthcare': 'alternative', 'healthcare:speciality': 'traditional_chinese_medicine', 'name': 'Dong Fang TCM Praxis', 'opening_hours': 'Mo-Fr 08:40-20:40; Sa 08:40-18:00', 'website': 'https://www.dongfangtcm.ch/'}}"
"{'type': 'node', 'id': 313898344, 'lat': 47.376059, 'lon': 8.5252233, 'tags': {'addr:city': 'Zürich', 'addr:country': 'CH', 'addr:housenumber': '39', 'addr:postcode': '8004', 'addr:street': 'Langstrasse', 'alt_name': 'Topwell Apotheke Helvetiaplatz', 'amenity': 'pharmacy', 'branch': 'Zürich Helvetiaplatz', 'brand': 'Medbase', 'brand:wikidata': 'Q50038690', 'check_date': '2024-09-17', 'dispensing': 'yes', 'name': 'Medbase Apotheke Helvetiaplatz', 'old_name': 'Helvetiaplatz Apotheke', 'opening_hours': 'Mo-Fr 08:00-19:00; Sa 09:00-17:00', 'operator': 'Medbase Apotheken', 'website': 'https://www.topwell.ch/medbaseapothekezuerichhelvetiapl/', 'wheelchair': 'yes'}}"
"{'type': 'node', 'id': 314979529, 'lat': 47.3715926, 'lon': 8.5256213, 'tags': {'addr:city': 'Zürich', 'addr:country': 'CH', 'addr:housenumber': '51', 'addr:postcode': '8004', 'addr:street': 'Birmensdorferstrasse', 'amenity': 'pharmacy', 'brand': 'Rotpunkt Apotheke', 'check_date': '2024-01-13', 'dispensing': 'yes', 'healthcare': 'pharmacy', 'name': 'Werd Apotheke', 'opening_hours': 'Mo-Fr 08:00-18:30; Sa 08:00-12:30', 'operator': 'Rotpunkt Pharma', 'website': 'https://www.werd-apotheke.ch/', 'wheelchair': 'yes'}}"
"{'type': 'node', 'id': 316855156, 'lat': 47.3870515, 'lon': 8.7529678, 'tags': {'addr:city': 'Fehraltorf', 'addr:country': 'CH', 'addr:housenumber': '1', 'addr:postcode': '8320', 'addr:street': 'Kirchgasse', 'amenity': 'pharmacy', 'check_date': '2024-10-20', 'dispensing': 'yes', 'healthcare': 'pharmacy', 'name': 'Apotheke am Hechtplatz', 'opening_hours': 'Mo-Fr 08:00-18:30; Sa 08:00-16:00; Su off', 'phone': '+41 44 995 61 01', 'shop': 'chemist', 'website': 'https://www.apothekeamhechtplatz.ch/', 'wheelchair': 'yes'}}"
"{'type': 'node', 'id': 319878997, 'lat': 48.1737904, 'lon': 9.7941771, 'tags': {'amenity': 'pharmacy', 'dispensing': 'no', 'healthcare': 'pharmacy', 'name': 'Antonius-Apotheke', 'opening_hours': 'Mo-Fr 08:15-12:30,14:15-18:15; Sa 08:15-12:15', 'wheelchair': 'yes'}}"
"{'type': 'node', 'id': 323214633, 'lat': 48.0646933, 'lon': 9.8277226, 'tags': {'addr:city': 'Ummendorf', 'addr:housenumber': '2', 'addr:postcode': '88444', 'addr:street': 'Riedweg', 'amenity': 'pharmacy', 'dispensing': 'yes', 'name': 'Apotheke Waniek', 'website': 'https://www.apotheke-waniek.de/', 'wheelchair': 'yes'}}"
"{'type': 'node', 'id': 331314395, 'lat': 47.3612769, 'lon': 8.5056635, 'tags': {'addr:city': 'Zürich', 'addr:country': 'CH', 'addr:housenumber': '245', 'addr:postcode': '8055', 'addr:street': 'Schweighofstrasse', 'amenity': 'pharmacy', 'name': 'West-Apotheke', 'opening_hours': 'Mo-Sa 08:15-12:15,13:30-18:30', 'phone': '+41 44 463 70 80', 'website': 'https://website--836685969719036726410-pharmacy.business.site/'}}"
"{'type': 'node', 'id': 331433876, 'lat': 47.2880672, 'lon': 9.652822, 'tags': {'addr:city': 'Sulz', 'addr:country': 'AT', 'addr:housenumber': '5', 'addr:postcode': '6832', 'addr:street': 'Hummelbergstraße', 'healthcare': 'physiotherapist', 'name': 'Körperwerkstatt Physiotherapie Sulz', 'opening_hours': 'Mo-Th 07:00-20:00; Fr 07:00-13:00; ""sowie telefonische Vereinbarung""', 'website': 'https://www.koerper-werkstatt.com/'}}"
"{'type': 'node', 'id': 333644968, 'lat': 47.4192461, 'lon': 9.6596803, 'tags': {'addr:city': 'Lustenau', 'addr:country': 'AT', 'addr:housenumber': '17a', 'addr:postcode': '6890', 'addr:street': 'Grindelstraße', 'amenity': 'pharmacy', 'contact:phone': '+43 5577 880800', 'dispensing': 'yes', 'healthcare': 'pharmacy', 'name': 'Engel Apotheke', 'opening_hours': 'Mo-Fr 08:00-12:00,14:00-18:00; Sa 08:00-12:00'}}"
"{'type': 'node', 'id': 336258353, 'lat': 47.3737003, 'lon': 8.6409872, 'tags': {'addr:city': 'Fällanden', 'addr:housenumber': '2', 'addr:postcode': '8117', 'addr:street': 'Unterdorfstrasse', 'alt_name': 'BENU Apotheke Fällanden', 'amenity': 'pharmacy', 'branch': 'Fällanden', 'brand': 'BENU', 'brand:wikidata': 'Q62562792', 'dispensing': 'yes', 'healthcare': 'pharmacy', 'name': 'BENU', 'opening_hours': 'Mo-Fr 08:00-20:00; Sa 08:00-17:00', 'operator': 'BENU Pharmacies', 'website': 'https://www.benu.ch/de/pharmacies/faellanden/', 'wheelchair': 'yes'}}"
"{'type': 'node', 'id': 336457292, 'lat': 47.166062, 'lon': 9.4770545, 'tags': {'amenity': 'pharmacy', 'healthcare': 'pharmacy', 'name': 'Sankt Georg Apotheke', 'name:gsw': 'Sankt Georg Apotheke', 'opening_hours': 'Mo-Fr 08:00-12:00,13:15-18:30, Sa 08:00-16:00', 'toilets:wheelchair': 'no', 'wheelchair': 'yes'}}"
"{'type': 'node', 'id': 339634934, 'lat': 48.1202875, 'lon': 9.0784944, 'tags': {'addr:city': 'Stetten am kalten Markt', 'addr:country': 'DE', 'addr:housenumber': '1', 'addr:postcode': '72510', 'addr:street': 'Mauritiusplatz', 'amenity': 'pharmacy', 'contact:phone': '+49 7573 95353', 'name': 'Heuberg Apotheke', 'opening_hours': 'Mo-Fr 08:30-12:30,14:00-18:30; Sa 08:30-12:30'}}"
"{'type': 'node', 'id': 340073495, 'lat': 48.1513746, 'lon': 9.4773639, 'tags': {'addr:city': 'Riedlingen', 'addr:housenumber': '10', 'addr:street': 'Hindenburgstraße', 'amenity': 'pharmacy', 'dispensing': 'yes', 'name': 'Donau-Apotheke', 'opening_hours': 'Mo-Fr 08:30-12:30,14:00-18:30; Sa 08:30-12:30', 'operator': 'Reiner Henn e.K.', 'website': 'https://www.donau-apotheke.de/', 'wheelchair': 'yes'}}"
"{'type': 'node', 'id': 340190866, 'lat': 47.681543, 'lon': 9.2004235, 'tags': {'amenity': 'doctors', 'healthcare': 'doctor', 'name': 'Dr. Neidhard', 'wheelchair': 'yes'}}"
"{'type': 'node', 'id': 340190871, 'lat': 47.6821765, 'lon': 9.2020379, 'tags': {'addr:city': 'Konstanz', 'addr:country': 'DE', 'addr:housenumber': '149', 'addr:postcode': '78464', 'addr:street': 'Mainaustraße', 'addr:suburb': 'Allmannsdorf', 'amenity': 'doctors', 'contact:email': 'Weiner-KN@t-online.de', 'contact:fax': '+49 7531 33091', 'contact:phone': '+49 7531 33077', 'contact:website': 'http://www.kinderaerzteimnetz.de/aerzte/arzt_1489.html', 'healthcare': 'doctor', 'healthcare:speciality': 'paediatrics', 'name': 'Kinderarzt Dr. Weiner', 'wheelchair': 'no'}}"
"{'type': 'node', 'id': 343810482, 'lat': 47.6530505, 'lon': 8.5747714, 'tags': {'addr:city': 'Jestetten', 'addr:country': 'DE', 'addr:housenumber': '6', 'addr:postcode': '79798', 'addr:street': 'Saarstraße', 'amenity': 'pharmacy', 'contact:email': 'info@klosterapo-jestetten.de', 'dispensing': 'yes', 'fax': '+49 7745 5159', 'healthcare': 'pharmacy', 'name': 'Kloster Apotheke', 'opening_hours': 'Mo-Fr 08:30-18:30; Sa 08:30-16:00', 'phone': '+49 7745 7008', 'website': 'https://www.klosterapo-jestetten.de/'}}"
"{'type': 'node', 'id': 344334609, 'lat': 47.6534885, 'lon': 8.5757768, 'tags': {'addr:city': 'Jestetten', 'addr:housenumber': '33', 'addr:postcode': '79798', 'addr:street': 'Schaffhauser Straße', 'amenity': 'dentist', 'email': 'praxis@jestetten-zahnarzt.de', 'healthcare': 'dentist', 'name': 'Zahnarzt Dr. Oliver Hamm', 'phone': '+49 7745 411', 'website': 'http://www.doc-oliday.de'}}"
"{'type': 'node', 'id': 345318747, 'lat': 47.9162172, 'lon': 9.762232, 'tags': {'amenity': 'hospital', 'name': 'Kurklinik Mayenbad'}}"
"{'type': 'node', 'id': 345318752, 'lat': 47.9149929, 'lon': 9.762499, 'tags': {'amenity': 'hospital', 'name': 'Kurklinik Elisabethenbad'}}"
"{'type': 'node', 'id': 352860118, 'lat': 47.3612909, 'lon': 8.517625, 'tags': {'addr:city': 'Zürich', 'addr:country': 'CH', 'addr:housenumber': '107', 'addr:postcode': '8045', 'addr:street': 'Uetlibergstrasse', 'amenity': 'pharmacy', 'brand': 'Fortis', 'fixme': 'I think it has moved or does not exist anymore', 'healthcare': 'pharmacy', 'name': 'Laubegg Apotheke', 'opening_hours': 'Mo-Fr 08:00-18:30; Sa 08:00-12:30', 'website': 'https://www.laubeggapotheke.ch/'}}"
"{'type': 'node', 'id': 352995446, 'lat': 47.4996552, 'lon': 8.7256243, 'tags': {'addr:city': 'Winterthur', 'addr:country': 'CH', 'addr:housenumber': '131', 'addr:postcode': '8400', 'addr:street': 'Stadthausstrasse', 'alt_name': 'Topwell Apotheke Altstadt', 'amenity': 'pharmacy', 'branch': 'Winterthur Altstadt', 'brand': 'Medbase', 'brand:wikidata': 'Q50038690', 'check_date:opening_hours': '2024-02-24', 'dispensing': 'yes', 'healthcare': 'pharmacy', 'name': 'Medbase Apotheke Altstadt', 'old_name': 'Altstadt Apotheke', 'opening_hours': 'Mo-Fr 08:00-18:30; Sa 08:00-17:00', 'operator': 'Medbase Apotheken', 'website': 'https://www.topwell.ch/medbaseapothekewinterthuraltstad/', 'wheelchair': 'yes'}}"
"{'type': 'node', 'id': 354489329, 'lat': 47.357419, 'lon': 8.7120427, 'tags': {'amenity': 'pharmacy', 'email': 'rm@apotheke-uster.ch', 'healthcare': 'pharmacy', 'name': 'Schloss', 'opening_hours': 'Mo-Fr 09:00-12:30; Sa 09:00-15:00', 'phone': '+41 43 444 25 00', 'website': 'https://www.apotheke-uster.ch/'}}"
"{'type': 'node', 'id': 354494336, 'lat': 47.3500042, 'lon': 8.7154192, 'tags': {'addr:city': 'Uster', 'addr:housenumber': '20', 'addr:postcode': '8610', 'addr:street': 'Zürichstrasse', 'alt_name': 'DROPA Drogerie Apotheke Illuster', 'amenity': 'pharmacy', 'branch': 'Uster Illuster', 'brand': 'DROPA', 'brand:wikidata': 'Q1260273', 'healthcare': 'pharmacy', 'name': 'Dropa Illuster', 'opening_hours': 'Mo-Sa 08:30-20:00', 'operator': 'Dr. Bähler Dropa', 'shop': 'chemist', 'website': 'https://dropa.ch/standorte/dropa-drogerie-apotheke-illuster', 'wheelchair': 'yes'}}"
"{'type': 'node', 'id': 356681393, 'lat': 47.0326529, 'lon': 8.6277023, 'tags': {'addr:city': 'Seewen', 'addr:housenumber': '7', 'addr:postcode': '6423', 'addr:street': 'Steinbislin', 'alt_name': 'Coop Vitality Seewen', 'amenity': 'pharmacy', 'branch': 'Seewen Markt', 'brand': 'Coop Vitality', 'brand:wikidata': 'Q111725297', 'dispensing': 'yes', 'healthcare': 'pharmacy', 'level': '0', 'name': 'Coop Vitality', 'operator': 'Coop Vitality & GaleniCare', 'website': 'https://www.coopvitality.ch/de/coop-vitality-seewen'}}"
"{'type': 'node', 'id': 357296038, 'lat': 47.6613504, 'lon': 9.1739124, 'tags': {'addr:city': 'Konstanz', 'addr:country': 'DE', 'addr:housenumber': '11', 'addr:postcode': '78462', 'addr:street': 'Wessenbergstraße', 'amenity': 'pharmacy', 'healthcare': 'pharmacy', 'name': 'St. Pelagius Apotheke', 'opening_hours': 'Mo-Fr 08:30-18:30; Sa 09:00-17:00', 'wheelchair': 'yes'}}"
"{'type': 'node', 'id': 358385597, 'lat': 48.1140645, 'lon': 9.5334656, 'tags': {'amenity': 'pharmacy', 'dispensing': 'yes', 'name': 'Kanzach-Apotheke'}}"
"{'type': 'node', 'id': 360790982, 'lat': 47.6517017, 'lon': 9.4799302, 'tags': {'addr:city': 'Friedrichshafen', 'addr:country': 'DE', 'addr:housenumber': '44', 'addr:postcode': '88045', 'addr:street': 'Friedrichstraße', 'amenity': 'pharmacy', 'dispensing': 'yes', 'healthcare': 'pharmacy', 'name': 'Bären-Apotheke', 'opening_hours': 'Mo,Tu,Th,Fr 08:30-18:15; We 08:30-18:00; Sa 08:30-14:00', 'phone': '+49 7541 227 34', 'website': 'https://www.apobaer.de/de/apotheke/baerenapotheke-fn.php', 'wheelchair': 'limited'}}"
"{'type': 'node', 'id': 364115554, 'lat': 47.808116, 'lon': 9.6407432, 'tags': {'addr:city': 'Weingarten', 'addr:housenumber': '5', 'addr:postcode': '88250', 'addr:street': 'Zeppelinstraße', 'amenity': 'pharmacy', 'check_date:opening_hours': '2024-03-05', 'contact:email': 'altdorf-apotheke@t-online.de', 'contact:fax': '+49 751 51593', 'contact:phone': '+49 751 43799', 'contact:website': 'http://www.altdorf-apotheke-weingarten.de/', 'dispensing': 'yes', 'healthcare': 'pharmacy', 'name': 'Altdorf-Apotheke', 'opening_hours': 'Mo-Fr 08:00-18:30; Sa 08:30-13:00', 'operator': 'Silke Rieser', 'wheelchair': 'yes'}}"
"{'type': 'node', 'id': 365010938, 'lat': 47.6335113, 'lon': 9.5392375, 'tags': {'amenity': 'pharmacy', 'dispensing': 'yes', 'name': 'Marien-Apotheke', 'wheelchair': 'yes'}}"
"{'type': 'node', 'id': 366704313, 'lat': 47.6886928, 'lon': 9.4901623, 'tags': {'addr:city': 'Friedrichshafen', 'addr:country': 'DE', 'addr:housenumber': '2', 'addr:postcode': '88048', 'addr:street': 'Heiliggasse', 'amenity': 'pharmacy', 'contact:email': 'marien-apo.fn@t-online.de', 'contact:fax': '+49 7541 57015', 'contact:phone': '+49 7541 530 87', 'contact:website': 'http://www.marien-apotheke-friedrichshafen.de/', 'dispensing': 'yes', 'healthcare': 'pharmacy', 'name': 'Marien Apotheke', 'opening_hours': 'Mo-Sa 08:30-12:30, Mo-Fr 14:00-18:00; Su,PH off', 'operator': 'Ulrike Epple', 'wheelchair': 'yes'}}"
"{'type': 'node', 'id': 366906163, 'lat': 47.6734788, 'lon': 9.590927, 'tags': {'addr:city': 'Tettnang', 'addr:country': 'DE', 'addr:housenumber': '18', 'addr:postcode': '88069', 'addr:street': 'Bahnhofstraße', 'amenity': 'pharmacy', 'dispensing': 'yes', 'email': 'info@apobaer.de', 'healthcare': 'pharmacy', 'name': 'Bären Apotheke', 'opening_hours': 'Mo-Fr 08:00-19:00; Sa 08:00-13:00', 'phone': '+49 7542 53930', 'website': 'https://apobaer.de/baeren-apotheke-tettnang/', 'wheelchair': 'limited'}}"
"{'type': 'node', 'id': 366912780, 'lat': 47.6698949, 'lon': 9.5881289, 'tags': {'addr:city': 'Tettnang', 'addr:country': 'DE', 'addr:housenumber': '14', 'addr:postcode': '88069', 'addr:street': 'Karlstraße', 'amenity': 'pharmacy', 'dispensing': 'yes', 'email': 'info@schloss-apotheke-tettnang.de', 'healthcare': 'pharmacy', 'name': 'Schloss Apotheke', 'opening_hours': 'Mo, Tu, Th, Fr 08:00-18:30; We 08:00-18:00; Sa 08:00-13:00', 'operator': 'Miriam Eberhardt', 'phone': '+497542 93750', 'website': 'https://www.schloss-apotheke-tettnang.de/', 'wheelchair': 'yes'}}"
"{'type': 'node', 'id': 366914724, 'lat': 47.6712681, 'lon': 9.5901481, 'tags': {'addr:city': 'Tettnang', 'addr:country': 'DE', 'addr:housenumber': '1', 'addr:postcode': '88069', 'addr:street': 'Lindauer Straße', 'amenity': 'pharmacy', 'contact:email': 'info@stadtapotheke-tettnang.de', 'contact:fax': '+49 7542 937070', 'contact:phone': '+497542 93700', 'contact:website': 'https://www.stadtapotheke-tettnang.de/', 'dispensing': 'yes', 'healthcare': 'pharmacy', 'name': 'Stadt-Apotheke', 'opening_hours': 'Mo-Fr 08:00-18:30, Sa 08:00-12:30, PH off', 'operator': 'Christiane Abshagen', 'wheelchair': 'limited'}}"
"{'type': 'node', 'id': 366978003, 'lat': 47.3888698, 'lon': 8.5221046, 'tags': {'amenity': 'dentist', 'check_date': '2024-08-14', 'healthcare': 'centre', 'level': '7', 'name': 'Swiss Dental Center', 'opening_hours': 'Mo-Th 08:00-18:00; Fr 08:00-17:00', 'website': 'https://swissdentalcenter.ch/'}}"
"{'type': 'node', 'id': 367042176, 'lat': 47.7645241, 'lon': 8.7806716, 'tags': {'addr:city': 'Hilzingen', 'addr:country': 'DE', 'addr:housenumber': '61', 'addr:postcode': '78247', 'addr:street': 'Hauptstraße', 'amenity': 'pharmacy', 'healthcare': 'pharmacy', 'name': 'Hilzinger Marien Apotheke', 'opening_hours': 'Mo-Fr 08:30-12:30, Mo,Tu,Th,Fr 14:30-18:00', 'wheelchair': 'yes'}}"
"{'type': 'node', 'id': 370588821, 'lat': 47.3516449, 'lon': 8.7164275, 'tags': {'addr:city': 'Uster', 'addr:housenumber': '10', 'addr:postcode': '8610', 'addr:street': 'Bankstrasse', 'alt_name': 'Topwell Apotheke Bahnhof Uster', 'amenity': 'pharmacy', 'branch': 'Uster', 'brand': 'Medbase', 'brand:wikidata': 'Q50038690', 'healthcare': 'pharmacy', 'name': 'Medbase Apotheke Uster', 'opening_hours': 'Mo-Fr 08:00-19:00; Sa,Su,PH 08:00-18:00', 'operator': 'Medbase Apotheken', 'phone': '+41 44 905 19 00', 'website': 'https://www.topwell.ch/medbaseapothekeuster/', 'wheelchair': 'yes'}}"
"{'type': 'node', 'id': 378068695, 'lat': 47.7245606, 'lon': 9.4667246, 'tags': {'amenity': 'pharmacy', 'dispensing': 'yes', 'healthcare': 'pharmacy', 'name': 'Rotach-Apotheke', 'wheelchair': 'yes'}}"
"{'type': 'node', 'id': 379714379, 'lat': 47.3438585, 'lon': 8.5298166, 'tags': {'addr:city': 'Zürich', 'addr:country': 'CH', 'addr:housenumber': '44', 'addr:postcode': '8038', 'addr:street': 'Albisstrasse', 'amenity': 'pharmacy', 'branch': 'Zürich Wollishofen', 'brand': 'TopPharm', 'brand:wikidata': 'Q110277794', 'check_date': '2024-07-19', 'check_date:opening_hours': '2022-10-11', 'dispensing': 'yes', 'healthcare': 'pharmacy', 'name': 'TopPharm', 'opening_hours': 'Mo-Fr 08:00-19:00, Sa 08:00-17:00', 'operator': 'TopPharm Genossenschaft', 'website': 'https://www.apotheke.ch/morgental', 'wheelchair': 'yes'}}"
"{'type': 'node', 'id': 383931325, 'lat': 47.2401197, 'lon': 8.7213055, 'tags': {'amenity': 'doctors', 'healthcare': 'doctor'}}"
"{'type': 'node', 'id': 388398427, 'lat': 47.2409273, 'lon': 8.7226189, 'tags': {'addr:city': 'Stäfa', 'addr:housenumber': '18', 'addr:postcode': '8712', 'addr:street': 'Bahnhofwiese', 'amenity': 'pharmacy', 'branch': 'Stäfa', 'brand': 'TopPharm', 'healthcare': 'pharmacy', 'name': 'TopPharm Kranich Apotheke', 'operator': 'TopPharm Genossenschaft', 'website': 'https://www.apotheke.ch/kranich'}}"
"{'type': 'node', 'id': 388398434, 'lat': 47.2408739, 'lon': 8.7239364, 'tags': {'addr:city': 'Stäfa', 'addr:housenumber': '18-20', 'addr:postcode': '8712', 'addr:street': 'Goethestrasse', 'alt_name': 'DROPA Drogerie Apotheke Stäfa', 'amenity': 'pharmacy', 'branch': 'Stäfa', 'brand': 'DROPA', 'brand:wikidata': 'Q1260273', 'dispensing': 'yes', 'healthcare': 'pharmacy', 'name': 'Dropa Stäfa', 'old_name': 'Drogerie Hofstetter', 'operator': 'Dr. Bähler Dropa', 'shop': 'chemist', 'website': 'https://dropa.ch/standorte/dropa-drogerie-apotheke-staefa'}}"
"{'type': 'node', 'id': 388414175, 'lat': 47.2407689, 'lon': 8.7241289, 'tags': {'addr:city': 'Stäfa', 'addr:country': 'CH', 'addr:housenumber': '24', 'addr:postcode': '8712', 'addr:street': 'Goethestrasse', 'amenity': 'doctors', 'healthcare': 'doctor', 'name': 'Mr. Dr.med. Markus Schreen', 'website': 'https://drmed.ch.tiberius.sui-inter.net/homepage/511/index.html'}}"
"{'type': 'node', 'id': 392100321, 'lat': 47.7452904, 'lon': 8.8437139, 'tags': {'amenity': 'pharmacy', 'contact:city': 'Singen (Hohentwiel)', 'contact:country': 'DE', 'contact:housenumber': '172', 'contact:phone': '+49 7731 21370', 'contact:postcode': '78224', 'contact:street': 'Rielasinger Straße', 'contact:website': 'https://www.marien-apotheke-singen.de/', 'drive_through': 'no', 'fax': '+49 7731 919536', 'healthcare': 'pharmacy', 'name': 'Marienapotheke', 'opening_hours': 'Mo-Fr 08:00-18:00; Sa 08:30-12:30', 'operator': 'Eckhard Fegert', 'wheelchair': 'limited'}}"
"{'type': 'node', 'id': 393982230, 'lat': 47.1716494, 'lon': 8.5152952, 'tags': {'addr:city': 'Zug', 'addr:housenumber': '10', 'addr:place': 'Bundesplatz', 'addr:postcode': '6300', 'amenity': 'pharmacy', 'branch': 'Zug', 'brand': 'Amavita', 'brand:wikidata': 'Q93733901', 'healthcare': 'pharmacy', 'name': 'Amavita', 'opening_hours': 'Mo-We,Fr 08:00-18:30; Th 08:00-19:00; Sa 09:00-17:00', 'operator': 'GaleniCare', 'website': 'https://www.amavita.ch/de/amavita-apotheke-zug', 'wheelchair': 'yes'}}"
"{'type': 'node', 'id': 415400006, 'lat': 47.4196446, 'lon': 8.548453, 'tags': {'addr:city': 'Zürich', 'addr:country': 'CH', 'addr:housenumber': '480', 'addr:postcode': '8052', 'addr:street': 'Schaffhauserstrasse', 'amenity': 'pharmacy', 'brand': 'Rotpunkt Apotheke', 'check_date': '2024-04-20', 'level': '0', 'name': 'Gesundhaus Falken Apotheke', 'opening_hours': 'Mo-Sa 08:00-20:00', 'operator': 'Rotpunkt Pharma', 'phone': '+41 44 308 80 10', 'website': 'https://www.gesundhaus.ch/', 'wheelchair': 'yes'}}"
"{'type': 'node', 'id': 415628215, 'lat': 48.0622609, 'lon': 8.5327626, 'tags': {'addr:city': 'Villingen-Schwenningen', 'addr:country': 'DE', 'addr:housenumber': '55', 'addr:postcode': '78054', 'addr:street': 'In der Muslen', 'addr:suburb': 'Schwenningen', 'amenity': 'pharmacy', 'dispensing': 'yes', 'drive_through': 'no', 'healthcare': 'pharmacy', 'name': 'Schwanen Apotheke', 'opening_hours': 'Mo-Fr 08:00-19:30; Sa 08:00-16:00; PH off', 'payment:cash': 'yes', 'payment:cryptocurrencies': 'no', 'wheelchair': 'yes'}}"
"{'type': 'node', 'id': 415667881, 'lat': 47.6726088, 'lon': 9.1831968, 'tags': {'addr:city': 'Konstanz', 'addr:country': 'DE', 'addr:housenumber': '9', 'addr:postcode': '78464', 'addr:street': 'Zähringerplatz', 'amenity': 'pharmacy', 'contact:phone': '+49 7531 55672', 'contact:website': 'http://www.apotheke-seerheincenter.de/', 'healthcare': 'pharmacy', 'level': '1', 'name': 'Apotheke im Seerhein-Center Konstanz', 'opening_hours': 'Mo-Fr 07:45-20:00;Sa 08:30-19:00', 'operator': 'Begüm Baskur', 'wheelchair': 'yes'}}"
"{'type': 'node', 'id': 415719038, 'lat': 47.4214731, 'lon': 8.550288, 'tags': {'addr:city': 'Zürich', 'addr:country': 'CH', 'addr:housenumber': '502', 'addr:postcode': '8052', 'addr:street': 'Schaffhauserstrasse', 'amenity': 'pharmacy', 'check_date': '2024-01-31', 'name': 'Landhus Apotheke', 'opening_hours': 'Mo-Fr 08:00-18:30; Sa 08:00-17:00', 'operator': 'Eidg. dpl. Apothekerin D. Zokouri-Hoessly', 'website': 'https://www.landhus-apotheke.ch/'}}"
"{'type': 'node', 'id': 416527573, 'lat': 48.289599, 'lon': 9.1135118, 'tags': {'addr:city': 'Burladingen', 'addr:housenumber': '8', 'addr:postcode': '72393', 'addr:street': 'Rathausplatz', 'amenity': 'pharmacy', 'dispensing': 'yes', 'drive_through': 'no', 'healthcare': 'pharmacy', 'name': 'Elisapeth Apotheke'}}"
"{'type': 'node', 'id': 416974138, 'lat': 47.7304467, 'lon': 9.3495781, 'tags': {'addr:city': 'Bermatingen', 'addr:country': 'DE', 'addr:housename': 'Rosenhof', 'addr:housenumber': '3', 'addr:postcode': '88697', 'addr:street': 'Salemer Straße', 'amenity': 'pharmacy', 'check_date': '2024-11-10', 'check_date:opening_hours': '2024-11-10', 'dispensing': 'yes', 'drive_through': 'no', 'email': 'apotheke-im-rosenhof@t-online.de', 'healthcare': 'pharmacy', 'name': 'Apotheke im Rosenhof', 'opening_hours': 'Mo-Fr 08:00-12:30,14:30-18:30; We,Sa 08:00-12:30; Su,PH off', 'payment:cards': 'yes', 'payment:cash': 'yes', 'payment:qr_code': 'no', 'phone': '+49 7544 91151', 'website': 'https://www.apotheke-im-rosenhof-bermatingen.de', 'wheelchair': 'yes'}}"
"{'type': 'node', 'id': 416974147, 'lat': 47.7301743, 'lon': 9.3498268, 'tags': {'amenity': 'dentist', 'check_date': '2024-11-16', 'email': 'praxis@dr-stroebele.de', 'healthcare': 'dentist', 'name': 'Dr. Ströbele', 'opening_hours': 'Mo-Fr 09:00-11:00; Fr 15:00-17:30', 'phone': '+49 75443704', 'website': 'http://www.dr-stroebele.de', 'wheelchair': 'no'}}"
"{'type': 'node', 'id': 416974151, 'lat': 47.7302729, 'lon': 9.3504066, 'tags': {'amenity': 'doctors', 'check_date': '2024-11-12', 'email': 'info@dr-renz.de', 'healthcare': 'doctor', 'healthcare:speciality': 'paediatrics', 'name': 'Dr. Renz', 'opening_hours': 'Mo 08:00-12:00,15:00-18:00; Tu 08:00-12:00,15:30-18:30; We 08:30-12:00,15:30-18:00; Th 08:00-12:00; Fr 08:00-12:00,15:00-17:00', 'phone': '+49 7544 2388', 'website': 'http://www.dr-renz.de', 'wheelchair': 'no'}}"
"{'type': 'node', 'id': 417162565, 'lat': 47.1656693, 'lon': 8.5151189, 'tags': {'addr:city': 'Zug', 'addr:housenumber': '16', 'addr:postcode': '6300', 'addr:street': 'Grabenstrasse', 'amenity': 'pharmacy', 'branch': 'Zug Kolin-Apotheke', 'brand': 'TopPharm', 'brand:wikidata': 'Q110277794', 'healthcare': 'pharmacy', 'name': 'TopPharm', 'opening_hours': 'Mo 09:00-12:15,13:30-18:30; Tu-Fr 08:00-12:15,13:30-18:30; Sa 08:00-16:00; week 28-33 Mo 09:00-12:15,14:00-18:30; week 28-33 Tu-Fr 08:00-12:15,14:00-18:30; PH off', 'operator': 'TopPharm Genossenschaft', 'website': 'https://www.apotheke.ch/kolin', 'wheelchair': 'no'}}"
"{'type': 'node', 'id': 419255981, 'lat': 47.4155645, 'lon': 9.6341348, 'tags': {'amenity': 'doctors', 'healthcare': 'doctor', 'name': 'Dr. Vetsch FMH'}}"
"{'type': 'node', 'id': 420286038, 'lat': 48.074482, 'lon': 8.6331219, 'tags': {'amenity': 'pharmacy', 'healthcare': 'pharmacy', 'name': 'Bahnhof Apotheke', 'opening_hours': 'Mo-Fr 08:00-12:30,14:00-18:30; Sa 08:30-12:30', 'wheelchair': 'limited'}}"
"{'type': 'node', 'id': 425556435, 'lat': 48.2946904, 'lon': 8.5584083, 'tags': {'addr:city': 'Oberndorf am Neckar', 'addr:country': 'DE', 'addr:housenumber': '4', 'addr:postcode': '78727', 'addr:street': 'Mörikeweg', 'addr:suburb': 'Lindenhof', 'amenity': 'pharmacy', 'contact:email': 'post@lindenhofapotheke.de', 'contact:fax': '+49 7423 8752913', 'contact:phone': '+49 7423 5770', 'contact:website': 'https://www.lindenhof-apotheke-oberndorf.de', 'dispensing': 'yes', 'healthcare': 'pharmacy', 'name': 'Lindenhof-Apotheke', 'opening_hours': 'Mo-Fr 08:30-12:30,14:30-18:30; Sa 08:30-12:30; PH off', 'operator': 'Sabine Waidmann', 'wheelchair': 'limited'}}"
"{'type': 'node', 'id': 425604850, 'lat': 47.685511, 'lon': 9.1492391, 'tags': {'healthcare': 'physiotherapist', 'name': 'Karin Blust'}}"
"{'type': 'node', 'id': 425919574, 'lat': 47.6877208, 'lon': 9.1482411, 'tags': {'addr:city': 'Konstanz', 'addr:country': 'DE', 'addr:housenumber': '2', 'addr:postcode': '78467', 'addr:street': 'Riedstraße', 'addr:suburb': 'Wollmatingen', 'amenity': 'pharmacy', 'contact:email': 'info@rosgarten-apotheke.de', 'contact:fax': '+49 7531 12829941', 'contact:phone': '+49 7531 12829940', 'contact:website': 'http://www.rosgarten-apotheke.de', 'dispensing': 'yes', 'healthcare': 'pharmacy', 'name': 'Rosgarten Apotheke', 'opening_hours': 'Sa 08:30-18:00; PH off; Mo-Fr 08:30-20:00', 'operator': 'Hastreiter & Albrecht OHG', 'wheelchair': 'yes'}}"
"{'type': 'node', 'id': 427907206, 'lat': 47.7652202, 'lon': 9.597885, 'tags': {'addr:city': 'Ravensburg', 'addr:housenumber': '1', 'addr:postcode': '88214', 'addr:street': 'Weingartshofer Straße', 'amenity': 'pharmacy', 'healthcare': 'pharmacy', 'name': 'St. Georg Apotheke', 'opening_hours': 'Mo,Tu,Th,Fr 10:00-12:00,15:00-18:00; We 10:00-12:00'}}"
"{'type': 'node', 'id': 429601423, 'lat': 47.2898824, 'lon': 9.6558665, 'tags': {'addr:city': 'Röthis', 'addr:country': 'AT', 'addr:housenumber': '26', 'addr:postcode': '6832', 'addr:street': 'Rautenastraße', 'healthcare': 'psychotherapist', 'website': 'https://www.johnludescher.com/'}}"
"{'type': 'node', 'id': 429886917, 'lat': 47.9862866, 'lon': 8.5867164, 'tags': {'addr:city': 'Bad Dürrheim', 'addr:country': 'DE', 'addr:housenumber': '6', 'addr:postcode': '78073', 'addr:street': 'Brunnenstraße', 'addr:suburb': 'Biesingen', 'amenity': 'doctors', 'healthcare': 'doctor', 'name': 'Franz von Grafenstein', 'wheelchair': 'limited'}}"
"{'type': 'node', 'id': 432629009, 'lat': 47.3125693, 'lon': 8.5246397, 'tags': {'addr:city': 'Adliswil', 'addr:housenumber': '4', 'addr:postcode': '8134', 'addr:street': 'Bahnhofplatz', 'amenity': 'pharmacy', 'branch': 'Adliswil', 'brand': 'Pill Apotheke', 'check_date:opening_hours': '2024-03-15', 'healthcare': 'pharmacy', 'name': 'Pill Apotheke Sihltal', 'opening_hours': 'Mo-Fr 08:00-18:30; Sa 08:00-16:00', 'operator': 'Pill Group', 'phone': '+41 44 710 01 01', 'website': 'https://www.pill.ch/standorte/pill-apotheke-sihltal.html'}}"
"{'type': 'node', 'id': 434478707, 'lat': 48.1289004, 'lon': 8.7078655, 'tags': {'addr:city': 'Frittlingen', 'addr:country': 'DE', 'addr:housenumber': '77', 'addr:postcode': '78665', 'addr:street': 'Hauptstraße', 'amenity': 'pharmacy', 'dispensing': 'yes', 'healthcare': 'pharmacy', 'name': 'Olga Apotheke', 'source:addr': 'LGL, www.lgl-bw.de'}}"
"{'type': 'node', 'id': 440373811, 'lat': 47.6601653, 'lon': 9.1750022, 'tags': {'addr:city': 'Konstanz', 'addr:country': 'DE', 'addr:housenumber': '19', 'addr:postcode': '78462', 'addr:street': 'Marktstätte', 'amenity': 'pharmacy', 'check_date': '2024-09-06', 'dispensing': 'yes', 'fax': '+49 7531 21247', 'healthcare': 'pharmacy', 'name': 'Seeapotheke', 'opening_hours': 'Mo-Fr 08:30-18:30; Sa 09:30-17:30', 'phone': '+49 7531 22023', 'website': 'https://seeapotheke-konstanz.de/', 'wheelchair': 'yes'}}"
"{'type': 'node', 'id': 441986102, 'lat': 47.6596296, 'lon': 8.8593281, 'tags': {'addr:city': 'Stein am Rhein', 'addr:country': 'CH', 'addr:housenumber': '8', 'addr:postcode': '8260', 'addr:street': 'Rathausplatz', 'amenity': 'pharmacy', 'dispensing': 'yes', 'healthcare': 'pharmacy', 'name': 'Zum Mohrenkönig', 'phone': '+41 52 741 21 33', 'website': 'https://www.rotpunkt-apotheken.ch/apotheken/apotheke-stein-am-rhein', 'wheelchair': 'no'}}"
"{'type': 'node', 'id': 442155900, 'lat': 48.2916357, 'lon': 8.5708095, 'tags': {'addr:city': 'Oberndorf am Neckar', 'addr:country': 'DE', 'addr:housenumber': '10', 'addr:postcode': '78727', 'addr:street': 'Hauptstraße', 'amenity': 'pharmacy', 'contact:email': 'info@die-apotheke-am-alten-rathaus.de', 'contact:fax': '+49 7423 868919', 'contact:phone': '+49 7423 86890', 'contact:website': 'https://www.die-apotheke-am-alten-rathaus.de', 'dispensing': 'yes', 'healthcare': 'pharmacy', 'name': 'Am alten Rathaus', 'opening_hours': 'Mo-Fr 08:00-13:00, 14:30-18:30; Sa 08:30-12:30; PH off'}}"
"{'type': 'node', 'id': 442155901, 'lat': 48.2909955, 'lon': 8.5711626, 'tags': {'addr:city': 'Oberndorf am Neckar', 'addr:country': 'DE', 'addr:housenumber': '4', 'addr:postcode': '78727', 'addr:street': 'Kirchtorstraße', 'amenity': 'pharmacy', 'contact:email': 'kontakt@kronen-apo-oberndorf.de', 'contact:fax': '+49 7423 82902', 'contact:phone': '+49 7423 2828', 'contact:website': 'http://www.kronen-apo-oberndorf.de', 'dispensing': 'yes', 'healthcare': 'pharmacy', 'name': 'Kronen-Apotheke', 'opening_hours': 'Mo-Tu 08:00-12:30, 14:30-18:30; We 08:00-12:30, 14:30-17:30; Th-Fr 08:00-12:30, 14:30-18:30; Sa 09:00-12:00; PH off', 'wheelchair': 'limited'}}"
"{'type': 'node', 'id': 443662303, 'lat': 47.3660923, 'lon': 8.5482317, 'tags': {'addr:city': 'Zürich', 'addr:country': 'CH', 'addr:housenumber': '22', 'addr:postcode': '8001', 'addr:street': 'Goethestrasse', 'amenity': 'pharmacy', 'brand': 'Rotpunkt Apotheke', 'brand:wikidata': 'Q111683777', 'dispensing': 'yes', 'drive_through': 'no', 'healthcare': 'pharmacy', 'name': 'Dr. Andres Apotheke Stadelhofen', 'opening_hours': 'Mo-Fr 07:15-19:00; Sa 09:00-18:00', 'operator': 'Rotpunkt Pharma', 'phone': '+41 44 268 30 00', 'website': 'https://www.apothekestadelhofen.ch/', 'wheelchair': 'no'}}"
"{'type': 'node', 'id': 443662304, 'lat': 47.3659878, 'lon': 8.5485376, 'tags': {'addr:city': 'Zürich', 'addr:country': 'CH', 'addr:postcode': '8001', 'amenity': 'pharmacy', 'brand': 'Rotpunkt Apotheke', 'brand:wikidata': 'Q111683777', 'healthcare': 'pharmacy', 'name': 'Dr. Andres Apotheke Stadelhofen', 'opening_hours': 'Mo-Fr 07:15-19:00; Sa 08:15-17:00', 'operator': 'Rotpunkt Pharma', 'website': 'https://www.apothekestadelhofen.ch/', 'wheelchair': 'no'}}"
"{'type': 'node', 'id': 444627832, 'lat': 47.2532533, 'lon': 8.6895271, 'tags': {'addr:city': 'Männedorf', 'addr:housenumber': '206', 'addr:postcode': '8708', 'addr:street': 'Seestrasse', 'amenity': 'pharmacy', 'branch': 'Männedorf', 'brand': 'TopPharm', 'brand:wikidata': 'Q110277794', 'healthcare': 'pharmacy', 'name': 'TopPharm', 'opening_hours': 'Mo-Fr 07:45-18:30; Sa 08:00-16:00; PH,Su 10:00-12:00', 'operator': 'TopPharm Genossenschaft', 'website': 'https://www.apotheke.ch/see-maennedorf', 'wheelchair': 'yes'}}"
"{'type': 'node', 'id': 445356563, 'lat': 47.4262283, 'lon': 9.3752022, 'tags': {'amenity': 'pharmacy', 'name': 'Löwen', 'opening_hours': 'Mo-Fr 08:00-18:30; Sa 08:00-17:00', 'wheelchair': 'limited'}}"
"{'type': 'node', 'id': 445423054, 'lat': 47.4237483, 'lon': 9.3705323, 'tags': {'amenity': 'pharmacy', 'dispensing': 'yes', 'drive_through': 'no', 'healthcare': 'pharmacy', 'name': 'Rathaus Apotheke St. Gallen', 'opening_hours': 'Mo-Fr 07:00-21:00; Sa 09:00-20:00; Su, PH 10:00-20:00', 'phone': '+41 71 223 31 33', 'website': 'http://www.rathausapotheke.ch', 'wheelchair': 'yes', 'wheelchair:description': 'automatische Türe'}}"
"{'type': 'node', 'id': 445477485, 'lat': 47.4231537, 'lon': 9.3740925, 'tags': {'amenity': 'pharmacy', 'name': 'Gallus-Apotheke'}}"
"{'type': 'node', 'id': 446784541, 'lat': 47.3839118, 'lon': 8.5323405, 'tags': {'addr:city': 'Zürich', 'addr:country': 'CH', 'addr:housenumber': '119', 'addr:postcode': '8005', 'addr:street': 'Limmatstrasse', 'amenity': 'pharmacy', 'branch': 'Zürich Industrie', 'brand': 'TopPharm', 'brand:wikidata': 'Q110277794', 'check_date': '2024-08-09', 'healthcare': 'pharmacy', 'name': 'TopPharm', 'opening_hours': 'Mo-Fr 07:30-19:00; Sa 07:30-17:00', 'operator': 'TopPharm Genossenschaft', 'website': 'https://www.apotheke.ch/limmatplatz', 'wheelchair': 'no'}}"
"{'type': 'node', 'id': 448946469, 'lat': 48.1842521, 'lon': 8.9665522, 'tags': {'addr:city': 'Meßstetten', 'addr:country': 'DE', 'addr:housenumber': '82', 'addr:postcode': '72469', 'addr:street': 'Ebinger Straße', 'amenity': 'dentist', 'healthcare': 'dentist', 'name': 'Dr. Egouli', 'phone': '+49 7431 61818'}}"
"{'type': 'node', 'id': 449321840, 'lat': 47.7379188, 'lon': 8.969367, 'tags': {'addr:city': 'Radolfzell am Bodensee', 'addr:housenumber': '2', 'addr:postcode': '78315', 'addr:street': 'Schützenstraße', 'amenity': 'pharmacy', 'healthcare': 'pharmacy', 'name': 'Ratoldusapotheke', 'opening_hours': 'Mo,Tu,Th,Fr 08:30-18:30; We 08:00-18:30; Sa 08:00-13:00', 'phone': '+49 7732 4033', 'toilets:wheelchair': 'no', 'website': 'http://www.ratoldus-apotheke.de/', 'wheelchair': 'yes'}}"
"{'type': 'node', 'id': 465284110, 'lat': 47.3863905, 'lon': 8.5295503, 'tags': {'addr:city': 'Zürich', 'addr:country': 'CH', 'addr:housenumber': '180', 'addr:postcode': '8005', 'addr:street': 'Limmatstrasse', 'alt_name': 'Topwell Apotheke Industrie', 'amenity': 'pharmacy', 'branch': 'Zürich Industrie', 'brand': 'Medbase', 'brand:wikidata': 'Q50038690', 'check_date:opening_hours': '2022-10-10', 'name': 'Medbase Apotheke Industrie', 'old_name': 'Industrie Apotheke', 'opening_hours': 'Mo-Fr 08:00-18:30; Sa 08:30-17:00', 'operator': 'Medbase Apotheken', 'website': 'https://www.topwell.ch/medbaseapothekezuerichindustrie/', 'wheelchair': 'yes'}}"
"{'type': 'node', 'id': 471042102, 'lat': 47.4282784, 'lon': 8.6853362, 'tags': {'addr:housenumber': '5', 'addr:postcode': '8307', 'addr:street': 'Märtplatz', 'alt_name': 'BENU Apotheke Effi-Märt', 'amenity': 'pharmacy', 'branch': 'Effretikon', 'brand': 'Benu', 'brand:wikidata': 'Q62562792', 'check_date': '2023-10-30', 'check_date:opening_hours': '2022-09-01', 'healthcare': 'pharmacy', 'level': '0', 'name': 'Benu', 'opening_hours': 'Mo-Fr 08:30-19:00, Sa 08:30-17:00; PH off', 'operator': 'BENU Pharmacies', 'website': 'https://www.benu.ch/de/pharmacies/effi-maert/', 'wheelchair': 'yes'}}"
"{'type': 'node', 'id': 472429063, 'lat': 47.7182774, 'lon': 9.3889843, 'tags': {'addr:city': 'Markdorf', 'addr:country': 'DE', 'addr:housenumber': '18', 'addr:postcode': '88677', 'addr:street': 'Bahnhofstraße', 'amenity': 'pharmacy', 'check_date': '2024-12-22', 'check_date:opening_hours': '2024-10-05', 'email': 'B@renapotheke.de', 'fax': '+49 7544 5155', 'healthcare': 'pharmacy', 'name': 'Bären Apotheke', 'opening_hours': 'Mo-Fr 08:00-13:00,14:30-18:30; Sa 08:30-14:00', 'operator': 'Matthias Maunz', 'payment:account_cards': 'yes', 'payment:cash': 'yes', 'payment:girocard': 'yes', 'payment:maestro': 'yes', 'phone': '+49 7544 8400', 'website': 'https://www.baeren-apotheke-markdorf.de', 'wheelchair': 'yes'}}"
"{'type': 'node', 'id': 474737998, 'lat': 48.2087164, 'lon': 8.7589703, 'tags': {'amenity': 'pharmacy', 'healthcare': 'pharmacy', 'name': 'Stadtapotheke Schömberg'}}"
"{'type': 'node', 'id': 475028799, 'lat': 48.098587, 'lon': 9.7656867, 'tags': {'addr:city': 'Biberach an der Riß', 'addr:country': 'DE', 'addr:housenumber': '29', 'addr:postcode': '88400', 'addr:street': 'Fünf Linden', 'amenity': 'pharmacy', 'contact:email': 'info@fuenf-linden-apotheke.de', 'contact:fax': '+49 7351 827767', 'contact:phone': '+49 7351 827077', 'contact:website': 'http://www.fuenf-linden-apotheke.de', 'dispensing': 'yes', 'healthcare': 'pharmacy', 'name': 'Fünf Linden Apotheke', 'opening_hours': 'Mo-Fr 08:00-12:30,14:00-18:30; Sa 08:00-13:00; Su,PH off', 'operator': 'Hans-Joachim Wolf', 'wheelchair': 'yes'}}"
"{'type': 'node', 'id': 476091592, 'lat': 47.5459327, 'lon': 9.6821464, 'tags': {'amenity': 'pharmacy', 'healthcare': 'pharmacy', 'name': 'Insel Apotheke', 'opening_hours': 'Mo-Fr 08:30-18:00; Sa 08:30-12:30', 'phone': '+49 8382 4441', 'website': 'https://insel-apotheke-lindau.de/', 'wheelchair': 'limited', 'wheelchair:description': 'Öffentl. Parkplatz direkt vor der Apotheke / stufenloser Zugang über Maximilianstraße / Automatiktür / Bewegungsflächen im Verkaufsraum > 120 x 120 cm / Nachtschalter ist für Rollstuhlfahrer nicht erreichbar!'}}"
"{'type': 'node', 'id': 476682642, 'lat': 47.7216079, 'lon': 9.3865491, 'tags': {'addr:city': 'Markdorf', 'addr:country': 'DE', 'addr:housenumber': '28', 'addr:postcode': '88677', 'addr:street': 'Hauptstraße', 'amenity': 'pharmacy', 'check_date': '2024-12-22', 'email': 'P@nda-apotheke.de', 'fax': '+49 7544 9523231', 'healthcare': 'pharmacy', 'level': '0', 'name': 'Panda Apotheke', 'opening_hours': 'Mo-Fr 08:00-19:00; Sa 09:00-14:00', 'operator': 'Matthias Maunz', 'payment:credit_cards': 'yes', 'payment:debit_cards': 'yes', 'phone': '+49 7544 9523230', 'website': 'http://www.panda-apotheke.org/', 'wheelchair': 'yes'}}"
"{'type': 'node', 'id': 480274035, 'lat': 47.3930599, 'lon': 8.5285694, 'tags': {'addr:city': 'Zürich', 'addr:country': 'CH', 'addr:housenumber': '72', 'addr:postcode': '8037', 'addr:street': 'Röschibachstrasse', 'alt_name': 'Topwell Apotheke Rotbuch', 'amenity': 'pharmacy', 'branch': 'Zürich Rotbuch', 'brand': 'Medbase', 'brand:wikidata': 'Q50038690', 'check_date': '2022-08-14', 'name': 'Medbase Apotheke Rotbuch', 'old_name': 'Rotbuch Apotheke', 'opening_hours': 'Mo-Fr 08:00-18:30; Sa 08:00-16:00', 'operator': 'Medbase Apotheken', 'phone': '+41 43 366 96 02', 'website': 'https://www.topwell.ch/medbaseapothekezuerichrotbuch/', 'wheelchair': 'yes'}}"
"{'type': 'node', 'id': 482230430, 'lat': 47.6812254, 'lon': 8.981599, 'tags': {'addr:city': 'Gaienhofen', 'addr:country': 'DE', 'addr:street': 'Hauptstraße', 'amenity': 'pharmacy', 'dispensing': 'no', 'name': 'See Apotheke', 'opening_hours': 'Mo-Fr 08:30-12:30, Mo,Tu,Th,Fr 14:30-18:30'}}"
"{'type': 'node', 'id': 482794912, 'lat': 48.3110871, 'lon': 8.9166778, 'tags': {'addr:city': 'Bisingen', 'addr:country': 'DE', 'addr:housenumber': '2', 'addr:postcode': '72406', 'addr:street': 'Hauptstraße', 'amenity': 'pharmacy', 'contact:email': 'webmaster@sonnen-apotheke-bisingen.de', 'contact:fax': '+49 7476 3192', 'contact:phone': '+49 7476 1411', 'contact:website': 'http://www.sonnen-apotheke-bisingen.de', 'dispensing': 'yes', 'healthcare': 'pharmacy', 'name': 'Sonnen-Apotheke', 'operator': 'Katharina Prowald'}}"
"{'type': 'node', 'id': 489592816, 'lat': 48.1632228, 'lon': 8.6364545, 'tags': {'amenity': 'doctors', 'healthcare': 'doctor'}}"
"{'type': 'node', 'id': 489855275, 'lat': 48.1623751, 'lon': 8.6317293, 'tags': {'addr:city': 'Rottweil', 'addr:country': 'DE', 'addr:housenumber': '35', 'addr:postcode': '78628', 'addr:street': 'Königstraße', 'amenity': 'pharmacy', 'contact:fax': '+49 741 209664729', 'contact:phone': '+49 741 20966470', 'contact:website': 'http://www.sailers-apotheken.de/roemer.html', 'healthcare': 'pharmacy', 'name': ""Dr. Sailer's Römerapotheke"", 'opening_hours': 'Mo-Fr 08:00-19:00; Sa 08:00-13:00', 'toilets:wheelchair': 'no', 'wheelchair': 'yes'}}"
"{'type': 'node', 'id': 498455926, 'lat': 48.2892576, 'lon': 9.7103389, 'tags': {'addr:city': 'Ehingen (Donau)', 'addr:country': 'DE', 'addr:housenumber': '53', 'addr:postcode': '89584', 'addr:street': 'Am Wenzelstein', 'amenity': 'pharmacy', 'email': 'wenzelstein@apotheke-dr-mack.de', 'fax': '+49 7391 7026 20', 'name': 'Apotheke am Wenzelstein', 'opening_hours': 'Mo-Fr 08:00-12:30, 14:30-18:00', 'operator': 'Dr. Thomas Mack e.K.', 'phone': '+49 7391 7026 0', 'website': 'https://www.apotheke-dr-mack.de/'}}"
"{'type': 'node', 'id': 504300558, 'lat': 47.9987813, 'lon': 8.5873041, 'tags': {'addr:city': 'Bad Dürrheim', 'addr:country': 'DE', 'addr:housenumber': '44', 'addr:postcode': '78073', 'addr:street': 'Fritz-Kiehn-Straße', 'addr:suburb': 'Sunthausen', 'amenity': 'doctors', 'healthcare': 'doctor', 'healthcare:speciality': 'general', 'name': 'Dr. Karin Todoroff', 'wheelchair': 'limited'}}"
"{'type': 'node', 'id': 513635042, 'lat': 47.4110882, 'lon': 8.5628577, 'tags': {'addr:city': 'Zürich', 'addr:country': 'CH', 'addr:housenumber': '333', 'addr:postcode': '8050', 'addr:street': 'Wallisellenstrasse', 'alt_name': 'BENU Apotheke Eulen', 'amenity': 'pharmacy', 'branch': 'Zürich Saatlen', 'brand': 'BENU', 'brand:wikidata': 'Q62562792', 'name': 'BENU Apotheke', 'opening_hours': 'Mo-Fr 08:00-18:30; Sa 08:00-17:00', 'operator': 'BENU Pharmacies', 'source': 'Kort-App', 'website': 'https://www.benu.ch/de/pharmacies/eulen/'}}"
"{'type': 'node', 'id': 518913844, 'lat': 47.5960587, 'lon': 9.6013894, 'tags': {'addr:city': 'Kressbronn am Bodensee', 'addr:country': 'DE', 'addr:housenumber': '10', 'addr:postcode': '88079', 'addr:street': 'Hemigkofener Straße', 'amenity': 'pharmacy', 'dispensing': 'yes', 'email': 'info@moevenapotheke.com', 'fax': '+49 7543 5650', 'healthcare': 'pharmacy', 'name': 'Möven-Apotheke Kressbronn', 'opening_hours': 'Mo-Fr 08:00-12:30,14:30-18:30; Sa 08:00-12:30', 'phone': '+49 7543 8641', 'website': 'https://www.moevenapotheke.com/', 'wheelchair': 'yes'}}"
"{'type': 'node', 'id': 518913846, 'lat': 47.5959938, 'lon': 9.6013635, 'tags': {'amenity': 'doctors', 'healthcare': 'doctor', 'name': 'Dr. med. Joachim Kiefer'}}"
"{'type': 'node', 'id': 518913851, 'lat': 47.597, 'lon': 9.6016736, 'tags': {'amenity': 'doctors', 'healthcare': 'doctor', 'name': 'Dr. med. Schmidt, Dirk', 'wheelchair': 'limited'}}"
"{'type': 'node', 'id': 518913853, 'lat': 47.5969721, 'lon': 9.6016856, 'tags': {'amenity': 'doctors', 'healthcare': 'doctor', 'name': 'Dr. med. Schmidt-Menard, Angela', 'wheelchair': 'limited'}}"
"{'type': 'node', 'id': 518913855, 'lat': 47.5969221, 'lon': 9.6017942, 'tags': {'amenity': 'doctors', 'healthcare': 'doctor', 'name': 'Dr. med. Lang, Perry-Ray', 'wheelchair': 'limited'}}"
"{'type': 'node', 'id': 520400591, 'lat': 47.5973794, 'lon': 9.5978177, 'tags': {'amenity': 'dentist', 'healthcare': 'dentist', 'name': 'Dr. Fiegle, Reinhold u. Dr. Fiegle, Ute'}}"
"{'type': 'node', 'id': 520400593, 'lat': 47.5956512, 'lon': 9.6007897, 'tags': {'amenity': 'dentist', 'healthcare': 'dentist', 'name': 'Dr. Fischer, Wolfgang'}}"
"{'type': 'node', 'id': 520400608, 'lat': 47.5972414, 'lon': 9.5989669, 'tags': {'amenity': 'doctors', 'healthcare': 'doctor', 'name': 'Dr. Fahrner, Ludwig', 'wheelchair': 'no'}}"
"{'type': 'node', 'id': 525997836, 'lat': 47.5949235, 'lon': 9.598846, 'tags': {'amenity': 'doctors', 'healthcare': 'doctor', 'name': 'Dr. Beck, Thomas', 'wheelchair': 'no'}}"
"{'type': 'node', 'id': 527155525, 'lat': 47.5940039, 'lon': 9.6012937, 'tags': {'addr:city': 'Kressbronn am Bodensee', 'addr:country': 'DE', 'addr:housenumber': '48', 'addr:postcode': '88079', 'addr:street': 'Hauptstraße', 'amenity': 'pharmacy', 'dispensing': 'yes', 'email': 'sonnen-apothekekerker@web.de', 'fax': '+49 7543 50135', 'healthcare': 'pharmacy', 'name': 'Sonnen-Apotheke', 'opening_hours': 'Mo-Fr 08:00-12:30,14:30-18:30; Sa 08:00-12:30', 'phone': '+49 7543 54983', 'website': 'http://www.sonnen-apotheke-kressbronn.de/', 'wheelchair': 'no'}}"
"{'type': 'node', 'id': 527155633, 'lat': 47.5955803, 'lon': 9.5993654, 'tags': {'amenity': 'dentist', 'healthcare': 'dentist', 'name': 'Dr. Richter, Wolfgang', 'wheelchair': 'limited'}}"
"{'type': 'node', 'id': 530181598, 'lat': 47.597984, 'lon': 9.604162, 'tags': {'amenity': 'doctors', 'check_date': '2024-03-07', 'healthcare': 'doctor', 'name': 'Dr. Wefing, Immanuel', 'opening_hours': 'Mo 08:00-13:00,14:00-18:30; Tu 14:00-18:30; We,Sa-Su off; Th-Fr 08:00-13:00', 'website': 'https://www.dr-wefing.de/home.html', 'wheelchair': 'no'}}"
"{'type': 'node', 'id': 538779680, 'lat': 47.5210012, 'lon': 8.5392963, 'tags': {'addr:city': 'Bülach', 'addr:housenumber': '21', 'addr:postcode': '8180', 'addr:street': 'Bahnhofstrasse', 'amenity': 'pharmacy', 'drive_through': 'no', 'email': 'info@bueli-apotheke.ch', 'fax': '+41 44 860 39 10', 'healthcare': 'pharmacy', 'name': 'Büli Apotheke Parfumerie', 'opening_hours': 'Mo-Fr 08:00-18:30; Sa 08:00-17:00', 'phone': '+41 44 860 72 11', 'website': 'https://www.bueli-apotheke.ch/'}}"
"{'type': 'node', 'id': 552677513, 'lat': 48.2760003, 'lon': 9.4785742, 'tags': {'addr:city': 'Hayingen', 'addr:housenumber': '3', 'addr:postcode': '72534', 'addr:street': 'Karlsplatz', 'amenity': 'pharmacy', 'contact:fax': '+49 7386 97111', 'contact:phone': '+49 7386 97110', 'dispensing': 'yes', 'name': 'Stadt-Apotheke', 'opening_hours': 'Mo,Tu,Th,Fr 08:30-12:30,14:30-18:30; We,Sa 08:30-12:00', 'operator': 'Ute Schildge'}}"
"{'type': 'node', 'id': 567670596, 'lat': 47.7428006, 'lon': 9.6528765, 'tags': {'addr:city': 'Grünkraut', 'addr:country': 'DE', 'addr:housenumber': '4', 'addr:postcode': '88287', 'addr:street': 'Bodnegger Straße', 'amenity': 'pharmacy', 'check_date': '2023-09-17', 'contact:email': 'info@st-gallus.de', 'contact:fax': '+49 751 79122-60', 'contact:phone': '+49 751 79122-0', 'contact:website': 'http://www.st-gallus.de/', 'dispensing': 'yes', 'name': 'St. Gallus', 'opening_hours': 'Mo,Tu,Th,Fr 08:15-19:00; We 08:15-18:15; Sa 08:15-13:00; Su off', 'operator': 'Mirjam Engelhardt', 'payment:apple_pay': 'yes', 'payment:cash': 'yes', 'payment:contactless': 'yes', 'payment:girocard': 'yes', 'payment:google_pay': 'yes', 'payment:maestro': 'yes', 'payment:mastercard': 'yes', 'payment:v_pay': 'yes', 'payment:visa': 'yes', 'wheelchair': 'no'}}"
"{'type': 'node', 'id': 568000492, 'lat': 47.4996622, 'lon': 8.7296567, 'tags': {'addr:city': 'Winterthur', 'addr:country': 'CH', 'addr:housenumber': '19', 'addr:postcode': '8400', 'addr:street': 'Marktgasse', 'amenity': 'pharmacy', 'check_date:opening_hours': '2024-12-25', 'dispensing': 'yes', 'healthcare': 'pharmacy', 'level': '0', 'name': 'Nature First', 'opening_hours': 'Mo-Fr 09:00-18:30; Sa 09:00-17:00', 'operator': 'Nature First', 'website': 'https://naturefirst.ch/standorte/apotheke-und-drogerie-in-winterthur', 'wheelchair': 'yes'}}"
"{'type': 'node', 'id': 568021146, 'lat': 47.4997116, 'lon': 8.7286733, 'tags': {'addr:city': 'Winterthur', 'addr:country': 'CH', 'addr:housenumber': '46', 'addr:postcode': '8400', 'addr:street': 'Marktgasse', 'amenity': 'pharmacy', 'check_date:opening_hours': '2024-06-02', 'dispensing': 'yes', 'drive_through': 'no', 'healthcare': 'pharmacy', 'name': 'Sternen Apotheke', 'opening_hours': 'Mo-Fr 08:00-18:30; Sa 08:00-16:00', 'website': 'https://www.sternen-apotheke.ch', 'wheelchair': 'yes'}}"
"{'type': 'node', 'id': 571504096, 'lat': 47.6585564, 'lon': 9.1710572, 'tags': {'addr:city': 'Konstanz', 'addr:country': 'DE', 'addr:housenumber': '40', 'addr:postcode': '78462', 'addr:street': 'Bodanstraße', 'amenity': 'pharmacy', 'check_date:opening_hours': '2023-08-26', 'contact:email': 'info@hirsch-apotheke-konstanz.de', 'contact:fax': '+49 7531 23696', 'contact:phone': '+49 7531 23611', 'contact:website': 'http://www.hirsch-apotheke-konstanz.de', 'dispensing': 'yes', 'healthcare': 'pharmacy', 'name': 'Hirsch Apotheke', 'opening_hours': 'Mo-Fr 09:00-18:30; Sa 09:00-16:00; PH off', 'operator': 'Michael Onczul', 'wheelchair': 'yes'}}"
"{'type': 'node', 'id': 571520867, 'lat': 47.6607713, 'lon': 9.1731861, 'tags': {'addr:city': 'Konstanz', 'addr:country': 'DE', 'addr:housenumber': '1', 'addr:postcode': '78462', 'addr:street': 'Paradiesstraße', 'amenity': 'pharmacy', 'check_date': '2024-09-06', 'contact:email': 'malhausapotheke@aol.com', 'contact:fax': '+49 7531 16805', 'contact:phone': '+49 7531 23900', 'contact:website': 'http://www.malhausapotheke.de', 'dispensing': 'yes', 'healthcare': 'pharmacy', 'name': 'Malhaus-Apotheke', 'opening_hours': 'Mo-Fr 08:30-18:30; Sa 09:00-16:00', 'operator': 'Thomas Winkelbach', 'wheelchair': 'yes'}}"
"{'type': 'node', 'id': 574675790, 'lat': 47.3932614, 'lon': 8.5312229, 'tags': {'addr:city': 'Zürich', 'addr:housenumber': '62', 'addr:postcode': '8037', 'addr:street': 'Rotbuchstrasse', 'amenity': 'doctors', 'check_date': '2024-08-04', 'healthcare': 'doctor', 'healthcare:speciality': 'general', 'name': 'Dr. med. Claude Lessing'}}"
"{'type': 'node', 'id': 577598104, 'lat': 47.6018149, 'lon': 9.005644, 'tags': {'addr:city': 'Müllheim', 'addr:country': 'CH', 'addr:housenumber': '8', 'addr:postcode': '8555', 'addr:street': 'Hintere Gärten', 'amenity': 'doctors', 'contact:phone': '+41 52 763 13 00', 'healthcare': 'centre', 'name': 'Ärztezentrum Müllheim', 'website': 'https://www.aerztezentrum-muellheim.ch/', 'wheelchair': 'yes'}}"
"{'type': 'node', 'id': 584880020, 'lat': 47.6981519, 'lon': 9.2858241, 'tags': {'addr:city': 'Meersburg', 'addr:country': 'DE', 'addr:housenumber': '12', 'addr:postcode': '88709', 'addr:street': 'Torenstraße', 'amenity': 'doctors', 'healthcare': 'doctor', 'name': 'Dr. Marcinowski'}}"
"{'type': 'node', 'id': 595068761, 'lat': 47.6697011, 'lon': 9.5876827, 'tags': {'addr:city': 'Tettnang', 'addr:country': 'DE', 'addr:housenumber': '5', 'addr:postcode': '88069', 'addr:street': 'Karlstraße', 'amenity': 'dentist', 'contact:phone': '+497542 7722', 'contact:website': 'https://implantate-bodensee.de/', 'email': 'info@dr-ungermann.de', 'healthcare': 'dentist', 'name': 'Dr. Arnd Ungermann', 'opening_hours': 'Mo-Th 08:00-18:00; Fr 08:00-12:00', 'operator': 'Dr. Arnd Ungermann', 'toilets:wheelchair': 'no', 'wheelchair': 'yes'}}"
"{'type': 'node', 'id': 599553643, 'lat': 47.4992743, 'lon': 8.726177, 'tags': {'addr:city': 'Winterthur', 'addr:country': 'CH', 'addr:housenumber': '1', 'addr:postcode': '8400', 'addr:street': 'Untertor', 'check_date:opening_hours': '2024-02-24', 'healthcare': 'alternative', 'healthcare:speciality': 'acupuncture', 'name': 'Chiway Therapiezentrum', 'opening_hours:signed': 'no', 'website': 'https://www.therapiezentrum-chiway.ch/'}}"
"{'type': 'node', 'id': 599556720, 'lat': 47.499338, 'lon': 8.7254731, 'tags': {'addr:city': 'Winterthur', 'addr:country': 'CH', 'addr:housenumber': '18', 'addr:postcode': '8400', 'addr:street': 'Untertor', 'amenity': 'dentist', 'check_date': '2024-11-01', 'check_date:opening_hours': '2024-11-01', 'healthcare': 'dentist', 'name': 'bestsmile', 'opening_hours': 'Mo,Tu,Th,Fr 09:00-18:00, Th 09:00-19:00', 'wheelchair': 'limited'}}"
"{'type': 'node', 'id': 600566620, 'lat': 47.2293916, 'lon': 9.6634845, 'tags': {'amenity': 'doctors', 'contact:phone': '+43 5524 8580', 'contact:website': 'http://www.dr-samardzic.at/', 'healthcare': 'doctor', 'name': 'Dr. med. Samardzic Goran', 'wheelchair': 'limited'}}"
"{'type': 'node', 'id': 600879828, 'lat': 47.2262655, 'lon': 9.6697159, 'tags': {'amenity': 'dentist', 'healthcare': 'dentist', 'name': 'Dr. Mayer Matthias'}}"
"{'type': 'node', 'id': 601602170, 'lat': 47.564961, 'lon': 9.6663024, 'tags': {'addr:city': 'Bodolz', 'addr:country': 'DE', 'addr:housenumber': '2', 'addr:postcode': '88131', 'addr:street': 'Untere Steig', 'amenity': 'pharmacy', 'contact:email': 'seeapotheke@seeapotheke.de', 'dispensing': 'yes', 'drive_through': 'no', 'healthcare': 'pharmacy', 'level': '1', 'name': 'See-Apotheke', 'opening_hours': 'Mo-Fr 08:30-18:30; Sa 08:30-13:00', 'operator': 'Lejla Sayed e.K.', 'phone': '+49 8382 26866', 'website': 'https://www.seeapotheke.de/', 'wheelchair': 'yes', 'wheelchair:description': 'Parkplätze in unmittelbarer Nähe / stufenloser Zugang / Automatiktür + Drehflügeltür / Bewegungsfläche im Verkaufsraum > 120 x 120 cm / Lieferservice'}}"
"{'type': 'node', 'id': 604851510, 'lat': 47.6598922, 'lon': 9.1757232, 'tags': {'addr:city': 'Konstanz', 'addr:country': 'DE', 'addr:housenumber': '1', 'addr:postcode': '78462', 'addr:street': 'Sigismundstraße', 'amenity': 'pharmacy', 'check_date:opening_hours': '2024-09-06', 'dispensing': 'yes', 'healthcare': 'pharmacy', 'name': 'Seeapotheke', 'opening_hours': 'Mo-Fr 08:30-18:30; Sa 09:00-16:00', 'toilets:wheelchair': 'no', 'wheelchair': 'yes'}}"
"{'type': 'node', 'id': 613667859, 'lat': 47.3705169, 'lon': 8.5143437, 'tags': {'addr:city': 'Zürich', 'addr:country': 'CH', 'addr:housenumber': '131', 'addr:postcode': '8003', 'addr:street': 'Kalkbreitestrasse', 'amenity': 'pharmacy', 'brand': 'Rotpunkt Apotheke', 'healthcare': 'pharmacy', 'name': 'Bären-Apotheke', 'opening_hours': 'Mo-Fr 07:30-19:00; Sa 08:00-17:00', 'operator': 'Rotpunkt Pharma', 'website': 'https://www.baeren-apotheke.ch/', 'wheelchair': 'yes'}}"
"{'type': 'node', 'id': 615033973, 'lat': 47.7751768, 'lon': 9.1502094, 'tags': {'amenity': 'doctors', 'contact:housenumber': '1', 'contact:phone': '+49 7551 947 70; +49 1803 32 21 05', 'contact:street': 'Härlenweg', 'contact:website': 'https://www.helios-gesundheit.de/kliniken/ueberlingen/unser-angebot/unsere-fachbereiche/tauchmedizin/', 'description': 'Druckkammer des Badischen Tauchsportverbandes e.V. (BTSV)', 'fixme': 'please check if the numbers are really emergency phone numbers', 'healthcare': 'doctor', 'healthcare:speciality': 'emergency', 'name': 'Fachbereich Tauchmedizin', 'pressure_chamber': 'yes'}}"
"{'type': 'node', 'id': 616269373, 'lat': 47.4244997, 'lon': 9.3794478, 'tags': {'amenity': 'pharmacy', 'dispensing': 'yes', 'healthcare': 'pharmacy', 'name': 'Stern Apotheke'}}"
"{'type': 'node', 'id': 616548595, 'lat': 47.8658832, 'lon': 9.1698615, 'tags': {'addr:city': 'Herdwangen-Schönach', 'addr:country': 'DE', 'addr:housenumber': '26', 'addr:postcode': '88634', 'addr:street': 'Steinrennen', 'amenity': 'doctors', 'healthcare': 'doctor', 'healthcare:speciality': 'general', 'name': 'Hausarztpraxis Dr. Zerm', 'old_name': 'Spieß Bernhard', 'phone': '+49 7557 700', 'wheelchair': 'no'}}"
"{'type': 'node', 'id': 616548597, 'lat': 47.8650389, 'lon': 9.1789444, 'tags': {'addr:city': 'Herdwangen-Schönach', 'addr:country': 'DE', 'addr:housenumber': '1', 'addr:postcode': '88634', 'addr:street': 'Lindenblütenweg', 'addr:suburb': 'Herdwangen', 'amenity': 'dentist', 'healthcare': 'dentist', 'name': 'Leonte Adrian', 'phone': '+49 7557 820751'}}"
"{'type': 'node', 'id': 617819358, 'lat': 47.4772801, 'lon': 9.7312772, 'tags': {'UID': 'ATU35744405', 'addr:city': 'Lauterach', 'addr:country': 'AT', 'addr:housenumber': '48', 'addr:postcode': '6923', 'addr:street': 'Bundesstraße', 'amenity': 'pharmacy', 'contact:email': 'apo.lauterach@vol.at', 'contact:fax': '+43 5574 74144 14', 'contact:phone': '+43 5574 74144', 'dispensing': 'yes', 'healthcare': 'pharmacy', 'name': 'Apotheke am Montfortplatz', 'opening_hours': 'Mo-Fr 08:00-12:00,14:00-18:00; Sa 08:00-12:00', 'wheelchair': 'yes'}}"
"{'type': 'node', 'id': 618770859, 'lat': 47.1660762, 'lon': 9.4728205, 'tags': {'amenity': 'pharmacy', 'healthcare': 'pharmacy', 'name': 'Zentrum Apotheke'}}"
"{'type': 'node', 'id': 629038860, 'lat': 47.4444804, 'lon': 9.5355431, 'tags': {'addr:city': 'Heiden', 'addr:country': 'CH', 'addr:housenumber': '8', 'addr:postcode': '9410', 'addr:street': 'Kirchplatz', 'amenity': 'pharmacy', 'name': 'Horsch', 'opening_hours': 'Tu-Fr 08:00-12:00,13:30-18:30; Sa 08:00-12:30; Su,Mo off', 'phone': '+41 71 891 18 10', 'website': 'https://www.gesundeswissen.ch/', 'wheelchair': 'yes'}}"
"{'type': 'node', 'id': 635831882, 'lat': 47.7811065, 'lon': 9.6094139, 'tags': {'amenity': 'hospital', 'emergency': 'no', 'healthcare': 'hospital', 'name': 'Heilig-Geist-Spital', 'website': 'https://www.spital-ravensburg.de/', 'wheelchair': 'yes', 'wikidata': 'Q34355079'}}"
"{'type': 'node', 'id': 637515794, 'lat': 47.7335087, 'lon': 9.2431286, 'tags': {'amenity': 'doctors', 'healthcare': 'doctor', 'healthcare:speciality': 'paediatrics', 'name': 'Kinderärztin Dr. Wöhrle', 'wheelchair': 'yes'}}"
"{'type': 'node', 'id': 639146393, 'lat': 47.404526, 'lon': 8.5729473, 'tags': {'addr:city': 'Zürich', 'addr:country': 'CH', 'addr:housenumber': '529', 'addr:postcode': '8051', 'addr:street': 'Winterthurerstrasse', 'amenity': 'pharmacy', 'branch': 'Zürich Schwamendingen', 'brand': 'Amavita', 'check_date:opening_hours': '2024-09-22', 'name': 'Amavita Schwamendingen', 'opening_hours': 'Mo-Fr 08:00-18:30; Sa 08:00-17:00', 'operator': 'GaleniCare', 'website': 'https://www.amavita.ch/de/amavita-apotheke-schwamendingen', 'wheelchair': 'yes'}}"
"{'type': 'node', 'id': 645416246, 'lat': 47.7822599, 'lon': 9.5706298, 'tags': {'amenity': 'doctors', 'healthcare': 'doctor', 'healthcare:speciality': 'paediatrics', 'name': 'Kinderarzt'}}"
"{'type': 'node', 'id': 645416253, 'lat': 47.7824125, 'lon': 9.5709221, 'tags': {'addr:city': 'Ravensburg', 'addr:country': 'DE', 'addr:housenumber': '7', 'addr:postcode': '88213', 'addr:street': 'Rümelinstraße', 'amenity': 'pharmacy', 'contact:fax': '+49 751 7914228', 'contact:phone': '+49 751 9770910', 'contact:website': 'http://www.huberesch-apotheke.de/', 'level': '0', 'name': 'Huberesch-Apotheke', 'opening_hours': 'Mo-Fr 08:00-12:30, 14:30-18:00', 'operator': 'Wolfgang Misiek'}}"
"{'type': 'node', 'id': 645416273, 'lat': 47.7837135, 'lon': 9.5778189, 'tags': {'amenity': 'doctors', 'healthcare': 'doctor', 'healthcare:speciality': 'general', 'name': 'Dr. Baensch', 'opening_hours': 'Mo-Fr 08:00-18:00'}}"
"{'type': 'node', 'id': 648956174, 'lat': 47.3678875, 'lon': 8.5348942, 'tags': {'addr:city': 'Zürich', 'addr:country': 'CH', 'addr:housenumber': '46', 'addr:postcode': '8002', 'addr:street': 'Bleicherweg', 'amenity': 'pharmacy', 'brand': 'Rotpunkt Apotheke', 'check_date': '2024-06-03', 'healthcare': 'pharmacy', 'name': 'Apotheke zur Bleiche', 'opening_hours': 'Mo-Fr 07:30-18:30; Sa 09:00-17:00', 'operator': 'Rotpunkt Pharma', 'phone': '+41 44 201 17 25', 'website': 'https://www.apothekebleiche.ch/', 'wheelchair': 'no'}}"
"{'type': 'node', 'id': 651516566, 'lat': 47.4847414, 'lon': 8.75989, 'tags': {'addr:city': 'Winterthur', 'addr:housenumber': '1', 'addr:postcode': '8405', 'addr:street': 'Hinterdorfstrasse', 'amenity': 'pharmacy', 'check_date:opening_hours': '2022-05-22', 'healthcare': 'pharmacy', 'name': 'Insel Apotheke', 'opening_hours': 'Mo-Fr 08:00-12:10,13:30-18:30; Sa 08:00-16:00'}}"
"{'type': 'node', 'id': 652764231, 'lat': 47.7670327, 'lon': 9.1592057, 'tags': {'addr:city': 'Überlingen', 'addr:country': 'DE', 'addr:housenumber': '1', 'addr:postcode': '88662', 'addr:street': 'Münsterstraße', 'amenity': 'pharmacy', 'healthcare': 'pharmacy', 'name': 'Münster Apotheke', 'opening_hours': 'Mo-Fr 08:30-18:30;Sa 08:30-14:00', 'phone': '+49 7551 63329', 'website': 'https://www.muenster-apotheke-ueberlingen.de/', 'wheelchair': 'limited'}}"
"{'type': 'node', 'id': 652764237, 'lat': 47.7673603, 'lon': 9.1589768, 'tags': {'addr:city': 'Überlingen', 'addr:country': 'DE', 'addr:housenumber': '7', 'addr:postcode': '88662', 'addr:street': 'Franziskanerstraße', 'amenity': 'pharmacy', 'healthcare': 'pharmacy', 'name': 'Stadt-Apotheke', 'wheelchair': 'limited'}}"
"{'type': 'node', 'id': 652764246, 'lat': 47.766381, 'lon': 9.1621053, 'tags': {'amenity': 'pharmacy', 'healthcare': 'pharmacy', 'name': 'Pflummern-Apotheke', 'opening_hours': 'Mo-Fr 08:30-13:00,14:00-18:00; Sa 08:30-13:00', 'wheelchair': 'yes'}}"
"{'type': 'node', 'id': 652764256, 'lat': 47.7666509, 'lon': 9.1677384, 'tags': {'amenity': 'pharmacy', 'healthcare': 'pharmacy', 'name': 'St. Johann'}}"
"{'type': 'node', 'id': 654941818, 'lat': 47.5561765, 'lon': 9.689414, 'tags': {'amenity': 'pharmacy', 'dispensing': 'yes', 'healthcare': 'pharmacy', 'name': 'Löwen-Apotheke', 'opening_hours': 'Mo-Fr 08:00-18:30; Sa 08:00-13:00', 'operator': 'Löwen-Apotheke OHG', 'phone': '+49 8382 5951', 'wheelchair': 'yes', 'wheelchair:description': 'Parkplätze in unmittelbarer Nähe vorhanden / stufenloser Zugang / Automatiktür / Bewegungsflächen im Verkaufsraum > 120 x 120 cm / Lieferservice / Toilette'}}"
"{'type': 'node', 'id': 656616207, 'lat': 47.3793647, 'lon': 8.5276523, 'tags': {'addr:city': 'Zürich', 'addr:country': 'CH', 'addr:housenumber': '122', 'addr:postcode': '8004', 'addr:street': 'Langstrasse', 'amenity': 'pharmacy', 'check_date': '2024-02-25', 'name': 'Paracelsus-Apotheke', 'opening_hours': 'Mo-Fr 08:00-18:30; Sa 09:00-17:00', 'website': 'https://www.apotheke-paracelsus.ch/', 'wheelchair': 'no'}}"
"{'type': 'node', 'id': 659024668, 'lat': 47.5531133, 'lon': 9.70311, 'tags': {'amenity': 'pharmacy', 'healthcare': 'pharmacy', 'name': 'Bahnhof Apotheke', 'opening_hours': 'Mo-Fr 08:30-19:00; Sa 08:30-13:00', 'wheelchair': 'yes'}}"
"{'type': 'node', 'id': 659283789, 'lat': 47.571271, 'lon': 9.6388751, 'tags': {'addr:city': 'Wasserburg (Bodensee)', 'addr:country': 'DE', 'addr:housenumber': '7', 'addr:postcode': '88142', 'addr:street': 'Bahnhofstraße', 'amenity': 'pharmacy', 'healthcare': 'pharmacy', 'name': 'St. Georgs-Apotheke', 'wheelchair': 'yes'}}"
"{'type': 'node', 'id': 659289220, 'lat': 47.5467638, 'lon': 9.6855479, 'tags': {'addr:city': 'Lindau (Bodensee)', 'addr:country': 'DE', 'addr:postcode': '88131', 'amenity': 'pharmacy', 'fixme': 'apotheke adhoc: ""sie schließt die Türen ihrer Hirsch-Apotheke im September ""24', 'healthcare': 'pharmacy', 'name': 'Hirsch-Apotheke', 'opening_hours': 'Mo-Fr 09:00-13:00, 14:00-18:00; Sa 09:00-13:00', 'phone': '+49 8382 5814', 'website': 'https://www.apotheke-in-lindau.de/', 'wheelchair': 'yes', 'wheelchair:description': 'Apotheke befindet sich in der Fußgängerzone (Kopfsteinpflaster) / stufenloser Zugang / leicht gängige Drehflügeltür / Bewegungsflächen im Verkaufsraum > 120 x 120 cm / Verkaufstheke mit abgesenktem Bereich'}}"
"{'type': 'node', 'id': 659785638, 'lat': 47.6870729, 'lon': 9.8338086, 'tags': {'addr:city': 'Wangen im Allgäu', 'addr:country': 'DE', 'addr:housenumber': '22-24', 'addr:postcode': '88239', 'addr:street': 'Herrenstraße', 'amenity': 'pharmacy', 'dispensing': 'yes', 'drive_through': 'no', 'email': 'info@rochusapotheke.de', 'fax': '+49 7522 22446', 'healthcare': 'pharmacy', 'name': 'Rochus-Apotheke', 'opening_hours': 'Mo-Fr 08:00-18:30; Sa 08:30-13:00', 'phone': '+49 7522 21379', 'website': 'https://www.rochus-apotheke-wangen.de/', 'wheelchair': 'yes'}}"
"{'type': 'node', 'id': 659861585, 'lat': 47.3782798, 'lon': 8.5108558, 'tags': {'addr:city': 'Zürich', 'addr:country': 'CH', 'addr:housenumber': '10', 'addr:postcode': '8004', 'addr:street': 'Albisriederplatz', 'amenity': 'pharmacy', 'brand': 'Rotpunkt Apotheke', 'check_date': '2024-09-17', 'check_date:opening_hours': '2023-07-15', 'healthcare': 'pharmacy', 'name': 'Pilgerbrunnen Apotheke', 'old_name': 'Apotheke zum Pilgerbrunnen', 'opening_hours': 'Mo-Fr 07:30-19:00; Sa 08:00-17:00', 'operator': 'Rotpunkt Pharma', 'website': 'https://www.apotheke-pilgerbrunnen.ch/', 'wheelchair': 'yes'}}"
"{'type': 'node', 'id': 659862467, 'lat': 47.855346, 'lon': 8.7719848, 'tags': {'amenity': 'pharmacy', 'dispensing': 'yes', 'healthcare': 'pharmacy', 'name': 'Christophorus-Apotheke', 'opening_hours': 'Mo-Sa 08:00-19:00', 'wheelchair': 'no'}}"
"{'type': 'node', 'id': 659894473, 'lat': 47.855361, 'lon': 8.7718954, 'tags': {'amenity': 'doctors', 'healthcare': 'doctor', 'toilets:wheelchair': 'no', 'wheelchair': 'no'}}"
"{'type': 'node', 'id': 660086455, 'lat': 47.372996, 'lon': 8.5278947, 'tags': {'addr:city': 'Zürich', 'addr:country': 'CH', 'addr:housenumber': '1', 'addr:postcode': '8004', 'addr:street': 'Birmensdorferstrasse', 'amenity': 'pharmacy', 'level': '0', 'name': 'Stauffacher Apotheke', 'opening_hours': 'Mo-Fr 08:00-12:30,13:30-18:00', 'website': 'https://www.stauffacher-apotheke.ch/', 'wheelchair': 'limited'}}"
"{'type': 'node', 'id': 662611986, 'lat': 48.2502785, 'lon': 9.2163342, 'tags': {'addr:city': 'Gammertingen', 'addr:housenumber': '7', 'addr:postcode': '72501', 'addr:street': 'Sigmaringer Straße', 'amenity': 'pharmacy', 'dispensing': 'yes', 'drive_through': 'no', 'healthcare': 'pharmacy', 'name': 'Zentral-Apotheke', 'operator': 'Maria Baltisberger e.K.', 'phone': '+49 7574 2246', 'toilets:wheelchair': 'no', 'wheelchair': 'yes'}}"
"{'type': 'node', 'id': 663436665, 'lat': 47.1724345, 'lon': 8.5174322, 'tags': {'addr:city': 'Zug', 'addr:housenumber': '13b', 'addr:postcode': '6300', 'addr:street': 'Industriestrasse', 'amenity': 'pharmacy', 'branch': 'Zug Metalli', 'brand': 'Achillea Apotheke', 'check_date': '2025-01-01', 'dispensing': 'yes', 'healthcare': 'pharmacy', 'name': 'Metalli Apotheke', 'opening_hours': 'Mo-We,Fr 09:00-19:00;Sa 09:00-17:00;Th 09:00-21:00;PH closed', 'operator': 'Dr. Bähler Dropa', 'payment:cash': 'yes', 'payment:credit_cards': 'yes', 'payment:debit_cards': 'yes', 'website': 'https://achillea.ch/standorte/metalli-apotheke', 'wheelchair': 'yes'}}"
"{'type': 'node', 'id': 664406565, 'lat': 47.3271821, 'lon': 8.800112, 'tags': {'addr:city': 'Wetzikon', 'addr:housenumber': '151', 'addr:postcode': '8620', 'addr:street': 'Bahnhofstrasse', 'amenity': 'pharmacy', 'brand': 'Rotpunkt Apotheke', 'healthcare': 'pharmacy', 'level': '0', 'name': 'Oberland Apotheke', 'opening_hours': 'Mo-Fr 08:00-20:00; Sa 08:00-18:00', 'shop': 'chemist', 'wheelchair': 'yes'}}"
"{'type': 'node', 'id': 665156261, 'lat': 47.8074771, 'lon': 9.6409679, 'tags': {'addr:city': 'Weingarten', 'addr:country': 'DE', 'addr:housenumber': '13', 'addr:postcode': '88250', 'addr:street': 'Karlstraße', 'amenity': 'pharmacy', 'contact:phone': '+49 751 560260', 'contact:website': 'http://www.kloster-apotheke-weingarten.de/', 'dispensing': 'yes', 'healthcare': 'pharmacy', 'name': 'Kloster-Apotheke', 'opening_hours': 'Mo,Tu,Th,Fr 08:30-13:00, Sa 08:30-12:30, Mo-Fr 14:00-18:00, We 08:00-13:00; Su,PH off', 'operator': 'Dr. Josef Kraus', 'wheelchair': 'yes'}}"
"{'type': 'node', 'id': 666933746, 'lat': 47.7382587, 'lon': 9.603071, 'tags': {'addr:city': 'Ravensburg', 'addr:country': 'DE', 'addr:housenumber': '355', 'addr:postcode': '88214', 'addr:street': 'Tettnanger Straße', 'addr:suburb': 'Oberhofen', 'amenity': 'pharmacy', 'fax': '+49 751 6527551', 'healthcare': 'pharmacy', 'level': '0', 'name': 'Rathaus Apotheke', 'phone': '+49 751 6527550', 'website': 'https://www.rathausapotheke-rv.de/', 'wheelchair': 'yes'}}"
"{'type': 'node', 'id': 668097981, 'lat': 48.0881109, 'lon': 9.7521826, 'tags': {'addr:city': 'Mittelbiberach', 'addr:housenumber': '102', 'addr:postcode': '88441', 'addr:street': 'Biberacher Straße', 'amenity': 'pharmacy', 'contact:email': 'info@apotheke-am-adlerplatz.de', 'contact:fax': '+49 7351 829683', 'contact:phone': '+49 7351 829682', 'contact:website': 'https://www.apotheke-am-adlerplatz.de', 'healthcare': 'pharmacy', 'name': 'Apotheke Adlerplatz', 'opening_hours': 'Mo-Fr 08:00-12:30,14:00-18:00; We 08:00-12:30; PH off', 'wheelchair': 'yes'}}"
"{'type': 'node', 'id': 670339702, 'lat': 47.3991933, 'lon': 8.6215296, 'tags': {'addr:city': 'Dübendorf', 'addr:housenumber': '50', 'addr:postcode': '8600', 'addr:street': 'Bahnhofstrasse', 'amenity': 'pharmacy', 'branch': 'Dübendorf', 'brand': 'TopPharm', 'check_date': '2024-08-27', 'dispensing': 'yes', 'name': 'Amavita Apotheke Dübendorf', 'opening_hours': 'Mo-Fr 08:00-12:15,13:30-18:30; Sa 08:00-16:00; Su off', 'operator': 'Galenicare AG', 'phone': '058 878 11 60', 'wheelchair': 'limited'}}"
"{'type': 'node', 'id': 670854612, 'lat': 47.781451, 'lon': 9.3908671, 'tags': {'amenity': 'pharmacy', 'name': 'Tal-Apotheke', 'wheelchair': 'limited'}}"
"{'type': 'node', 'id': 673554359, 'lat': 47.7836504, 'lon': 9.6142397, 'tags': {'addr:city': 'Ravensburg', 'addr:country': 'DE', 'addr:housenumber': '81', 'addr:postcode': '88212', 'addr:street': 'Marienplatz', 'amenity': 'pharmacy', 'check_date': '2024-03-02', 'contact:fax': '+49 751 26425', 'contact:phone': '+49 751 3524405', 'contact:website': 'https://www.vetter-apo.de/', 'dispensing': 'yes', 'drive_through': 'no', 'healthcare': 'pharmacy', 'name': 'Apotheke Vetter', 'opening_hours': 'Mo-Fr 08:00-18:30; Th 08:00-19:00; Sa 08:00-15:00', 'operator': 'Matthias Basler', 'payment:coins': 'yes', 'payment:credit_cards': 'yes', 'payment:notes': 'yes', 'wheelchair': 'yes'}}"
"{'type': 'node', 'id': 681736500, 'lat': 48.0303278, 'lon': 8.5252733, 'tags': {'addr:city': 'Bad Dürrheim', 'addr:country': 'DE', 'addr:housenumber': '1', 'addr:postcode': '78073', 'addr:street': 'Dieselstraße', 'amenity': 'pharmacy', 'capacity:covid19': '4', 'check_date:opening_hours': '2021-02-20', 'dispensing': 'yes', 'drive_through': 'no', 'healthcare': 'pharmacy', 'level': '0', 'name': 'Aphotheke im Kaufland', 'opening_hours': 'Mo-Sa 08:00-20:00', 'source:opening_hours': 'survey Jun.2015', 'wheelchair': 'yes'}}"
"{'type': 'node', 'id': 683852527, 'lat': 47.5451762, 'lon': 9.6832417, 'tags': {'amenity': 'doctors', 'healthcare': 'doctor', 'name': 'Dr. med. Thomas Freytag', 'opening_hours': 'Mo-Fr 08:00-12:00,15:00-17:00; We 16:00-19:00; Fr 08:00-13:00', 'phone': '+49 8382 3355', 'wheelchair': 'no'}}"
"{'type': 'node', 'id': 686557302, 'lat': 47.3838074, 'lon': 8.6605368, 'tags': {'addr:city': 'Schwerzenbach', 'addr:country': 'CH', 'addr:housenumber': '5', 'addr:postcode': '8603', 'addr:street': 'Bahnstrasse', 'amenity': 'pharmacy', 'branch': 'Schwerzenbach', 'brand': 'TopPharm', 'brand:wikidata': 'Q110277794', 'dispensing': 'yes', 'healthcare': 'pharmacy', 'name': 'TopPharm', 'operator': 'TopPharm Genossenschaft', 'website': 'https://www.apotheke.ch/schwerzenbach'}}"
"{'type': 'node', 'id': 691823498, 'lat': 47.6920766, 'lon': 9.4011627, 'tags': {'amenity': 'pharmacy', 'contact:phone': '+49 7544 95340', 'contact:website': 'https://www.gangolf-apotheke-friedrichshafen.de/', 'email': 'gangolf-apotheke@t-online.de', 'name': 'Gangolf-Apotheke', 'opening_hours': 'Mo-Fr 08:30-12:30, 14:30-18:30;Sa 08:30-12:30', 'operator': 'Beatrix Popp', 'wheelchair': 'yes'}}"
"{'type': 'node', 'id': 692851266, 'lat': 47.7810952, 'lon': 9.6099259, 'tags': {'addr:city': 'Ravensburg', 'addr:housenumber': '51', 'addr:postcode': '88214', 'addr:street': 'Bachstraße', 'amenity': 'pharmacy', 'contact:email': 'info@apotheke-im-spital.de', 'contact:fax': '+49 751 36215-85', 'contact:phone': '+49 751 36215-84', 'drive_through': 'no', 'healthcare': 'pharmacy', 'name': 'Apotheke im Spital', 'opening_hours': 'Mo-Th 08:00-19:00; We,Fr 08:00-18:30; Sa 09:30-13:30', 'operator': 'Apotheker Alexander Franze e.K.', 'website': 'https://www.apotheke-im-spital-ravensburg.de/', 'wheelchair': 'yes'}}"
"{'type': 'node', 'id': 693318441, 'lat': 47.3742811, 'lon': 8.5383036, 'tags': {'addr:city': 'Zürich', 'addr:country': 'CH', 'addr:housenumber': '71', 'addr:postcode': '8001', 'addr:street': 'Bahnhofstrasse', 'amenity': 'pharmacy', 'brand': 'Rotpunkt Apotheke', 'check_date': '2024-08-09', 'check_date:opening_hours': '2022-01-20', 'healthcare': 'pharmacy', 'name': 'Victoria Apotheke', 'opening_hours': 'Mo-Fr 08:00-19:00; Sa 09:00-18:00', 'operator': 'Rotpunkt Pharma', 'website': 'https://www.pharmaworld.com/', 'wheelchair': 'yes'}}"
"{'type': 'node', 'id': 693318592, 'lat': 47.3758718, 'lon': 8.5391041, 'tags': {'addr:city': 'Zürich', 'addr:country': 'CH', 'addr:housenumber': '81', 'addr:postcode': '8001', 'addr:street': 'Bahnhofstrasse', 'alt_name': 'Coop Vitality Bahnhofstrasse', 'amenity': 'pharmacy', 'branch': 'Zürich Bahnhofstrasse', 'brand': 'Coop Vitality', 'check_date': '2024-08-09', 'healthcare': 'pharmacy', 'level': '0', 'name': 'Coop Vitality', 'opening_hours': 'Mo-Fr 09:00-20:00; Sa 09:00-19:00', 'operator': 'Coop Vitality & GaleniCare', 'website': 'https://www.coopvitality.ch/de/coop-vitality-zurich', 'wheelchair': 'yes'}}"
