OSM_Data
"{'type': 'node', 'id': 438033661, 'lat': -29.6869301, 'lon': -51.460185, 'tags': {'addr:housenumber': '1850', 'addr:street': 'Rua Ramiro Barcelos', 'amenity': 'pharmacy', 'dispensing': 'no', 'healthcare': 'pharmacy', 'name': 'Drogaria Progresso'}}"
"{'type': 'node', 'id': 438033666, 'lat': -29.6838552, 'lon': -51.4619773, 'tags': {'amenity': 'pharmacy', 'brand': 'Panvel', 'brand:wikidata': 'Q10344254', 'dispensing': 'yes', 'healthcare': 'pharmacy', 'name': 'Panvel', 'wheelchair': 'yes'}}"
"{'type': 'node', 'id': 439239039, 'lat': -29.1674979, 'lon': -51.5144969, 'tags': {'amenity': 'hospital', 'name': '24h Pronto Atendimento - Hospital Tacchini'}}"
"{'type': 'node', 'id': 506712047, 'lat': -29.1798171, 'lon': -51.514564, 'tags': {'amenity': 'clinic', 'healthcare': 'clinic'}}"
"{'type': 'node', 'id': 506716307, 'lat': -29.1678232, 'lon': -51.5213218, 'tags': {'amenity': 'pharmacy'}}"
"{'type': 'node', 'id': 506716335, 'lat': -29.168355, 'lon': -51.521726, 'tags': {'amenity': 'pharmacy', 'name': 'Mina'}}"
"{'type': 'node', 'id': 506716765, 'lat': -29.1718267, 'lon': -51.5208289, 'tags': {'amenity': 'pharmacy', 'brand': 'São João', 'brand:wikidata': 'Q62663306', 'healthcare': 'pharmacy', 'name': 'São João'}}"
"{'type': 'node', 'id': 635027185, 'lat': -29.6943924, 'lon': -51.4800195, 'tags': {'addr:housenumber': '450', 'addr:street': 'Avenida Júlio Renner', 'amenity': 'pharmacy', 'dispensing': 'yes', 'healthcare': 'pharmacy', 'name': 'Fundação Medicamentos para a Saúde'}}"
"{'type': 'node', 'id': 687446736, 'lat': -29.6768243, 'lon': -51.4562204, 'tags': {'addr:city': 'Montenegro', 'addr:country': 'BR', 'addr:housenumber': '1000', 'addr:state': 'RS', 'addr:street': 'Rua Buarque de Macedo', 'amenity': 'doctors', 'healthcare': 'doctor', 'name': 'Tour Life'}}"
"{'type': 'node', 'id': 1005547499, 'lat': -28.9269748, 'lon': -51.548573, 'tags': {'addr:city': 'Veranópolis', 'addr:housenumber': '160', 'addr:postcode': '95330-000', 'addr:street': 'Rua Saul Irineu Farina', 'addr:suburb': 'Sao Peregrino', 'amenity': 'hospital', 'email': 'hcspl@hcspl.com.br', 'healthcare': 'hospital', 'name': 'Hospital Comunitário São Peregrino Lazziozi', 'operator:ref:vatin': 'BR87873279000104', 'phone': '+55 54 3441 3700', 'ref:CNES': '2707977', 'ref:vatin': 'BR87873279000368', 'website': 'https://hcspl.com.br'}}"
"{'type': 'node', 'id': 1012474888, 'lat': -29.5493043, 'lon': -51.5574374, 'tags': {'amenity': 'pharmacy', 'healthcare': 'pharmacy', 'name': 'Farmácia Maratá'}}"
"{'type': 'node', 'id': 1637809654, 'lat': -29.4685737, 'lon': -51.8122158, 'tags': {'addr:city': 'Teutônua', 'addr:housenumber': '179', 'addr:postcode': '95890-000', 'addr:street': 'Rua Arthur Pilz', 'addr:suburb': 'Languirú', 'amenity': 'pharmacy', 'dispensing': 'yes', 'healthcare': 'pharmacy', 'name': 'Farmácia Sanar Binafarma', 'opening_hours': 'Mo-Sa 08:00-18:00', 'phone': '+55 51 3762-2047', 'website': 'https://www.binafarma.com.br/'}}"
"{'type': 'node', 'id': 1687825658, 'lat': -29.4642812, 'lon': -51.9644908, 'tags': {'amenity': 'pharmacy', 'healthcare': 'pharmacy', 'name': 'Farmácia Panvel'}}"
"{'type': 'node', 'id': 2042676938, 'lat': -29.6216444, 'lon': -51.4199415, 'tags': {'amenity': 'hospital', 'name': 'Posto Saúde Bananal'}}"
"{'type': 'node', 'id': 2056170926, 'lat': -29.607534, 'lon': -52.1911678, 'tags': {'addr:city': 'Venâncio Aires', 'addr:housenumber': '834', 'addr:postcode': '95800-000', 'addr:street': 'Rua Tiradentes', 'addr:suburb': 'Centro', 'amenity': 'hospital', 'description': 'Hospital São Sebastião Mártir', 'emergency': 'yes', 'healthcare': 'hospital', 'name': 'Hospital São Sebastião Mártir', 'website': 'https://hssm.com.br/'}}"
"{'type': 'node', 'id': 2109202117, 'lat': -30.1136549, 'lon': -51.3311628, 'tags': {'amenity': 'hospital', 'emergency': 'yes', 'healthcare': 'hospital', 'name': 'Hospital de Pronto Atendimento'}}"
"{'type': 'node', 'id': 2152559740, 'lat': -30.1139582, 'lon': -51.3656196, 'tags': {'addr:street': 'Avenida Ponche Verde', 'amenity': 'pharmacy', 'healthcare': 'pharmacy', 'name': 'Agafarma'}}"
"{'type': 'node', 'id': 2383439502, 'lat': -29.3895262, 'lon': -51.8692132, 'tags': {'amenity': 'hospital', 'emergency': 'no'}}"
"{'type': 'node', 'id': 2383458317, 'lat': -29.3238792, 'lon': -51.7449799, 'tags': {'amenity': 'hospital'}}"
"{'type': 'node', 'id': 2383850490, 'lat': -29.4210614, 'lon': -51.5084934, 'tags': {'addr:city': 'São Pedro da Serra', 'addr:postcode': '95758-000', 'addr:street': 'Avenida Pedro Chies', 'amenity': 'pharmacy', 'name': 'Farmácia Agafarma'}}"
"{'type': 'node', 'id': 2383850492, 'lat': -29.4219492, 'lon': -51.5149146, 'tags': {'addr:city': 'São Pedro da Serra', 'addr:postcode': '95758-000', 'addr:street': 'Avenida Duque de Caxias', 'amenity': 'hospital'}}"
"{'type': 'node', 'id': 2384396907, 'lat': -29.3544788, 'lon': -51.779283, 'tags': {'amenity': 'pharmacy', 'healthcare': 'pharmacy', 'name': 'Drogaria Isafarma'}}"
"{'type': 'node', 'id': 2387686696, 'lat': -29.468513, 'lon': -51.809483, 'tags': {'amenity': 'pharmacy', 'name': 'Farmácia Languiru'}}"
"{'type': 'node', 'id': 2387688289, 'lat': -29.505159, 'lon': -51.8068285, 'tags': {'amenity': 'pharmacy', 'healthcare': 'pharmacy', 'name': 'Farmácia 24hrs Canabarro'}}"
"{'type': 'node', 'id': 2387750018, 'lat': -29.5520065, 'lon': -51.7339361, 'tags': {'amenity': 'hospital', 'name': 'Hospital São João'}}"
"{'type': 'node', 'id': 2396894954, 'lat': -29.4643547, 'lon': -51.9646665, 'tags': {'amenity': 'pharmacy', 'healthcare': 'pharmacy', 'name': 'Farmácia Mais Econômica'}}"
"{'type': 'node', 'id': 2401562098, 'lat': -29.5003962, 'lon': -51.9654444, 'tags': {'amenity': 'pharmacy', 'dispensing': 'yes', 'healthcare': 'pharmacy', 'name': 'Maxxi Econômica'}}"
"{'type': 'node', 'id': 2402695882, 'lat': -29.5041506, 'lon': -51.9645006, 'tags': {'amenity': 'pharmacy', 'brand': 'São João', 'brand:wikidata': 'Q62663306', 'healthcare': 'pharmacy', 'name': 'São João'}}"
"{'type': 'node', 'id': 3072794604, 'lat': -29.6870704, 'lon': -51.4626769, 'tags': {'addr:city': 'Montenegro', 'addr:housenumber': '1190', 'addr:street': 'Rua Osvaldo Aranha', 'addr:suburb': 'Centro', 'amenity': 'doctors', 'healthcare': 'doctor', 'name': 'Doutora Belkis Efrom', 'opening_hours': '14:00+', 'phone': '+55 51 3632-1757'}}"
"{'type': 'node', 'id': 3072877009, 'lat': -29.6926106, 'lon': -51.4634123, 'tags': {'addr:city': 'Montenegro', 'addr:housenumber': '1050', 'addr:street': 'Rua José Luis', 'addr:suburb': 'Centro', 'amenity': 'hospital', 'healthcare': 'hospital', 'name': 'Unidade de Saúde da Família 3 Industrial', 'phone': '+55 51 3632 9532', 'ref:CNES': '2227142', 'short_name': 'USF 3 Industrial'}}"
"{'type': 'node', 'id': 3402733896, 'lat': -29.490354, 'lon': -51.3561184, 'tags': {'amenity': 'hospital', 'healthcare': 'hospital', 'name': 'Hospital São Pedro Canísio'}}"
"{'type': 'node', 'id': 3449305123, 'lat': -29.2539683, 'lon': -51.5338548, 'tags': {'addr:city': 'Garibaldi', 'addr:housenumber': '7', 'addr:postcode': '95720-000', 'addr:street': 'Travessa 31 de Outubro', 'addr:suburb': 'Centro', 'amenity': 'hospital', 'email': 'hbsp@hbsp.com.br', 'fax': '+55 54 3464 9700', 'healthcare': 'hospital', 'name': 'Hospital São Pedro', 'phone': '+55 54 3464 9700', 'ref:CNES': '2257645', 'ref:vatin': 'BR90052804000127', 'website': 'https://hbsp.com.br/'}}"
"{'type': 'node', 'id': 3649621234, 'lat': -28.8815005, 'lon': -51.6977402, 'tags': {'amenity': 'hospital', 'name': 'Hospital Santo Antônio'}}"
"{'type': 'node', 'id': 3649750258, 'lat': -29.1106221, 'lon': -52.0697181, 'tags': {'addr:city': 'Relvado', 'amenity': 'hospital', 'name': 'Hospital Beneficiente Santo Antônio de Relvado', 'source': 'Bing;IBGE'}}"
"{'type': 'node', 'id': 3655101736, 'lat': -29.04536, 'lon': -52.2928685, 'tags': {'addr:city': 'São José do Herval', 'amenity': 'clinic', 'emergency': 'no', 'name': 'Posto de Saúde', 'source': 'Bing;IBGE'}}"
"{'type': 'node', 'id': 4247312298, 'lat': -29.2724624, 'lon': -51.6850903, 'tags': {'addr:city': 'Coronel Pilar', 'amenity': 'clinic', 'emergency': 'no', 'healthcare': 'clinic', 'name': 'Posto de Saúde'}}"
"{'type': 'node', 'id': 4293747895, 'lat': -29.4019388, 'lon': -51.9418697, 'tags': {'amenity': 'pharmacy', 'healthcare': 'pharmacy', 'name': 'Farmácia Carisfarma'}}"
"{'type': 'node', 'id': 4293747896, 'lat': -29.404607, 'lon': -51.94372, 'tags': {'amenity': 'pharmacy', 'healthcare': 'pharmacy', 'name': 'Farmácia Drogativa'}}"
"{'type': 'node', 'id': 4293747897, 'lat': -29.3999611, 'lon': -51.9459614, 'tags': {'amenity': 'pharmacy', 'healthcare': 'pharmacy', 'name': 'Farmácia Francibel'}}"
"{'type': 'node', 'id': 4293747898, 'lat': -29.4022168, 'lon': -51.9464339, 'tags': {'addr:postcode': '95940-000', 'addr:street': 'Rua Júlio de Castilhos', 'amenity': 'pharmacy', 'healthcare': 'pharmacy', 'name': 'Farmácia Agafarma'}}"
"{'type': 'node', 'id': 4293747899, 'lat': -29.4005128, 'lon': -51.9453522, 'tags': {'amenity': 'pharmacy', 'healthcare': 'pharmacy', 'name': 'Farmácia Noite e Dia'}}"
"{'type': 'node', 'id': 4293747900, 'lat': -29.3996499, 'lon': -51.9466477, 'tags': {'amenity': 'pharmacy', 'healthcare': 'pharmacy', 'name': 'Farmácia Petternina'}}"
"{'type': 'node', 'id': 4293747901, 'lat': -29.399136, 'lon': -51.9469154, 'tags': {'amenity': 'pharmacy', 'brand': 'Farmácia São João', 'brand:wikidata': 'Q65164556', 'healthcare': 'pharmacy', 'name': 'Farmácia São João'}}"
"{'type': 'node', 'id': 4293747905, 'lat': -29.3907749, 'lon': -51.9512568, 'tags': {'amenity': 'pharmacy', 'healthcare': 'pharmacy'}}"
"{'type': 'node', 'id': 4293747906, 'lat': -29.3908867, 'lon': -51.9404879, 'tags': {'amenity': 'pharmacy'}}"
"{'type': 'node', 'id': 4293770363, 'lat': -29.3867572, 'lon': -51.8701682, 'tags': {'amenity': 'pharmacy'}}"
"{'type': 'node', 'id': 4296801887, 'lat': -29.3903366, 'lon': -51.9532955, 'tags': {'amenity': 'clinic', 'healthcare': 'clinic', 'name': 'Clínica Belas Águas'}}"
"{'type': 'node', 'id': 4297209306, 'lat': -29.4020053, 'lon': -51.947098, 'tags': {'addr:city': 'Arroio do Meio', 'addr:housenumber': '388', 'addr:postcode': '95940-000', 'addr:street': 'Rua Júlio de Castilhos', 'addr:suburb': 'Centro', 'amenity': 'clinic', 'healthcare': 'clinic', 'name': 'Centro Clínico São José', 'source': 'IBGE'}}"
"{'type': 'node', 'id': 4318188091, 'lat': -29.2374116, 'lon': -51.8718314, 'tags': {'amenity': 'pharmacy', 'brand': 'São João', 'brand:wikidata': 'Q62663306', 'healthcare': 'pharmacy', 'name': 'São João'}}"
"{'type': 'node', 'id': 4318196194, 'lat': -29.241138, 'lon': -51.8642004, 'tags': {'amenity': 'clinic', 'healthcare': 'clinic', 'name': 'Posto Navegantes'}}"
"{'type': 'node', 'id': 4346707509, 'lat': -29.4491613, 'lon': -51.9635027, 'tags': {'addr:city': 'Lajeado', 'addr:housenumber': '93', 'addr:street': 'Rua Sidonia Prediger', 'amenity': 'dentist', 'healthcare': 'dentist', 'name': 'Dillon Bohrer', 'phone': '+55 51 3748-1740'}}"
"{'type': 'node', 'id': 4428266143, 'lat': -29.2836746, 'lon': -51.8695619, 'tags': {'addr:city': 'Roca Sales', 'addr:housenumber': '70', 'addr:postcode': '95735-000', 'addr:street': 'Rua General Osório', 'addr:suburb': 'Centro', 'amenity': 'hospital', 'healthcare': 'hospital', 'name': 'Hospital Roque Gonzales', 'ref:CNES': '2252147', 'ref:vatin': 'BR95196044000145'}}"
"{'type': 'node', 'id': 4581528893, 'lat': -29.3843053, 'lon': -51.9522514, 'tags': {'addr:postcode': '95940-000', 'addr:street': 'Rua Machado de Assis', 'amenity': 'clinic', 'name': 'Massagista João Feil', 'opening_hours': 'Mo-Tu, Th-Fr 08:00-20:30; We 13:00-20:30; Sa 08:00-12:00; Su 19:00-20:00', 'phone': '+55 51 99618-3317'}}"
"{'type': 'node', 'id': 4633900759, 'lat': -29.2281764, 'lon': -51.3471299, 'tags': {'amenity': 'pharmacy', 'healthcare': 'pharmacy', 'name': 'Mais Econômica'}}"
"{'type': 'node', 'id': 4633900760, 'lat': -29.2279377, 'lon': -51.3470548, 'tags': {'amenity': 'pharmacy', 'healthcare': 'pharmacy', 'name': 'Farmácia do Círculo'}}"
"{'type': 'node', 'id': 4633900765, 'lat': -29.2268129, 'lon': -51.3490615, 'tags': {'addr:city': 'Farroupilha', 'addr:housenumber': '51', 'addr:postcode': '95170-476', 'addr:street': 'Rua da República', 'addr:suburb': 'Centro', 'amenity': 'hospital', 'email': 'hbsc@hbsc.com.br', 'fax': '+55 54 3261 8700', 'healthcare': 'hospital', 'name': 'Hospital Beneficente São Carlos', 'phone': '+55 54 3261 8700', 'ref:CNES': '2240335', 'ref:vatin': 'BR89847370000172'}}"
"{'type': 'node', 'id': 4688820989, 'lat': -29.402759, 'lon': -51.9447385, 'tags': {'amenity': 'clinic', 'healthcare': 'clinic', 'name': 'Clínica Kerbes'}}"
"{'type': 'node', 'id': 5077732425, 'lat': -29.382627, 'lon': -52.0970247, 'tags': {'addr:housenumber': '1304', 'addr:street': 'Rua Phillip Nied', 'amenity': 'clinic', 'check_date': '2024-03-22', 'contact:phone': '+55 51 3840-0247', 'contact:whatsapp': '+55 51 3613-2387', 'level': '1', 'name': 'Unidade Sanitária de Forquetinha', 'opening_hours': 'Mo-Fr 07:30-17:00; Sa-Su off', 'operator:type': 'public', 'source': 'IBGE', 'wheelchair': 'yes'}}"
"{'type': 'node', 'id': 5237590059, 'lat': -29.2693721, 'lon': -51.3009787, 'tags': {'amenity': 'clinic', 'name': 'Comunidade Terapêutica Fazenda Esperança de Farroupilha', 'social_facility': 'healthcare', 'social_facility:for': 'drug_addicted'}}"
"{'type': 'node', 'id': 5255638991, 'lat': -30.1217177, 'lon': -51.3392149, 'tags': {'amenity': 'pharmacy', 'name': 'Farmacia Colina'}}"
"{'type': 'node', 'id': 5255638992, 'lat': -30.1177414, 'lon': -51.3412069, 'tags': {'amenity': 'pharmacy', 'brand': 'Farmácia São João', 'brand:wikidata': 'Q65164556', 'brand:wikipedia': 'pt:Farmácias São João', 'healthcare': 'pharmacy', 'name': 'Farmácia São João'}}"
"{'type': 'node', 'id': 5286600916, 'lat': -28.8801542, 'lon': -51.6994852, 'tags': {'amenity': 'clinic', 'healthcare': 'clinic'}}"
"{'type': 'node', 'id': 5304943388, 'lat': -29.1021239, 'lon': -51.5406237, 'tags': {'amenity': 'hospital', 'healthcare': 'hospital', 'name': 'Posto de saúde de São Valentim'}}"
"{'type': 'node', 'id': 5333438770, 'lat': -29.16744, 'lon': -51.5048263, 'tags': {'amenity': 'pharmacy', 'brand': 'São João', 'brand:wikidata': 'Q62663306', 'healthcare': 'pharmacy', 'name': 'São João'}}"
"{'type': 'node', 'id': 5368792298, 'lat': -29.3883095, 'lon': -52.268204, 'tags': {'amenity': 'dentist', 'check_date': '2023-06-01', 'healthcare': 'dentist', 'name': 'Marina Marchi Cirurgiã Dentista', 'phone': '+55 51 3751-2590; +55 51 99101-3381', 'wheelchair': 'limited'}}"
"{'type': 'node', 'id': 5425115353, 'lat': -29.9839857, 'lon': -52.3746009, 'tags': {'amenity': 'pharmacy', 'brand': 'São João', 'brand:wikidata': 'Q62663306', 'dispensing': 'yes', 'healthcare': 'pharmacy', 'name': 'São João'}}"
"{'type': 'node', 'id': 5697078752, 'lat': -29.2344372, 'lon': -51.8937966, 'tags': {'amenity': 'clinic', 'healthcare': 'clinic', 'source': 'IBGE'}}"
"{'type': 'node', 'id': 5716254094, 'lat': -29.2923174, 'lon': -51.5001002, 'tags': {'amenity': 'clinic', 'source': 'IBGE'}}"
"{'type': 'node', 'id': 5728476833, 'lat': -29.0285847, 'lon': -51.3079975, 'tags': {'amenity': 'pharmacy', 'dispensing': 'yes', 'healthcare': 'pharmacy', 'name': 'Farmácia Santo Antônio'}}"
"{'type': 'node', 'id': 5750420349, 'lat': -29.2574122, 'lon': -51.5287462, 'tags': {'amenity': 'clinic', 'source': 'IBGE'}}"
"{'type': 'node', 'id': 5750420389, 'lat': -29.2535978, 'lon': -51.5343466, 'tags': {'amenity': 'clinic', 'name': 'Centro Médico', 'source': 'IBGE'}}"
"{'type': 'node', 'id': 5759352251, 'lat': -29.4823916, 'lon': -51.4177424, 'tags': {'amenity': 'hospital', 'emergency': 'yes', 'healthcare': 'hospital', 'healthcare:speciality': 'general', 'name': 'Posto de Saúde Tupandi - 24h'}}"
"{'type': 'node', 'id': 5856351885, 'lat': -28.8719994, 'lon': -52.1803881, 'tags': {'addr:city': 'Arvorezinha', 'addr:housenumber': '321', 'addr:postcode': '95995-000', 'addr:street': 'Rua Daltro Filho', 'addr:suburb': 'Centro', 'amenity': 'hospital', 'fax': '+55 51 3772 2240', 'healthcare': 'hospital', 'name': 'Hospital São João', 'ref:CNES': '2252163', 'ref:vatin': 'BR87382867000137'}}"
"{'type': 'node', 'id': 5891925899, 'lat': -28.9894995, 'lon': -51.4088541, 'tags': {'amenity': 'hospital', 'source': 'IBGE'}}"
"{'type': 'node', 'id': 5913644979, 'lat': -29.7111156, 'lon': -52.4358797, 'tags': {'amenity': 'pharmacy', 'dispensing': 'yes', 'healthcare': 'pharmacy', 'name': 'Rede Seis', 'website': 'https://seisfarmacias.com.br/'}}"
"{'type': 'node', 'id': 6004910741, 'lat': -28.8611341, 'lon': -51.5485929, 'tags': {'amenity': 'clinic', 'healthcare': 'clinic', 'name': 'Unidade Básica de Saúde'}}"
"{'type': 'node', 'id': 6099682458, 'lat': -28.8375667, 'lon': -51.8897125, 'tags': {'amenity': 'clinic', 'healthcare': 'clinic', 'name': 'Unidade Básica de Saúde São José'}}"
"{'type': 'node', 'id': 6114212084, 'lat': -29.0027755, 'lon': -52.1543795, 'tags': {'amenity': 'clinic', 'source': 'IBGE'}}"
"{'type': 'node', 'id': 6155800885, 'lat': -29.9444574, 'lon': -51.7165219, 'tags': {'addr:housenumber': '128', 'addr:postcode': '95840-000', 'addr:street': 'Rua Osvaldo Aranha', 'amenity': 'hospital', 'email': 'hc.santarita@gmail.com', 'healthcare': 'hospital', 'name': 'Hospital de Caridade Santa Rita', 'opening_hours': '24/7', 'phone': '+55 51 3654-1210', 'ref:CNES': '2227673', 'ref:vatin': 'BR98227986000131', 'website': 'http://www.hospitalsantaritatriunfo.com.br'}}"
"{'type': 'node', 'id': 6173989181, 'lat': -29.5910109, 'lon': -51.8279311, 'tags': {'amenity': 'clinic', 'healthcare': 'clinic', 'name': 'Posto de saúde'}}"
"{'type': 'node', 'id': 6261008117, 'lat': -29.2662474, 'lon': -51.519419, 'tags': {'amenity': 'clinic', 'healthcare': 'clinic', 'name': 'Posto de Saúde São Francisco'}}"
"{'type': 'node', 'id': 6261021043, 'lat': -29.2574768, 'lon': -51.5152839, 'tags': {'amenity': 'pharmacy', 'dispensing': 'yes', 'healthcare': 'pharmacy'}}"
"{'type': 'node', 'id': 6418682049, 'lat': -28.848337, 'lon': -51.8857838, 'tags': {'amenity': 'hospital', 'healthcare': 'hospital', 'name': 'Hospital Manuel Francisco Guerreiro'}}"
"{'type': 'node', 'id': 6454834887, 'lat': -29.559354, 'lon': -52.3342151, 'tags': {'addr:housenumber': '600', 'addr:postcode': '96859-000', 'addr:street': 'Rua Doutor Pedro Eggler', 'amenity': 'hospital', 'healthcare': 'hospital', 'name': 'Hospital Beneficente Monte Alverne', 'phone': '+55 51 3704 1120', 'ref:CNES': '2255928', 'ref:vatin': 'BR95428181000168'}}"
"{'type': 'node', 'id': 6479642886, 'lat': -29.1638472, 'lon': -51.5075123, 'tags': {'amenity': 'clinic', 'healthcare': 'clinic', 'internet_access': 'wlan', 'name': 'Clínica de Psicologia e Hipnose Rodrigo Meazzi', 'opening_hours': '24/7', 'phone': '+55 54 99167-9727'}}"
"{'type': 'node', 'id': 6606100028, 'lat': -29.1653961, 'lon': -51.5171804, 'tags': {'amenity': 'pharmacy', 'healthcare': 'pharmacy', 'name': 'Maxxi Econômica', 'website': 'http://www.shoppingbento.com.br/'}}"
"{'type': 'node', 'id': 6715584286, 'lat': -28.9927715, 'lon': -51.6957016, 'tags': {'addr:city': 'Cotiporã', 'addr:housenumber': '275', 'addr:postcode': '95335-000', 'addr:street': 'Rua Pedro Breda', 'addr:suburb': 'Centro', 'amenity': 'doctors', 'healthcare': 'doctor', 'healthcare:speciality': 'reeducação_alimentar;r', 'name': 'Nutricionista Aline Cenci', 'opening_hours': 'Mediante agendamento', 'operator': 'Nutricionista'}}"
"{'type': 'node', 'id': 6715699039, 'lat': -28.995922, 'lon': -51.6966607, 'tags': {'addr:city': 'Cotiporã', 'addr:housenumber': '120', 'addr:postcode': '95335-000', 'addr:street': 'Praça Maurício Cardoso', 'addr:suburb': 'Centro', 'healthcare': 'laboratory', 'name': 'Laboratório N Sra de Lourdes', 'operator': 'Associação Beneficente São José'}}"
"{'type': 'node', 'id': 6716163765, 'lat': -28.9959297, 'lon': -51.6967401, 'tags': {'addr:city': 'Cotiporã', 'addr:housenumber': '120', 'addr:postcode': '95335-000', 'addr:street': 'Praça Maurício Cardoso', 'addr:suburb': 'Centro', 'healthcare': 'psychotherapist', 'healthcare:speciality': 'psicologia', 'name': 'Bruna Farenzena', 'operator': 'Psicologa'}}"
"{'type': 'node', 'id': 6716261346, 'lat': -28.9951386, 'lon': -51.6969532, 'tags': {'addr:city': 'Cotiporã', 'addr:housenumber': '46 Sala 01', 'addr:postcode': '95335-000', 'addr:street': 'Praça Maurício Cardoso', 'addr:suburb': 'Centro', 'amenity': 'dentist', 'healthcare': 'dentist', 'healthcare:speciality': 'Ortodontia', 'name': 'Carla de Matos', 'operator': 'Carla de Matos'}}"
"{'type': 'node', 'id': 6716409732, 'lat': -28.9959631, 'lon': -51.6967767, 'tags': {'addr:city': 'Cotiporã', 'addr:housenumber': '120 Sala 01', 'addr:postcode': '95335-000', 'addr:street': 'Praça Maurício Cardoso', 'addr:suburb': 'Centro', 'amenity': 'pharmacy', 'dispensing': 'yes', 'healthcare': 'pharmacy', 'name': 'Farmácia N Sra da Saúde', 'operator': 'Cleber e Gabriel'}}"
"{'type': 'node', 'id': 6716436290, 'lat': -28.9958362, 'lon': -51.6971412, 'tags': {'addr:city': 'Cotiporã', 'addr:housenumber': '28', 'addr:postcode': '95335-000', 'addr:street': 'Rua Andrea Argenta', 'addr:suburb': 'Centro', 'amenity': 'dentist', 'healthcare': 'dentist', 'healthcare:speciality': 'Odontologia', 'name': 'Clínica Odontológica Tres Guindani', 'operator': 'Juliano e Eliza Tres Guindani'}}"
"{'type': 'node', 'id': 6723664920, 'lat': -28.9945701, 'lon': -51.696292, 'tags': {'addr:city': 'Cotiporã', 'addr:housenumber': '478 Sala 01', 'addr:postcode': '95335-000', 'addr:street': 'Avenida Independência', 'addr:suburb': 'Centro', 'amenity': 'pharmacy', 'dispensing': 'yes', 'healthcare': 'pharmacy', 'name': 'Drogaria La Flores'}}"
"{'type': 'node', 'id': 6724582693, 'lat': -28.995982, 'lon': -51.696717, 'tags': {'addr:city': 'Cotiporã', 'addr:housenumber': '120', 'addr:postcode': '95335-000', 'addr:street': 'Praça Maurício Cardoso', 'addr:suburb': 'Centro', 'amenity': 'dentist', 'healthcare': 'dentist', 'name': 'Fabrício Vettori'}}"
"{'type': 'node', 'id': 6724721018, 'lat': -28.9959282, 'lon': -51.6967011, 'tags': {'addr:city': 'Cotiporã', 'addr:housenumber': '120', 'addr:postcode': '95335-000', 'addr:street': 'Praça Maurício Cardoso', 'addr:suburb': 'Centro', 'amenity': 'dentist', 'healthcare': 'dentist', 'healthcare:speciality': 'Odontologia;psicologia;fisioterapia;laboratório_de_análises_clínicas', 'name': 'Harmonizza Clínica Odontológica'}}"
"{'type': 'node', 'id': 6724772116, 'lat': -28.9930801, 'lon': -51.6965268, 'tags': {'addr:city': 'Cotiporã', 'addr:housenumber': '141', 'addr:postcode': '95335-000', 'addr:street': 'Rua Silveira Martins', 'addr:suburb': 'Centro', 'amenity': 'dentist', 'healthcare': 'dentist', 'name': 'Helio da Silveira'}}"
"{'type': 'node', 'id': 6724909638, 'lat': -28.9934471, 'lon': -51.6962203, 'tags': {'addr:city': 'Cotiporã', 'addr:housenumber': '118 Sala 02', 'addr:postcode': '95335-000', 'addr:street': 'Rua Silveira Martins', 'addr:suburb': 'Centro', 'healthcare': 'alternative', 'healthcare:speciality': 'chiropractic', 'name': 'Jéssica Sonda'}}"
"{'type': 'node', 'id': 6731918513, 'lat': -28.9934502, 'lon': -51.6966858, 'tags': {'addr:city': 'Cotiporã', 'addr:housenumber': '123', 'addr:postcode': '95335-000', 'addr:street': 'Rua Silveira Martins', 'addr:suburb': 'Centro', 'healthcare': 'laboratory', 'name': 'Laboratório Veranense'}}"
"{'type': 'node', 'id': 6732109839, 'lat': -28.9959469, 'lon': -51.6966733, 'tags': {'addr:city': 'Cotiporã', 'addr:housenumber': '120', 'addr:postcode': '95335-000', 'addr:street': 'Praça Maurício Cardoso', 'addr:suburb': 'Centro', 'amenity': 'dentist', 'healthcare': 'dentist', 'name': 'Leticia Wyzykowski'}}"
"{'type': 'node', 'id': 6732128304, 'lat': -28.9929707, 'lon': -51.702854, 'tags': {'addr:city': 'Cotiporã', 'addr:housenumber': '926', 'addr:postcode': '95335-000', 'addr:street': 'Rua João Bergamin', 'addr:suburb': 'Centro', 'amenity': 'doctors', 'healthcare': 'doctor', 'healthcare:speciality': 'Nutricionista', 'name': 'Luana Zaffari'}}"
"{'type': 'node', 'id': 6732669215, 'lat': -29.2959994, 'lon': -51.497789, 'tags': {'addr:city': 'Carlos Barbosa', 'addr:housenumber': '343', 'addr:postcode': '95185-000', 'addr:street': 'Avenida Presidente Kennedy', 'addr:suburb': 'Aurora', 'amenity': 'hospital', 'email': 'hospitalsaoroque@tacchini.com.br', 'healthcare': 'hospital', 'name': 'Hospital Beneficente Sao Roque', 'ref:CNES': '2241137', 'ref:vatin': 'BR87547444001444'}}"
"{'type': 'node', 'id': 6732669216, 'lat': -29.2970527, 'lon': -51.4976904, 'tags': {'amenity': 'hospital', 'healthcare': 'hospital', 'name': 'Casa de Idosos'}}"
"{'type': 'node', 'id': 6735152454, 'lat': -28.9953341, 'lon': -51.6952696, 'tags': {'addr:city': 'Cotiporã', 'addr:housenumber': '136 Sala 02', 'addr:postcode': '95335-000', 'addr:street': 'Rua 10 de Novembro', 'addr:suburb': 'Centro', 'healthcare': 'physiotherapist', 'name': 'Fisio Vida', 'operator': 'Priscila L Simioni'}}"
"{'type': 'node', 'id': 6735275980, 'lat': -28.9957692, 'lon': -51.6971312, 'tags': {'addr:city': 'Cotiporã', 'addr:housenumber': '28', 'addr:postcode': '95335-000', 'addr:street': 'Rua Andrea Argenta', 'addr:suburb': 'Centro', 'healthcare': 'psychotherapist', 'name': 'Sania Maria Tres Guindani'}}"
"{'type': 'node', 'id': 6738780198, 'lat': -28.9943333, 'lon': -51.6954399, 'tags': {'addr:city': 'Cotiporã', 'addr:housenumber': '97', 'addr:postcode': '95335-000', 'addr:street': 'Rua Nilo Leonardo Tonial', 'addr:suburb': 'Centro', 'healthcare': 'physiotherapist', 'name': 'Tatiana Fellini'}}"
"{'type': 'node', 'id': 6738792940, 'lat': -28.9959956, 'lon': -51.6966892, 'tags': {'addr:city': 'Cotiporã', 'addr:housenumber': '120', 'addr:postcode': '95335-000', 'addr:street': 'Praça Maurício Cardoso', 'addr:suburb': 'Centro', 'healthcare': 'physiotherapist', 'name': 'Tiago Luza'}}"
"{'type': 'node', 'id': 6814125685, 'lat': -29.9661911, 'lon': -51.6285127, 'tags': {'addr:housenumber': '815', 'addr:postcode': '96745-000', 'addr:street': 'Rua Orvalino Prattes Dornelles', 'amenity': 'clinic', 'email': 'atendimento@radclinimagem.com.br', 'healthcare': 'clinic', 'internet_access': 'wlan', 'name': 'Radclin Centro de', 'name:pt': 'Radclin Centro de Imagem Diagnóstica', 'opening_hours': 'Mo-Th 08:00-18:30; Fr 08:30-18:30; Sa 08:30-14:00', 'operator': 'Unidade 2: Tomografia Computadorizada, Ressonância Magnética, Ecografia Geral e Ecografia com Doppler', 'phone': '+55 51 3658-3435', 'website': 'https://www.facebook.com/radclinimagem'}}"
"{'type': 'node', 'id': 6887265998, 'lat': -29.6859765, 'lon': -52.4465002, 'tags': {'amenity': 'clinic', 'healthcare': 'clinic', 'name': 'Clínica Vida Nova (Sanatório)'}}"
"{'type': 'node', 'id': 6907018356, 'lat': -29.4932718, 'lon': -51.9613619, 'tags': {'addr:street': 'Avenida Rio Branco', 'amenity': 'pharmacy', 'dispensing': 'yes', 'healthcare': 'pharmacy', 'name': 'Farmácias São João'}}"
"{'type': 'node', 'id': 6938093916, 'lat': -29.6405606, 'lon': -51.2981856, 'tags': {'amenity': 'clinic', 'healthcare': 'clinic', 'name': 'ESF São Martim'}}"
"{'type': 'node', 'id': 6980663638, 'lat': -29.9374125, 'lon': -51.7192575, 'tags': {'amenity': 'clinic', 'healthcare': 'clinic', 'name': 'Posto de Saúde Municipal Gaudêncio Rodrigues de Souza'}}"
"{'type': 'node', 'id': 6989031050, 'lat': -28.986334, 'lon': -51.8370095, 'tags': {'addr:city': 'Dois Lajeados', 'addr:housenumber': '10', 'addr:postcode': '99220-000', 'addr:street': 'Rua João Ribeiro', 'addr:suburb': 'Centro', 'amenity': 'hospital', 'email': 'hcsr@mastertek.com.br', 'fax': '+55 54 3471 1302', 'healthcare': 'hospital', 'name': 'Hospital de Caridade São Roque', 'phone': '+55 54 3471 1212', 'ref:CNES': '2241013', 'ref:vatin': 'BR90396409000161'}}"
"{'type': 'node', 'id': 7037291813, 'lat': -29.7217949, 'lon': -52.4322654, 'tags': {'amenity': 'pharmacy', 'dispensing': 'yes', 'healthcare': 'pharmacy', 'name': 'Agafarma'}}"
"{'type': 'node', 'id': 7039450943, 'lat': -29.5343991, 'lon': -52.5208664, 'tags': {'addr:housenumber': '477', 'addr:postcode': '96890-000', 'addr:street': 'Rua Bernardo Fuerstenau', 'addr:suburb': 'Centro', 'amenity': 'hospital', 'healthcare': 'hospital', 'name': 'Hospital Beneficente Sinimbu', 'phone': '+55 51 3708 1122', 'ref:CNES': '2236346', 'ref:vatin': 'BR95433744000106'}}"
"{'type': 'node', 'id': 7174613201, 'lat': -29.720213, 'lon': -52.427454, 'tags': {'amenity': 'pharmacy', 'brand': 'São João', 'brand:wikidata': 'Q62663306', 'dispensing': 'yes', 'healthcare': 'pharmacy', 'name': 'São João'}}"
"{'type': 'node', 'id': 7498809385, 'lat': -29.2308153, 'lon': -51.345117, 'tags': {'healthcare': 'laboratory', 'name': 'Unimed'}}"
"{'type': 'node', 'id': 7508977521, 'lat': -30.0884283, 'lon': -51.727142, 'tags': {'amenity': 'pharmacy', 'dispensing': 'yes', 'healthcare': 'pharmacy', 'name': 'Via Pharma'}}"
"{'type': 'node', 'id': 7563330683, 'lat': -29.9843555, 'lon': -52.3762497, 'tags': {'amenity': 'pharmacy', 'brand': 'Panvel', 'brand:wikidata': 'Q10344254', 'brand:wikipedia': 'pt:Panvel', 'dispensing': 'yes', 'healthcare': 'pharmacy', 'name': 'Panvel'}}"
"{'type': 'node', 'id': 7573380879, 'lat': -29.2274998, 'lon': -51.3487315, 'tags': {'amenity': 'pharmacy', 'dispensing': 'yes', 'healthcare': 'pharmacy', 'name': 'Farmácia Marlene'}}"
"{'type': 'node', 'id': 7802187679, 'lat': -29.2342327, 'lon': -51.3243794, 'tags': {'amenity': 'clinic', 'healthcare': 'clinic', 'name': 'UBS América'}}"
"{'type': 'node', 'id': 7838773360, 'lat': -29.6128107, 'lon': -52.1805466, 'tags': {'amenity': 'hospital', 'emergency': 'yes', 'healthcare': 'hospital', 'name': 'Unidade de Pronto Atendimento - UPA 24 Horas', 'opening_hours': '24/7'}}"
"{'type': 'node', 'id': 7838778953, 'lat': -29.6033511, 'lon': -52.1679427, 'tags': {'amenity': 'clinic', 'healthcare': 'clinic'}}"
"{'type': 'node', 'id': 7838779157, 'lat': -29.6049826, 'lon': -52.1900041, 'tags': {'amenity': 'clinic', 'healthcare': 'clinic'}}"
"{'type': 'node', 'id': 7838779260, 'lat': -29.6132263, 'lon': -52.2058995, 'tags': {'amenity': 'pharmacy', 'dispensing': 'yes', 'healthcare': 'pharmacy', 'shop': 'supermarket'}}"
"{'type': 'node', 'id': 7838779282, 'lat': -29.6100688, 'lon': -52.1917277, 'tags': {'amenity': 'pharmacy', 'dispensing': 'yes', 'healthcare': 'pharmacy'}}"
"{'type': 'node', 'id': 7838779283, 'lat': -29.609915, 'lon': -52.1930002, 'tags': {'amenity': 'pharmacy', 'dispensing': 'yes', 'healthcare': 'pharmacy'}}"
"{'type': 'node', 'id': 7838779284, 'lat': -29.6104646, 'lon': -52.1918294, 'tags': {'amenity': 'pharmacy', 'dispensing': 'yes', 'healthcare': 'pharmacy'}}"
"{'type': 'node', 'id': 7838779285, 'lat': -29.6111362, 'lon': -52.192923, 'tags': {'amenity': 'pharmacy', 'dispensing': 'yes', 'healthcare': 'pharmacy'}}"
"{'type': 'node', 'id': 7838779286, 'lat': -29.6132056, 'lon': -52.1935755, 'tags': {'amenity': 'pharmacy', 'dispensing': 'yes', 'healthcare': 'pharmacy'}}"
"{'type': 'node', 'id': 7838779287, 'lat': -29.6154111, 'lon': -52.1939231, 'tags': {'amenity': 'pharmacy', 'dispensing': 'yes', 'healthcare': 'pharmacy'}}"
"{'type': 'node', 'id': 7838779337, 'lat': -29.6025421, 'lon': -52.2118026, 'tags': {'amenity': 'clinic', 'healthcare': 'clinic'}}"
"{'type': 'node', 'id': 7838779338, 'lat': -29.6210803, 'lon': -52.2066629, 'tags': {'amenity': 'clinic', 'healthcare': 'clinic'}}"
"{'type': 'node', 'id': 7838779349, 'lat': -29.636251, 'lon': -52.1631713, 'tags': {'amenity': 'clinic', 'healthcare': 'clinic'}}"
"{'type': 'node', 'id': 7838779350, 'lat': -29.6120923, 'lon': -52.1807263, 'tags': {'amenity': 'clinic', 'healthcare': 'clinic'}}"
"{'type': 'node', 'id': 7841514801, 'lat': -29.7279869, 'lon': -52.44452, 'tags': {'addr:city': 'Santa Cruz do Sul', 'addr:street': 'Rua Dom Pedro II', 'addr:suburb': 'Bom Jesus', 'amenity': 'clinic', 'healthcare': 'clinic', 'name': 'Postinho', 'opening_hours': 'Mo-Fr 09:00-18:00'}}"
"{'type': 'node', 'id': 7841871263, 'lat': -29.6134661, 'lon': -52.1734198, 'tags': {'amenity': 'pharmacy', 'dispensing': 'yes', 'healthcare': 'pharmacy'}}"
"{'type': 'node', 'id': 8075792100, 'lat': -29.2083845, 'lon': -51.348348, 'tags': {'amenity': 'clinic', 'healthcare': 'clinic', 'name': 'UBS Cinquentenário'}}"
"{'type': 'node', 'id': 8195422385, 'lat': -29.2290964, 'lon': -51.3209283, 'tags': {'healthcare': 'psychotherapist', 'name': 'CRAS'}}"
"{'type': 'node', 'id': 8195698742, 'lat': -29.5981546, 'lon': -52.4952302, 'tags': {'amenity': 'pharmacy', 'dispensing': 'yes', 'healthcare': 'pharmacy', 'name': 'Farmácia Rio Pardinho'}}"
"{'type': 'node', 'id': 8282087259, 'lat': -29.0290786, 'lon': -51.3106947, 'tags': {'amenity': 'clinic', 'healthcare': 'clinic', 'name': 'Unidade Básica de Saúde Dom Henrique Gelain'}}"
"{'type': 'node', 'id': 8653798041, 'lat': -29.4947809, 'lon': -51.3594311, 'tags': {'amenity': 'hospital', 'healthcare': 'hospital', 'name': 'UPA 24 Horas'}}"
"{'type': 'node', 'id': 8804794608, 'lat': -29.2557648, 'lon': -51.5275274, 'tags': {'addr:city': 'Garibaldi', 'addr:housenumber': '203, Sala 304', 'addr:postcode': '95720-000', 'addr:street': 'Avenida Rio Branco', 'addr:suburb': 'Centro', 'amenity': 'hospital', 'healthcare': 'hospital', 'healthcare:speciality': 'ophthalmology', 'name': 'Oftalmologista - Dra. Camila Eccker'}}"
"{'type': 'node', 'id': 8824692964, 'lat': -29.2467087, 'lon': -51.5326713, 'tags': {'amenity': 'hospital', 'healthcare': 'hospital'}}"
"{'type': 'node', 'id': 8824692969, 'lat': -29.2467273, 'lon': -51.5326332, 'tags': {'amenity': 'hospital', 'healthcare': 'hospital', 'name': 'SUS Garibaldi'}}"
"{'type': 'node', 'id': 8917842550, 'lat': -29.1785644, 'lon': -51.5108095, 'tags': {'amenity': 'pharmacy', 'dispensing': 'yes', 'healthcare': 'pharmacy', 'name': 'Farmácia Tacchimed'}}"
"{'type': 'node', 'id': 8917842551, 'lat': -29.1781596, 'lon': -51.511712, 'tags': {'amenity': 'pharmacy', 'brand': 'São João', 'brand:wikidata': 'Q62663306', 'dispensing': 'yes', 'healthcare': 'pharmacy', 'name': 'São João'}}"
"{'type': 'node', 'id': 9046361784, 'lat': -29.2958216, 'lon': -51.5026877, 'tags': {'addr:city': 'Carlos Barbosa', 'addr:housenumber': '116', 'addr:postcode': '95185000', 'addr:street': 'Rua Borges de Medeiros', 'addr:suburb': 'Centro', 'amenity': 'doctors', 'healthcare': 'doctor', 'healthcare:speciality': 'neurology;specialist_pediatrician', 'name': 'Clínica Desenvolver Neuropediatria e Pediatria - Dra Lais Merzoni', 'operator': 'Lais Merzoni'}}"
"{'type': 'node', 'id': 9573011317, 'lat': -29.2285887, 'lon': -51.3550232, 'tags': {'amenity': 'clinic', 'healthcare': 'clinic', 'name': 'UPA Farroupilha'}}"
"{'type': 'node', 'id': 9643291536, 'lat': -29.2392986, 'lon': -51.8684077, 'tags': {'addr:city': 'Encantado', 'addr:housenumber': '1676', 'addr:postcode': '95960-000', 'addr:street': 'Rua João Lucca', 'amenity': 'pharmacy', 'dispensing': 'yes', 'healthcare': 'pharmacy', 'name': 'Farmácia Municipal de Encantado'}}"
"{'type': 'node', 'id': 9847217066, 'lat': -29.4471355, 'lon': -51.3082475, 'tags': {'amenity': 'hospital', 'healthcare': 'hospital', 'name': 'Hospital Schlatter'}}"
"{'type': 'node', 'id': 9908425651, 'lat': -30.0899447, 'lon': -51.7281015, 'tags': {'amenity': 'pharmacy', 'brand': 'Farmácia São João', 'brand:wikidata': 'Q65164556', 'dispensing': 'yes', 'healthcare': 'pharmacy', 'name': 'Farmácia São João'}}"
"{'type': 'node', 'id': 9966046813, 'lat': -29.2994144, 'lon': -52.4240863, 'tags': {'amenity': 'hospital', 'healthcare': 'hospital', 'name': 'Hospital Doutor Anuar Elias Aesse'}}"
"{'type': 'node', 'id': 9988466243, 'lat': -29.9739025, 'lon': -51.6310803, 'tags': {'amenity': 'clinic', 'healthcare': 'clinic', 'name': 'UBS Sul América'}}"
"{'type': 'node', 'id': 10014390372, 'lat': -29.4638448, 'lon': -51.362565, 'tags': {'amenity': 'clinic', 'healthcare': 'clinic', 'name': 'UBS Morro Tico Tico'}}"
"{'type': 'node', 'id': 10019762268, 'lat': -29.4530295, 'lon': -51.3063937, 'tags': {'amenity': 'clinic', 'healthcare': 'clinic', 'name': 'Unidade Básica de Saúde'}}"
"{'type': 'node', 'id': 10019765827, 'lat': -29.4529293, 'lon': -51.3068362, 'tags': {'amenity': 'pharmacy', 'brand': 'São João', 'brand:wikidata': 'Q62663306', 'dispensing': 'yes', 'healthcare': 'pharmacy', 'name': 'São João'}}"
"{'type': 'node', 'id': 10029780958, 'lat': -29.9608013, 'lon': -51.6208689, 'tags': {'amenity': 'clinic', 'healthcare': 'clinic', 'name': 'UBS Central', 'operator': 'Municipio', 'operator:type': 'public'}}"
"{'type': 'node', 'id': 10046175384, 'lat': -29.9981779, 'lon': -51.3060401, 'tags': {'amenity': 'pharmacy', 'brand': 'Panvel', 'brand:wikidata': 'Q10344254', 'dispensing': 'yes', 'healthcare': 'pharmacy', 'name': 'Panvel'}}"
"{'type': 'node', 'id': 10046224076, 'lat': -30.0013766, 'lon': -51.3072927, 'tags': {'amenity': 'pharmacy', 'brand': 'Agafarma', 'brand:wikidata': 'Q93735939', 'dispensing': 'yes', 'healthcare': 'pharmacy', 'name': 'Agafarma'}}"
"{'type': 'node', 'id': 10186984000, 'lat': -29.2547704, 'lon': -51.5318742, 'tags': {'amenity': 'pharmacy', 'healthcare': 'pharmacy', 'name': 'Total Farma'}}"
"{'type': 'node', 'id': 10315693122, 'lat': -29.7221404, 'lon': -52.4323512, 'tags': {'address': 'Rua Ernesto Alves, 1200, Santa Cruz do Sul, RS, Brasil', 'amenity': 'clinic', 'email': 'contato@clinicaantonios.com.br', 'healthcare': 'clinic', 'healthcare:speciality': 'physiotherapy;physical_therapy', 'name': ""Clínica Antonio's"", 'phone': '+55 51 3056-3519', 'website': 'https://clinicaantonios.com.br'}}"
"{'type': 'node', 'id': 10571043906, 'lat': -29.385963, 'lon': -52.2674835, 'tags': {'addr:housenumber': '483', 'addr:street': 'Rua 30 de Novembro', 'healthcare': 'physiotherapist', 'name': 'Ariotti Fisioterapia'}}"
"{'type': 'node', 'id': 10571057911, 'lat': -29.3866326, 'lon': -52.2679764, 'tags': {'addr:city': 'Sério', 'addr:country': 'BR', 'addr:housename': 'Sala 01', 'addr:housenumber': '585', 'addr:postcode': '95918-000', 'addr:street': 'Rua 30 de Novembro', 'amenity': 'pharmacy', 'contact:phone': '+55 51 99869-6672', 'dispensing': 'yes', 'healthcare': 'pharmacy', 'name': 'Farmácia São José', 'opening_hours': 'Mo 08:30-18:00; Tu-Fr 08:30-18:30; Sa 08:30-12:00', 'operational_status': 'operational', 'operator': 'Fármacias Santa Helena'}}"
"{'type': 'node', 'id': 10579134929, 'lat': -29.9604349, 'lon': -51.7236812, 'tags': {'addr:city': 'São Jerônimo', 'addr:housenumber': '695', 'addr:postcode': '96700-000', 'addr:state': 'BR', 'addr:street': 'Rua Oswaldo Aranha', 'addr:suburb': 'Centro', 'amenity': 'pharmacy', 'dispensing': 'yes', 'healthcare': 'pharmacy', 'level': '1', 'name': 'Qualifarma', 'opening_hours': 'Mo-Su 08:00-22:00; PH closed', 'wheelchair': 'yes'}}"
"{'type': 'node', 'id': 10579134931, 'lat': -29.9604449, 'lon': -51.7238917, 'tags': {'addr:city': 'São Jerônimo', 'addr:housenumber': '191', 'addr:postcode': '96700-000', 'addr:state': 'BR', 'addr:street': 'Rua Oswaldo Aranha', 'addr:suburb': 'Centro', 'amenity': 'dentist', 'healthcare': 'dentist', 'level': '1', 'name': 'Consultório Odontológico Juliana Cernicchiaro', 'wheelchair': 'yes'}}"
"{'type': 'node', 'id': 10582693849, 'lat': -29.9608776, 'lon': -51.7234874, 'tags': {'addr:city': 'São Jerônimo', 'addr:housenumber': '756', 'addr:postcode': '96700-000', 'addr:state': 'BR', 'addr:street': 'Rua Coronel Antônio Soares de Carvalho', 'addr:suburb': 'Bela Vista', 'amenity': 'pharmacy', 'dispensing': 'yes', 'healthcare': 'pharmacy', 'level': '1', 'name': 'Sanar - Rede de Farmácias', 'wheelchair': 'yes'}}"
"{'type': 'node', 'id': 10665557810, 'lat': -29.9586155, 'lon': -51.7233245, 'tags': {'addr:city': 'São Jerônimo', 'addr:housenumber': '502', 'addr:postcode': '96700-000', 'addr:street': 'Rua Coronel Antônio Soares de Carvalho', 'addr:suburb': 'Centro', 'amenity': 'pharmacy', 'healthcare': 'pharmacy', 'level': '1', 'name': 'Farmácias Associadas Central', 'wheelchair': 'yes'}}"
"{'type': 'node', 'id': 10671730538, 'lat': -29.4689563, 'lon': -52.0901996, 'tags': {'addr:city': 'Santa Clara do Sul', 'addr:country': 'BR', 'addr:housename': 'Sala 02', 'addr:housenumber': '1460', 'addr:postcode': '95915-000', 'addr:state': 'Rio Grande do Sul', 'addr:street': 'Avenida 28 de Maio', 'addr:suburb': 'Centro', 'amenity': 'pharmacy', 'brand': 'Agafarma', 'brand:wikidata': 'Q93735939', 'healthcare': 'pharmacy', 'name': 'Agafarma'}}"
"{'type': 'node', 'id': 10671730539, 'lat': -29.4690077, 'lon': -52.0872465, 'tags': {'addr:city': 'Santa Clara do Sul', 'addr:country': 'BR', 'addr:housenumber': '1158', 'addr:postcode': '95915-000', 'addr:street': 'Avenida 28 de Maio', 'addr:suburb': 'Centro', 'amenity': 'pharmacy', 'dispensing': 'yes', 'name': 'Fármacias Associadas Drogativa', 'phone': '+55 (51) 3782-1479'}}"
"{'type': 'node', 'id': 10671730556, 'lat': -29.4682266, 'lon': -52.0847815, 'tags': {'addr:city': 'Santa Clara do Sul', 'addr:country': 'BR', 'addr:housename': 'Sala 101', 'addr:housenumber': '997', 'addr:postcode': '95915-000', 'addr:street': 'Rua 9 de Fevereiro', 'addr:suburb': 'Centro', 'amenity': 'pharmacy', 'brand': 'Agafarma', 'brand:wikidata': 'Q93735939', 'healthcare': 'pharmacy', 'name': 'Agafarma', 'phone': '+55 51 3782-1066'}}"
"{'type': 'node', 'id': 10681445819, 'lat': -29.3815057, 'lon': -52.1042693, 'tags': {'addr:city': 'Forquetinha', 'addr:country': 'BR', 'addr:housenumber': '669', 'addr:postcode': '95937-000', 'addr:street': 'Avenida Martin Luther', 'addr:suburb': 'Centro', 'amenity': 'pharmacy', 'contact:whatsapp': '+55 (51) 99220-7342', 'healthcare': 'pharmacy', 'mobile': '+55 (51) 99220-7342', 'name': 'Asterfarma Forquetinha', 'phone': '+55 51 3613-2246', 'wheelchair': 'limited'}}"
"{'type': 'node', 'id': 10684109669, 'lat': -29.1787191, 'lon': -51.5111648, 'tags': {'amenity': 'pharmacy', 'brand': 'Panvel', 'brand:wikidata': 'Q10344254', 'healthcare': 'pharmacy', 'name': 'Panvel'}}"
"{'type': 'node', 'id': 10685712064, 'lat': -29.9589728, 'lon': -51.71829, 'tags': {'addr:city': 'São Jerônimo', 'addr:housenumber': '774', 'addr:postcode': '96700-000', 'addr:street': 'Rua Barão do Rio Branco', 'contact:facebook': 'https://www.facebook.com/clinitest.laboratorio', 'contact:instagram': 'clinitestlab', 'contact:whatsapp': '+55 51 98060-3903', 'healthcare': 'laboratory', 'name': 'Laboratório Clinitest', 'opening_hours': 'Mo-Fr 07:00-17:30', 'phone': '+55 51  3651-1649', 'website': 'https://clinitest.com.br/'}}"
"{'type': 'node', 'id': 10692994883, 'lat': -29.9583147, 'lon': -51.7247883, 'tags': {'addr:housenumber': '465', 'addr:street': 'Rua Senador Ramiro Barcellos', 'amenity': 'pharmacy', 'brand': 'Farmácias São João', 'healthcare': 'pharmacy', 'name': 'Farmácias São João', 'not:brand:wikidata': 'Q65164556', 'note': 'O nome dafarmácia é no plural.', 'phone': '+55 51 3651-4370'}}"
"{'type': 'node', 'id': 10695213989, 'lat': -29.9696957, 'lon': -51.7253861, 'tags': {'addr:city': 'São Jerônimo', 'addr:housename': 'Sala 08', 'addr:housenumber': '1600', 'addr:postcode': '96700-000', 'addr:street': 'Rua Senador Ramiro Barcellos', 'addr:suburb': 'São Thomás', 'amenity': 'dentist', 'healthcare': 'dentist', 'name': 'Aline Reis Consultório', 'phone': '+55 51 99811-9624'}}"
"{'type': 'node', 'id': 10695213990, 'lat': -29.9696282, 'lon': -51.7253195, 'tags': {'addr:city': 'São Jerônimo', 'addr:housename': 'Sala 11', 'addr:housenumber': '1600', 'addr:postcode': '96700-000', 'addr:street': 'Rua Senador Ramiro Barcellos', 'addr:suburb': 'São Thomás', 'amenity': 'pharmacy', 'healthcare': 'pharmacy', 'name': 'Fármacia Bem Estar'}}"
"{'type': 'node', 'id': 10705288963, 'lat': -29.7380716, 'lon': -52.4272782, 'tags': {'addr:city': 'Santa Cruz do Sul', 'addr:country': 'BR', 'addr:housenumber': '209', 'addr:postcode': '96835-090', 'addr:street': 'Rua Pereira da Cunha', 'addr:suburb': 'Ana Nery', 'amenity': 'pharmacy', 'name': 'Maxxi Econômica Hospital Ana Nery'}}"
"{'type': 'node', 'id': 10705569343, 'lat': -29.7361799, 'lon': -52.4248863, 'tags': {'healthcare': 'laboratory', 'name': 'Laboratório Enzilab'}}"
"{'type': 'node', 'id': 10769760668, 'lat': -29.9594441, 'lon': -51.724845, 'tags': {'addr:city': 'São Jerônimo', 'addr:housenumber': '595', 'addr:postcode': '96700-000', 'addr:street': 'Rua Senador Ramiro Barcellos', 'addr:suburb': 'Centro', 'amenity': 'pharmacy', 'healthcare': 'pharmacy', 'name': 'Farmácia Econômica', 'wheelchair': 'yes'}}"
"{'type': 'node', 'id': 10803314248, 'lat': -29.1613973, 'lon': -51.5220699, 'tags': {'amenity': 'pharmacy', 'healthcare': 'pharmacy', 'name': 'Farmácia União'}}"
"{'type': 'node', 'id': 10805274413, 'lat': -29.4491952, 'lon': -51.9684997, 'tags': {'amenity': 'pharmacy', 'brand': 'Farmácia São João', 'brand:wikidata': 'Q65164556', 'dispensing': 'yes', 'healthcare': 'pharmacy', 'level': '1', 'name': 'Farmácia São João'}}"
"{'type': 'node', 'id': 10829809942, 'lat': -29.2569395, 'lon': -51.527745, 'tags': {'amenity': 'pharmacy', 'brand': 'Panvel', 'brand:wikidata': 'Q10344254', 'healthcare': 'pharmacy', 'name': 'Panvel'}}"
"{'type': 'node', 'id': 10863759275, 'lat': -28.9311453, 'lon': -52.1235806, 'tags': {'addr:city': 'Ilópolis', 'addr:housenumber': '495', 'addr:postcode': '95990-000', 'addr:street': 'Rua João Tomasini', 'addr:suburb': 'Centro', 'amenity': 'hospital', 'healthcare': 'hospital', 'name': 'Hospital Beneficente Leonilda Brunet', 'operator:ref:vatin': 'BR87263364000142', 'ref:CNES': '2252139', 'ref:vatin': 'BR87263364000223', 'source:geometry': 'IEDE/RS'}}"
"{'type': 'node', 'id': 10869903607, 'lat': -29.4561867, 'lon': -51.9869453, 'tags': {'addr:city': 'Lajeado', 'addr:country': 'BR', 'addr:housenumber': '1312', 'addr:postcode': '95905-028', 'addr:state': 'Rio Grande do Sul', 'addr:street': 'Rua João Sebastiany', 'addr:suburb': 'Montanha', 'amenity': 'clinic', 'contact:phone': '+55 (51) 3982-1138', 'name': 'ESF Montanha', 'official_name': 'Estratégia de Saúde da Família Montanha', 'ref:CNES': '2251353'}}"
"{'type': 'node', 'id': 10869903990, 'lat': -29.469177, 'lon': -52.0774343, 'tags': {'addr:city': 'Santa Clara do Sul', 'addr:country': 'BR', 'addr:housenumber': '197', 'addr:postcode': '95915-000', 'addr:state': 'Rio Grande do Sul', 'addr:street': 'Avenida 28 de Maio', 'addr:suburb': 'São Francisco', 'contact:phone': '+55 51 99751-7271', 'healthcare': 'laboratory', 'name': 'Santalab', 'opening_hours': 'Mo-Fr 06:45-17:00', 'ref:CNES': '9845917'}}"
"{'type': 'node', 'id': 10882350547, 'lat': -30.1408108, 'lon': -52.0468956, 'tags': {'amenity': 'pharmacy', 'healthcare': 'pharmacy'}}"
"{'type': 'node', 'id': 10959531105, 'lat': -29.6844031, 'lon': -51.4607881, 'tags': {'addr:housenumber': '2185', 'addr:postcode': '9578-000', 'addr:street': 'Rua Capitão Cruz', 'amenity': 'clinic', 'check_date': '2023-06-06', 'healthcare': 'clinic', 'internet_access': 'wlan', 'name': 'Clínica Omedic', 'opening_hours': 'Mo-Fr 08:00-12:00,13:00-18:00', 'phone': '+55 51 36322548', 'wheelchair': 'yes'}}"
"{'type': 'node', 'id': 10961827266, 'lat': -29.4695363, 'lon': -52.0834647, 'tags': {'amenity': 'pharmacy', 'check_date': '2023-06-06', 'healthcare': 'pharmacy'}}"
"{'type': 'node', 'id': 10961827268, 'lat': -29.4692341, 'lon': -52.0854222, 'tags': {'amenity': 'pharmacy', 'check_date': '2023-06-06', 'healthcare': 'pharmacy', 'name': 'Asterfarma'}}"
"{'type': 'node', 'id': 11175672773, 'lat': -29.1668364, 'lon': -51.8764559, 'tags': {'amenity': 'pharmacy', 'healthcare': 'pharmacy', 'name': 'Farmácia Lucca'}}"
"{'type': 'node', 'id': 11177494536, 'lat': -29.9671235, 'lon': -51.6288685, 'tags': {'addr:city': 'Charqueadas', 'addr:housenumber': '1001', 'addr:postcode': '96745-00', 'addr:street': 'Rodovia José Manoel Gonzales de Souza', 'addr:suburb': 'Cruz de Malta', 'amenity': 'hospital', 'healthcare': 'hospital', 'loc_name': 'Unimed Charqueadas', 'name': 'Unimed', 'operator': 'Unimed', 'operator:wikidata': 'Q7865295'}}"
"{'type': 'node', 'id': 11177497237, 'lat': -29.9670951, 'lon': -51.628787, 'tags': {'addr:city': 'Charqueadas', 'addr:housenumber': '1003', 'addr:postcode': '96745-00', 'addr:street': 'Rodovia José Manoel Gonzales de Souza', 'addr:suburb': 'Cruz de Malta', 'amenity': 'pharmacy', 'brand': 'Agafarma', 'brand:wikidata': 'Q93735939', 'healthcare': 'pharmacy', 'loc_name': 'Agafarma RS-401', 'name': 'Agafarma'}}"
"{'type': 'node', 'id': 11220870921, 'lat': -29.9582431, 'lon': -51.7224367, 'tags': {'addr:city': 'São Jerônimo', 'addr:postcode': '96700-000', 'addr:street': 'Rua Luiz Müller Picarelli', 'addr:suburb': 'Centro', 'amenity': 'pharmacy', 'dispensing': 'no', 'healthcare': 'pharmacy', 'name': 'Farmácia Básica Muncipal', 'opening_hours': 'Mo-Su 08:00-12:00; 13:00-17:00', 'operator': 'Prefeitura Municipal de São Jerônimo'}}"
"{'type': 'node', 'id': 11310009162, 'lat': -29.4822654, 'lon': -51.3095364, 'tags': {'addr:street': 'Estrada Júlio de Castilhos', 'amenity': 'clinic', 'healthcare': 'clinic', 'name': 'Unidade básica de Escadinhas'}}"
"{'type': 'node', 'id': 11450840490, 'lat': -29.7001766, 'lon': -51.3256086, 'tags': {'addr:housenumber': '4127', 'addr:postcode': '95745-000', 'addr:street': 'Avenida Coronel Orestes Lucas', 'amenity': 'clinic', 'fixme': 'Posição não exata, baseada no IEDE/RS; quais prédios exatamente fazem parte dessa amenity?', 'healthcare': 'clinic', 'name': 'Estratégia Saúde da Família Centro', 'ref:CNES': '2224763', 'short_name': 'ESF Centro', 'source': 'IEDE/RS'}}"
"{'type': 'node', 'id': 11489384625, 'lat': -29.6902022, 'lon': -51.4924249, 'tags': {'addr:city': 'Montenegro', 'addr:housenumber': '240', 'addr:postcode': '95780-000', 'addr:street': 'Rua Tietê', 'addr:suburb': 'Senai', 'amenity': 'clinic', 'healthcare': 'clinic', 'name': 'Unidade de Saúde da Família 2 Esperança', 'phone': '+55 51 3649 3529', 'ref:CNES': '3168328', 'short_name': 'USF 2 Esperança', 'source': 'IEDE/RS;Prefeitura Montenegro'}}"
"{'type': 'node', 'id': 11565075383, 'lat': -29.6954844, 'lon': -51.6929831, 'tags': {'amenity': 'pharmacy', 'name': 'Vida Farmácias'}}"
"{'type': 'node', 'id': 11573770476, 'lat': -29.715147, 'lon': -52.5044857, 'tags': {'amenity': 'pharmacy', 'name': 'Maxxi Econômica'}}"
"{'type': 'node', 'id': 11613657553, 'lat': -29.2947516, 'lon': -51.5005234, 'tags': {'addr:city': 'Carlos Barbosa', 'addr:housenumber': '64', 'addr:postcode': '95185-000', 'addr:street': 'Avenida Ivo Tramontina', 'addr:suburb': 'Centro', 'amenity': 'clinic', 'check_date': '2024-02-12', 'check_date:currency:XBT': '2024-02-12', 'contact:instagram': 'clinicaballotin', 'currency:XBT': 'yes', 'description': 'Atendimento médico presencial, telemedicina e a domicílio', 'email': 'ballotinmed@gmail.com', 'healthcare': 'clinic', 'healthcare:speciality': 'general', 'mobile': '+55 54 99262 0822', 'name': 'Ballotin Clínica Médica', 'opening_hours': '24/7', 'payment:lightning': 'yes', 'payment:lightning_contactless': 'yes', 'payment:onchain': 'yes', 'website': 'https://linktr.ee/clinicaballotin'}}"
"{'type': 'node', 'id': 11713638914, 'lat': -29.4422062, 'lon': -51.511727, 'tags': {'amenity': 'pharmacy', 'brand': 'Agafarma', 'brand:wikidata': 'Q93735939', 'healthcare': 'pharmacy', 'name': 'Agafarma'}}"
"{'type': 'node', 'id': 11788412359, 'lat': -28.8504284, 'lon': -51.8906131, 'tags': {'addr:city': 'Guaporé', 'addr:housenumber': '755', 'addr:street': 'Rua Ângelo José Bordin', 'addr:suburb': 'Centro', 'amenity': 'dentist', 'healthcare': 'dentist', 'healthcare:speciality': 'orthodontics', 'mobile': '+55 54 9639 0105', 'name': 'Oral Brasil Guaporé', 'phone': '+55  54 3443 4458', 'website': 'https://oralbrasil.com.br/guapore'}}"
"{'type': 'node', 'id': 11932008096, 'lat': -29.695121, 'lon': -51.9701684, 'tags': {'amenity': 'clinic', 'healthcare': 'clinic', 'name': 'Unidade Básica de Saúde'}}"
"{'type': 'node', 'id': 11967746422, 'lat': -29.458945, 'lon': -51.9703222, 'tags': {'addr:city': 'Lajeado', 'addr:housenumber': '360', 'addr:postcode': '95900052', 'addr:street': 'Rua Germano Berner', 'addr:suburb': 'Centro', 'air_conditioning': 'yes', 'amenity': 'clinic', 'healthcare': 'clinic', 'healthcare:speciality': 'urology;plastic_surgery;geriatrics', 'name': 'Clínica Tostes', 'wheelchair': 'yes'}}"
"{'type': 'node', 'id': 12108372092, 'lat': -29.0994393, 'lon': -51.4503846, 'tags': {'addr:city': 'Pinto Bandeira', 'addr:housenumber': '549', 'addr:postcode': '95717-000', 'addr:street': 'Rua Sete de Setembro', 'addr:suburb': 'Centro', 'amenity': 'dentist', 'check_date': '2024-08-13', 'contact:instagram': 'duo.odontologia.pb', 'currency:BRL': 'yes', 'currency:XBT': 'yes', 'description': 'Somos uma clínica odontológica, oferecemos todos os serviços de simples a complexos.', 'healthcare': 'dentist', 'name': 'Duo Odontologia', 'opening_hours': 'Mo-Fr 08:00-18:00', 'operator': 'Marcelo Carraro', 'payment:cash': 'yes', 'payment:credit_cards': 'yes', 'payment:lightning': 'yes', 'payment:lightning_contactless': 'yes', 'payment:onchain': 'yes', 'phone': '+55 54 3468 0206'}}"
"{'type': 'node', 'id': 12108448683, 'lat': -29.180874, 'lon': -51.50843, 'tags': {'addr:city': 'Bento Gonçalves', 'addr:housenumber': '746', 'addr:postcode': '95700-580', 'addr:street': 'Rua Fortaleza', 'addr:suburb': 'Botafogo', 'amenity': 'dentist', 'check_date': '2024-08-13', 'contact:instagram': 'dr.marcelocarraro', 'currency:BRL': 'yes', 'currency:XBT': 'yes', 'description': 'Foco em estética, facetas de porcelana e implantes Dentários', 'healthcare': 'dentist', 'name': 'Dentista Marcelo Carraro', 'opening_hours': 'Tu 09:00-18:00; Fr 09:00-18:00', 'operator': 'Marcelo Carraro', 'payment:cash': 'yes', 'payment:credit_cards': 'yes', 'payment:lightning': 'yes', 'payment:lightning_contactless': 'yes', 'payment:onchain': 'yes', 'phone': '+55 54 3055 4100'}}"
"{'type': 'node', 'id': 12109470143, 'lat': -29.3851941, 'lon': -52.2670738, 'tags': {'healthcare': 'laboratory', 'name': 'SantaLab'}}"
"{'type': 'node', 'id': 12109628164, 'lat': -29.1625129, 'lon': -51.6325539, 'tags': {'addr:city': 'Monte Belo do Sul', 'addr:housenumber': '100', 'addr:postcode': '95718-000', 'addr:street': 'Rua Arthur Beltrame', 'addr:suburb': 'Centro', 'amenity': 'dentist', 'check_date': '2024-08-14', 'contact:instagram': 'dr.marcelocarraro', 'currency:BRL': 'yes', 'currency:XBT': 'yes', 'description': 'Odontologia Estética Foco em estética, facetas de porcelana e implantes', 'healthcare': 'dentist', 'name': 'Dentista - Marcelo Luis Fleck Carraro', 'opening_hours': 'Mo-Fr 08:00-19:00', 'operator': 'Marcelo Carraro', 'payment:cash': 'yes', 'payment:credit_cards': 'yes', 'payment:lightning': 'yes', 'payment:lightning_contactless': 'yes', 'payment:onchain': 'yes', 'phone': '+55 54 99636 4060'}}"
"{'type': 'node', 'id': 12152397596, 'lat': -29.217096, 'lon': -51.3315498, 'tags': {'amenity': 'clinic', 'healthcare': 'clinic', 'name': 'UBS Medianeira'}}"
"{'type': 'node', 'id': 12152433636, 'lat': -29.240597, 'lon': -51.343948, 'tags': {'amenity': 'clinic', 'healthcare': 'clinic', 'name': 'UBS 1º de Maio'}}"
"{'type': 'node', 'id': 12152787839, 'lat': -29.2311353, 'lon': -51.3208474, 'tags': {'amenity': 'clinic', 'healthcare': 'clinic', 'name': 'ESF Industrial'}}"
"{'type': 'node', 'id': 12244178912, 'lat': -29.7424958, 'lon': -52.4235246, 'tags': {'addr:city': 'Santa Cruz do Sul', 'addr:housenumber': '1791', 'addr:postcode': '96835-216', 'addr:street': 'Avenida Deputado Euclides Nicolau Kliemann', 'addr:suburb': 'Castelo Branco', 'amenity': 'pharmacy', 'healthcare': 'pharmacy', 'name': 'Maxxi Econômica', 'wheelchair': 'yes'}}"
"{'type': 'node', 'id': 12294959559, 'lat': -29.2288141, 'lon': -51.3474985, 'tags': {'amenity': 'pharmacy', 'brand': 'Droga Raia', 'brand:wikidata': 'Q10357101', 'healthcare': 'pharmacy', 'name': 'Droga Raia'}}"
"{'type': 'node', 'id': 12306007423, 'lat': -29.6844155, 'lon': -51.4631714, 'tags': {'addr:city': 'Montenegro', 'addr:housenumber': '1042', 'addr:postcode': '92510-285', 'addr:street': 'Rua Santos Dumont', 'addr:suburb': 'Centro', 'amenity': 'doctors', 'healthcare': 'doctor', 'healthcare:speciality': 'psychiatry', 'healthcare:speciality:de': 'psychotherapist', 'name': 'Clínica Médica e Psiquiátrica, Dra. Susana Wildt Rosa', 'name:pt': 'Clínica Médica e Psiquiátrica, Dra. Susana Wildt Rosa', 'opening_hours': 'Mo-Sa 10:00-18:00', 'operator': 'Dra. Susana Wildt Rosa', 'phone': '+55 51 3632 2000', 'wheelchair': 'yes'}}"
"{'type': 'node', 'id': 12386828863, 'lat': -29.1677863, 'lon': -51.5174113, 'tags': {'amenity': 'pharmacy', 'brand': 'São João', 'brand:wikidata': 'Q62663306', 'healthcare': 'pharmacy', 'name': 'São João'}}"
"{'type': 'node', 'id': 12386862858, 'lat': -29.1672746, 'lon': -51.517395, 'tags': {'amenity': 'pharmacy', 'brand': 'Panvel', 'brand:wikidata': 'Q10344254', 'healthcare': 'pharmacy', 'name': 'Panvel'}}"
"{'type': 'node', 'id': 12400456641, 'lat': -29.718542, 'lon': -52.433533, 'tags': {'amenity': 'clinic', 'healthcare': 'clinic', 'name': 'CEMAI', 'official_name': 'Centro Materno de Atendimento Infantil CEMAI Dr. Albert Sabin'}}"
"{'type': 'node', 'id': 12472108310, 'lat': -28.8633262, 'lon': -51.5524706, 'tags': {'amenity': 'pharmacy', 'healthcare': 'pharmacy'}}"
