OSM_Data
"{'type': 'node', 'id': 1693148046, 'lat': -23.4086473, 'lon': -53.3727504, 'tags': {'amenity': 'hospital', 'emergency': 'yes', 'healthcare': 'hospital', 'name': 'PAM - Pronto Atendimento Medico'}}"
"{'type': 'node', 'id': 2153042935, 'lat': -23.0725914, 'lon': -52.4628447, 'tags': {'amenity': 'doctors', 'healthcare': 'doctor', 'name': 'PRIMICIA'}}"
"{'type': 'node', 'id': 2329506615, 'lat': -23.280963, 'lon': -52.5998355, 'tags': {'amenity': 'hospital', 'healthcare': 'hospital', 'name': 'Posto de Saude'}}"
"{'type': 'node', 'id': 2799810654, 'lat': -22.7722815, 'lon': -53.2668124, 'tags': {'addr:street': 'Rua Waldemar Teixeira de Farias', 'amenity': 'hospital', 'healthcare': 'hospital'}}"
"{'type': 'node', 'id': 4324591756, 'lat': -23.3163745, 'lon': -52.4716284, 'tags': {'amenity': 'clinic', 'healthcare': 'clinic'}}"
"{'type': 'node', 'id': 4324591771, 'lat': -23.3173056, 'lon': -52.4733959, 'tags': {'amenity': 'hospital', 'healthcare': 'hospital'}}"
"{'type': 'node', 'id': 5284005388, 'lat': -23.4722379, 'lon': -52.5563247, 'tags': {'amenity': 'hospital', 'healthcare': 'hospital', 'name': 'Hospital Público Municipal'}}"
"{'type': 'node', 'id': 5644372784, 'lat': -23.0789261, 'lon': -52.4639332, 'tags': {'addr:city': 'Paranavaí', 'addr:postcode': '87702-320', 'addr:street': 'Praça Brasil', 'addr:suburb': 'Centro', 'amenity': 'clinic', 'healthcare': 'clinic', 'healthcare:speciality': 'general', 'name': 'UBS Centro', 'nohousenumber': 'yes'}}"
"{'type': 'node', 'id': 7089548691, 'lat': -23.5074071, 'lon': -53.7287916, 'tags': {'amenity': 'clinic', 'healthcare': 'clinic'}}"
"{'type': 'node', 'id': 9776948951, 'lat': -23.0720514, 'lon': -52.464416, 'tags': {'amenity': 'hospital', 'name': 'Hospital Regional do Noroeste', 'operator': 'SUS'}}"
"{'type': 'node', 'id': 10029936342, 'lat': -23.0817926, 'lon': -52.4653515, 'tags': {'amenity': 'pharmacy', 'brand': 'São João', 'brand:wikidata': 'Q62663306', 'dispensing': 'yes', 'healthcare': 'pharmacy', 'name': 'São João'}}"
"{'type': 'node', 'id': 10029936348, 'lat': -23.0810505, 'lon': -52.4628092, 'tags': {'amenity': 'pharmacy', 'dispensing': 'yes', 'healthcare': 'pharmacy', 'name': 'Preço Baixo'}}"
"{'type': 'node', 'id': 12195496439, 'lat': -23.072886, 'lon': -52.46306, 'tags': {'addr:city': 'Paranavaí', 'addr:housenumber': '2490', 'addr:postcode': '87703320', 'addr:street': 'Rua Rio Grande do Sul', 'addr:suburb': 'Centro', 'blood:plasma': 'yes', 'blood:platelets': 'yes', 'blood:whole': 'yes', 'healthcare': 'blood_donation', 'healthcare:speciality': 'haematology', 'name': 'Hemonúcleo Regional de Paranavaí', 'operator': 'Secretaria de Estado da Saúde do Paraná', 'phone': '+55 44 34213588', 'website': 'https://www.saude.pr.gov.br/servicos/Saude/Doacoes/Agendar-doacao-de-sangue-no-Hemepar-xv3Kqxo1'}}"
