OSM_Data
"{'type': 'node', 'id': 296538160, 'lat': 43.9964404, 'lon': 22.8778924, 'tags': {'amenity': 'hospital', 'healthcare': 'hospital', 'note': 'neurology'}}"
"{'type': 'node', 'id': 296538664, 'lat': 43.9979094, 'lon': 22.8756939, 'tags': {'amenity': 'hospital', 'healthcare': 'hospital', 'note': 'Pulmology'}}"
"{'type': 'node', 'id': 297298184, 'lat': 43.9838758, 'lon': 22.8764, 'tags': {'amenity': 'pharmacy', 'wheelchair': 'no'}}"
"{'type': 'node', 'id': 297488623, 'lat': 43.9992192, 'lon': 22.8768871, 'tags': {'amenity': 'pharmacy'}}"
"{'type': 'node', 'id': 297488858, 'lat': 43.9859073, 'lon': 22.8757968, 'tags': {'amenity': 'pharmacy'}}"
"{'type': 'node', 'id': 297488986, 'lat': 43.9862213, 'lon': 22.8749415, 'tags': {'amenity': 'pharmacy', 'name:ro': 'Farmacie'}}"
"{'type': 'node', 'id': 297489019, 'lat': 43.991422, 'lon': 22.8751658, 'tags': {'amenity': 'pharmacy'}}"
"{'type': 'node', 'id': 297489041, 'lat': 43.9984134, 'lon': 22.8781709, 'tags': {'amenity': 'pharmacy'}}"
"{'type': 'node', 'id': 297489050, 'lat': 43.9984134, 'lon': 22.8749436, 'tags': {'amenity': 'pharmacy'}}"
"{'type': 'node', 'id': 297489088, 'lat': 43.996098, 'lon': 22.8778447, 'tags': {'amenity': 'pharmacy'}}"
"{'type': 'node', 'id': 297489197, 'lat': 43.9956534, 'lon': 22.8776301, 'tags': {'amenity': 'pharmacy'}}"
"{'type': 'node', 'id': 297489278, 'lat': 43.9919675, 'lon': 22.8739517, 'tags': {'amenity': 'pharmacy'}}"
"{'type': 'node', 'id': 297489531, 'lat': 43.99306, 'lon': 22.8766259, 'tags': {'amenity': 'pharmacy'}}"
"{'type': 'node', 'id': 626809321, 'lat': 44.3186919, 'lon': 23.8087366, 'tags': {'addr:city': 'Craiova', 'addr:country': 'RO', 'addr:housename': 'Bloc A22', 'addr:housenumber': '67', 'addr:postcode': '200523', 'addr:street': 'Calea București', 'amenity': 'pharmacy', 'name': 'Al Shefa', 'opening_hours': 'Mo-Fr 08:00-22:00; Sa, Su 08:00-20:00'}}"
"{'type': 'node', 'id': 676833309, 'lat': 43.692884, 'lon': 23.8119052, 'tags': {'amenity': 'hospital', 'healthcare': 'hospital'}}"
"{'type': 'node', 'id': 676833991, 'lat': 43.6925303, 'lon': 23.8118968, 'tags': {'amenity': 'pharmacy', 'healthcare': 'pharmacy'}}"
"{'type': 'node', 'id': 873553657, 'lat': 44.316817, 'lon': 23.794797, 'tags': {'addr:city': 'Craiova', 'addr:street': 'Calea Unirii', 'amenity': 'pharmacy', 'brand': 'Dr. Max', 'brand:wikidata': 'Q56317371', 'dispensing': 'yes', 'healthcare': 'pharmacy', 'name': 'Dr. Max', 'operator': 'Dr.Max', 'website': 'https://www.drmax.ro'}}"
"{'type': 'node', 'id': 1241959402, 'lat': 43.5308201, 'lon': 23.531404, 'tags': {'amenity': 'hospital'}}"
"{'type': 'node', 'id': 1493485941, 'lat': 44.3286887, 'lon': 23.815205, 'tags': {'addr:city': 'Craiova', 'addr:housenumber': '5', 'addr:street': 'Piața Constantin Brâncuși', 'amenity': 'pharmacy', 'brand': 'Catena', 'brand:wikidata': 'Q24035728', 'brand:wikipedia': 'ro:Farmacia Catena', 'dispensing': 'yes', 'healthcare': 'pharmacy', 'name': 'Catena'}}"
"{'type': 'node', 'id': 1709906935, 'lat': 44.1966719, 'lon': 22.6004544, 'tags': {'amenity': 'hospital', 'emergency': 'no', 'int_name': 'Ambulanta', 'name': 'Амбуланта', 'name:sr': 'Амбуланта', 'name:sr-Latn': 'Ambulanta'}}"
"{'type': 'node', 'id': 1854299621, 'lat': 43.8999758, 'lon': 23.1653218, 'tags': {'addr:city': 'Piscu Vechi', 'amenity': 'pharmacy', 'healthcare': 'pharmacy'}}"
"{'type': 'node', 'id': 1906766640, 'lat': 44.318348, 'lon': 23.7981036, 'tags': {'amenity': 'pharmacy', 'healthcare': 'pharmacy', 'name': 'Farmacia Catena'}}"
"{'type': 'node', 'id': 1906766694, 'lat': 44.318562, 'lon': 23.8159061, 'tags': {'amenity': 'pharmacy'}}"
"{'type': 'node', 'id': 2082226261, 'lat': 44.3033497, 'lon': 23.7960383, 'tags': {'amenity': 'pharmacy', 'brand': 'Catena', 'brand:wikidata': 'Q24035728', 'healthcare': 'pharmacy', 'name': 'Catena'}}"
"{'type': 'node', 'id': 2392507492, 'lat': 44.0302524, 'lon': 22.9663395, 'tags': {'amenity': 'pharmacy', 'healthcare': 'pharmacy', 'name': 'Аптека ""Плантафарм""', 'name:ro': 'Farmacie ""Plantafarm""'}}"
"{'type': 'node', 'id': 2392507501, 'lat': 44.0284149, 'lon': 22.9527191, 'tags': {'amenity': 'hospital', 'healthcare': 'hospital', 'name': 'Здравна служба Кутово', 'name:en': 'Health Service Kutovo', 'name:ro': 'Serviciul de sănătate Kutovo'}}"
"{'type': 'node', 'id': 2407682126, 'lat': 43.342423, 'lon': 23.8472158, 'tags': {'amenity': 'hospital'}}"
"{'type': 'node', 'id': 2506455890, 'lat': 44.3062059, 'lon': 23.8187316, 'tags': {'addr:city': 'Craiova', 'addr:postcode': '200576', 'addr:street': 'Strada Ion D. Sîrbu', 'amenity': 'pharmacy', 'name': 'Farmacia Prima', 'operator': 'Prima Farm'}}"
"{'type': 'node', 'id': 2507711240, 'lat': 44.3100194, 'lon': 23.8203721, 'tags': {'addr:city': 'Craiova', 'addr:street': 'Strada Împăratul Traian', 'amenity': 'pharmacy', 'name': 'Farmacia Prima', 'operator': 'Prima Farm'}}"
"{'type': 'node', 'id': 2530783072, 'lat': 44.319088, 'lon': 23.8068451, 'tags': {'addr:city': 'Craiova', 'addr:country': 'RO', 'addr:housename': 'Bloc 31B', 'addr:housenumber': '57', 'addr:postcode': '200675', 'addr:street': 'Calea București', 'amenity': 'dentist', 'healthcare': 'dentist', 'name': 'Gogoneață Dan'}}"
"{'type': 'node', 'id': 2530783073, 'lat': 44.3192308, 'lon': 23.8073107, 'tags': {'addr:city': 'Craiova', 'addr:country': 'RO', 'addr:housename': 'Bloc 31D', 'addr:housenumber': '61', 'addr:postcode': '200675', 'addr:street': 'Calea București', 'amenity': 'pharmacy', 'brand': 'Catena', 'brand:wikidata': 'Q24035728', 'healthcare': 'pharmacy', 'name': 'Catena', 'phone': '0251415225', 'website': 'https://www.catena.ro/'}}"
"{'type': 'node', 'id': 2591813145, 'lat': 44.3189326, 'lon': 23.8083913, 'tags': {'addr:city': 'Craiova', 'addr:country': 'RO', 'addr:housename': 'Bloc A24', 'addr:housenumber': '63', 'addr:postcode': '200523', 'addr:street': 'Calea București', 'amenity': 'pharmacy', 'brand': 'Dr. Max', 'name': 'Dr. Max', 'opening_hours': 'Mo-Fr 08:00-20:00; Sa 09:00-14:00; Su off'}}"
"{'type': 'node', 'id': 2592806100, 'lat': 44.3142733, 'lon': 23.8196992, 'tags': {'amenity': 'pharmacy', 'name': 'Propharma Med'}}"
"{'type': 'node', 'id': 3159550650, 'lat': 44.3053584, 'lon': 23.8135454, 'tags': {'amenity': 'pharmacy', 'name': 'Farmacia nr. 94', 'opening_hours': 'Mo-Fr 08:00-20:00; Sa, Su 08:00-13:00'}}"
"{'type': 'node', 'id': 3166981763, 'lat': 44.3065472, 'lon': 23.7912447, 'tags': {'amenity': 'pharmacy', 'name': 'Farmacia Dalina'}}"
"{'type': 'node', 'id': 3166981764, 'lat': 44.3066357, 'lon': 23.7914352, 'tags': {'amenity': 'pharmacy', 'name': 'Farmacia Medfarm'}}"
"{'type': 'node', 'id': 3166981765, 'lat': 44.3068675, 'lon': 23.792102, 'tags': {'amenity': 'pharmacy', 'name': 'Farmacia Prima'}}"
"{'type': 'node', 'id': 3166981766, 'lat': 44.3062161, 'lon': 23.7907548, 'tags': {'amenity': 'pharmacy', 'name': 'Farmacie veterinară'}}"
"{'type': 'node', 'id': 3166981767, 'lat': 44.3064905, 'lon': 23.791116, 'tags': {'amenity': 'clinic', 'name': 'Synevo'}}"
"{'type': 'node', 'id': 3166981778, 'lat': 44.3051549, 'lon': 23.8133205, 'tags': {'amenity': 'pharmacy', 'name': 'Beneva', 'opening_hours': 'Mo-Fr 08:00-21:00; Sa,Su 08:00-13:00'}}"
"{'type': 'node', 'id': 3177898275, 'lat': 44.0942031, 'lon': 23.7455755, 'tags': {'addr:city': 'Segarcea', 'amenity': 'pharmacy', 'name': 'Farmacia Anda', 'opening_hours': 'Mo-Fr 09:00-17:00; Sa 09:00-13:00'}}"
"{'type': 'node', 'id': 3179421056, 'lat': 44.3067711, 'lon': 23.7917167, 'tags': {'amenity': 'pharmacy', 'name': 'Farmacia Trei F Spital'}}"
"{'type': 'node', 'id': 3217141720, 'lat': 44.3083872, 'lon': 23.8028627, 'tags': {'amenity': 'clinic', 'name': 'Centrul Medical de Nefrologie și Dializă'}}"
"{'type': 'node', 'id': 3217141723, 'lat': 44.3100558, 'lon': 23.7968841, 'tags': {'amenity': 'pharmacy', 'healthcare': 'pharmacy', 'name': 'Farmacia Felicis', 'opening_hours': 'Mo-Fr 08:00-20:00; Sa,Su off'}}"
"{'type': 'node', 'id': 3217141728, 'lat': 44.3098349, 'lon': 23.7963748, 'tags': {'addr:city': 'Craiova', 'addr:street': 'Calea Unirii', 'amenity': 'clinic', 'healthcare': 'clinic', 'name': 'Policlinica Bunavestire'}}"
"{'type': 'node', 'id': 3217141729, 'lat': 44.3129928, 'lon': 23.7959135, 'tags': {'amenity': 'clinic', 'name': 'Policlinica Medsan'}}"
"{'type': 'node', 'id': 3217141731, 'lat': 44.3084128, 'lon': 23.8047321, 'tags': {'amenity': 'pharmacy', 'name': 'Prifarm'}}"
"{'type': 'node', 'id': 3218834789, 'lat': 44.312365, 'lon': 23.7929271, 'tags': {'addr:city': 'Craiova', 'addr:street': 'Strada Gheorghe Doja', 'amenity': 'clinic', 'healthcare': 'clinic', 'name': 'SPAD'}}"
"{'type': 'node', 'id': 3225105192, 'lat': 44.3148828, 'lon': 23.79568, 'tags': {'amenity': 'pharmacy', 'name': 'Angifarm'}}"
"{'type': 'node', 'id': 3225105203, 'lat': 44.3237404, 'lon': 23.7914233, 'tags': {'addr:city': 'Craiova', 'addr:street': 'Bulevardul Nicolae Titulescu', 'amenity': 'pharmacy', 'brand': 'Catena', 'brand:wikidata': 'Q24035728', 'healthcare': 'pharmacy', 'name': 'Catena'}}"
"{'type': 'node', 'id': 3225105210, 'lat': 44.3239801, 'lon': 23.7910082, 'tags': {'addr:city': 'Craiova', 'addr:street': 'Bulevardul Nicolae Titulescu', 'amenity': 'pharmacy', 'healthcare': 'pharmacy', 'name': 'Cynara'}}"
"{'type': 'node', 'id': 3225105215, 'lat': 44.3146643, 'lon': 23.7955622, 'tags': {'amenity': 'pharmacy', 'name': 'Farmaplant'}}"
"{'type': 'node', 'id': 3225105245, 'lat': 44.3234989, 'lon': 23.7917784, 'tags': {'addr:city': 'Craiova', 'addr:housenumber': '10', 'addr:street': 'Bulevardul Nicolae Titulescu', 'amenity': 'pharmacy', 'brand': 'Dr. Max', 'brand:wikidata': 'Q56317371', 'healthcare': 'pharmacy', 'name': 'Dr. Max', 'operator': 'Dr.Max', 'website': 'https://www.drmax.ro'}}"
"{'type': 'node', 'id': 3225110194, 'lat': 44.3144069, 'lon': 23.7956444, 'tags': {'addr:housenumber': '50', 'addr:street': 'Calea Unirii', 'amenity': 'pharmacy', 'name': 'Montero'}}"
"{'type': 'node', 'id': 3225110207, 'lat': 44.3231177, 'lon': 23.7922033, 'tags': {'addr:city': 'Craiova', 'addr:street': 'Bulevardul Nicolae Titulescu', 'amenity': 'pharmacy'}}"
"{'type': 'node', 'id': 3226299140, 'lat': 44.3129057, 'lon': 23.8017601, 'tags': {'amenity': 'clinic', 'name': 'Centrul Medical Renașterea'}}"
"{'type': 'node', 'id': 3226299145, 'lat': 44.3087652, 'lon': 23.8049993, 'tags': {'amenity': 'clinic', 'name': 'Policlinica Medaura'}}"
"{'type': 'node', 'id': 3226299147, 'lat': 44.3138242, 'lon': 23.8018177, 'tags': {'amenity': 'clinic', 'name': 'Signal Iduna'}}"
"{'type': 'node', 'id': 3227962058, 'lat': 44.3261593, 'lon': 23.7873051, 'tags': {'addr:city': 'Craiova', 'addr:housenumber': '52', 'addr:street': 'Bulevardul Nicolae Titulescu', 'amenity': 'clinic', 'healthcare': 'clinic', 'healthcare:speciality': 'internal;dermatology;ophthalmology;paediatrics;psychiatry;cardiology;neurology;diabetology;stomatology;pulmonology;urology;endocrinology;gastroenterology;surgery;rheumatology;orthodontics;dental_oral_maxillo_facial_surgery;occupational', 'name': 'Centrul Medical Camen', 'name:en': 'Camen Medical Center', 'name:ro': 'Centrul Medical Camen', 'opening_hours': 'Mo-Fr 08:00-20:00', 'phone': '0351420130;0251563328;0371340667', 'website': 'https://camen.ro'}}"
"{'type': 'node', 'id': 3227962961, 'lat': 44.3201584, 'lon': 23.8012017, 'tags': {'addr:city': 'Craiova', 'addr:country': 'RO', 'addr:housename': 'Bloc 17B', 'addr:housenumber': '27', 'addr:postcode': '200678', 'addr:street': 'Calea București', 'amenity': 'pharmacy', 'check_date': '2023-10-15', 'name': 'Farmacia Trei F', 'opening_hours': '24/7', 'phone': '0251411787'}}"
"{'type': 'node', 'id': 3227962962, 'lat': 44.3257762, 'lon': 23.7882662, 'tags': {'addr:city': 'Craiova', 'addr:housenumber': '35', 'addr:street': 'Bulevardul Nicolae Titulescu', 'amenity': 'pharmacy', 'healthcare': 'pharmacy', 'name': 'Farmacia Trei F Titulescu'}}"
"{'type': 'node', 'id': 3227962964, 'lat': 44.3244893, 'lon': 23.7909844, 'tags': {'addr:city': 'Craiova', 'addr:street': 'Bulevardul Nicolae Titulescu', 'amenity': 'pharmacy', 'healthcare': 'pharmacy', 'name': 'LifePlus'}}"
"{'type': 'node', 'id': 3228663247, 'lat': 44.3186258, 'lon': 23.7977788, 'tags': {'amenity': 'pharmacy', 'name': 'Anacora'}}"
"{'type': 'node', 'id': 3228663253, 'lat': 44.3184125, 'lon': 23.7999915, 'tags': {'addr:city': 'Craiova', 'addr:housenumber': '12', 'addr:street': 'Strada Alexandru Ioan Cuza', 'amenity': 'pharmacy', 'healthcare': 'pharmacy', 'name': 'Farmacia Rețeta'}}"
"{'type': 'node', 'id': 3228663269, 'lat': 44.3183713, 'lon': 23.7978465, 'tags': {'amenity': 'pharmacy', 'brand': 'Dr. Max', 'brand:wikidata': 'Q56317371', 'healthcare': 'pharmacy', 'name': 'Dr. Max', 'operator': 'Dr.Max', 'website': 'https://www.drmax.ro'}}"
"{'type': 'node', 'id': 3229736257, 'lat': 44.3256942, 'lon': 23.7885, 'tags': {'addr:city': 'Craiova', 'addr:street': 'Bulevardul Nicolae Titulescu', 'amenity': 'clinic', 'healthcare': 'clinic', 'name': 'Clinica Dr. Camelia Pătru'}}"
"{'type': 'node', 'id': 3229736258, 'lat': 44.324531, 'lon': 23.7908977, 'tags': {'addr:city': 'Craiova', 'addr:street': 'Bulevardul Nicolae Titulescu', 'brand': 'Clinica Sante', 'brand:wikidata': 'Q121080834', 'healthcare': 'sample_collection', 'name': 'Clinica Sante'}}"
"{'type': 'node', 'id': 3229749661, 'lat': 44.3209457, 'lon': 23.7971463, 'tags': {'addr:city': 'Craiova', 'addr:housenumber': '5', 'addr:street': 'Calea București', 'amenity': 'pharmacy', 'healthcare': 'pharmacy', 'name': 'Farmacia Olfarm'}}"
"{'type': 'node', 'id': 3229749662, 'lat': 44.3329407, 'lon': 23.7814205, 'tags': {'addr:city': 'Craiova', 'addr:street': 'Strada George Enescu', 'amenity': 'pharmacy', 'healthcare': 'pharmacy', 'name': 'Farmacia Prima'}}"
"{'type': 'node', 'id': 3229749680, 'lat': 44.310012, 'lon': 23.803804, 'tags': {'addr:housenumber': '23A', 'addr:street': 'Strada Caracal', 'amenity': 'clinic', 'name': 'Centrul de Oncologie Sfântul Nectarie Craiova'}}"
"{'type': 'node', 'id': 3229749726, 'lat': 44.3261802, 'lon': 23.7874186, 'tags': {'addr:city': 'Craiova', 'addr:housenumber': '35', 'addr:street': 'Bulevardul Nicolae Titulescu', 'amenity': 'pharmacy', 'brand': 'Catena', 'brand:wikidata': 'Q24035728', 'healthcare': 'pharmacy', 'name': 'Catena'}}"
"{'type': 'node', 'id': 3243467272, 'lat': 44.3099594, 'lon': 23.8218513, 'tags': {'amenity': 'pharmacy', 'name': 'Farmacia Hygea'}}"
"{'type': 'node', 'id': 3243467273, 'lat': 44.3253381, 'lon': 23.7780069, 'tags': {'addr:city': 'Craiova', 'addr:street': 'Strada Maria Tănase', 'amenity': 'pharmacy', 'name': 'Farmacia Hygea'}}"
"{'type': 'node', 'id': 3243467275, 'lat': 44.3097438, 'lon': 23.8211586, 'tags': {'addr:city': 'Craiova', 'addr:place': 'bl. P2-3', 'addr:postcode': '200745', 'addr:street': 'Strada Caracal', 'amenity': 'pharmacy', 'name': 'Farmacia Trei F'}}"
"{'type': 'node', 'id': 3243467297, 'lat': 44.3276557, 'lon': 23.7799537, 'tags': {'addr:city': 'Craiova', 'addr:housenumber': '108', 'addr:street': 'Bulevardul Nicolae Titulescu', 'healthcare': 'alternative', 'name': 'Magia Plantelor'}}"
"{'type': 'node', 'id': 3243467309, 'lat': 44.3178498, 'lon': 23.7900822, 'tags': {'amenity': 'clinic', 'healthcare': 'clinic', 'name': 'Terrapsi'}}"
"{'type': 'node', 'id': 3243467626, 'lat': 44.3257971, 'lon': 23.7782146, 'tags': {'addr:city': 'Craiova', 'addr:street': 'Strada Maria Tănase', 'amenity': 'clinic', 'name': 'ENDOlife'}}"
"{'type': 'node', 'id': 3244663971, 'lat': 44.3263664, 'lon': 23.7852138, 'tags': {'addr:city': 'Craiova', 'addr:housenumber': '35', 'addr:street': 'Bulevardul Nicolae Titulescu', 'amenity': 'pharmacy', 'healthcare': 'pharmacy', 'name': 'Farmacia Hygea'}}"
"{'type': 'node', 'id': 3244663985, 'lat': 44.314519, 'lon': 23.8309876, 'tags': {'addr:city': 'Craiova', 'addr:country': 'RO', 'addr:housename': 'Bloc N4', 'addr:housenumber': '133', 'addr:postcode': '200617', 'addr:street': 'Calea București', 'amenity': 'pharmacy', 'name': 'Pharma Plus', 'opening_hours': 'Mo-Su 07:00-24:00'}}"
"{'type': 'node', 'id': 3244664004, 'lat': 44.3100597, 'lon': 23.8201461, 'tags': {'amenity': 'clinic'}}"
"{'type': 'node', 'id': 3248497770, 'lat': 44.311881, 'lon': 23.7894604, 'tags': {'addr:city': 'Craiova', 'addr:street': 'Bulevardul 1 Mai', 'amenity': 'pharmacy', 'healthcare': 'pharmacy', 'name': 'Pharma Plus'}}"
"{'type': 'node', 'id': 3252797041, 'lat': 44.3259849, 'lon': 23.8092712, 'tags': {'addr:city': 'Craiova', 'addr:housenumber': '99', 'addr:street': 'Bulevardul Carol I', 'amenity': 'clinic', 'healthcare': 'clinic', 'name': 'Centrul Medical Dr. Ianoși'}}"
"{'type': 'node', 'id': 3252797045, 'lat': 44.322778, 'lon': 23.821298, 'tags': {'amenity': 'pharmacy', 'name': 'Farmacia Dona'}}"
"{'type': 'node', 'id': 3252797046, 'lat': 44.324753, 'lon': 23.8064694, 'tags': {'amenity': 'pharmacy', 'name': 'Farmacia Petryfarm'}}"
"{'type': 'node', 'id': 3252797056, 'lat': 44.3248117, 'lon': 23.8059194, 'tags': {'addr:city': 'Craiova', 'addr:housenumber': '71', 'addr:street': 'Bulevardul Carol I', 'amenity': 'clinic', 'healthcare': 'clinic', 'name': 'Policlinica Sfântul Ilie'}}"
"{'type': 'node', 'id': 3252797057, 'lat': 44.3231112, 'lon': 23.8040071, 'tags': {'addr:city': 'Craiova', 'addr:housenumber': '50', 'addr:street': 'Bulevardul Carol I', 'amenity': 'clinic', 'healthcare': 'clinic', 'name': 'Policlinica Tommed'}}"
"{'type': 'node', 'id': 3253648694, 'lat': 44.3021342, 'lon': 23.798545, 'tags': {'amenity': 'pharmacy', 'name': 'Farmacia Nigela Parc'}}"
"{'type': 'node', 'id': 3253648695, 'lat': 44.3019538, 'lon': 23.798608, 'tags': {'amenity': 'pharmacy', 'name': 'Farmacia Olfarm'}}"
"{'type': 'node', 'id': 3253648703, 'lat': 44.3027497, 'lon': 23.7983132, 'tags': {'amenity': 'clinic', 'name': 'Maternitate Alpha Medical'}}"
"{'type': 'node', 'id': 3253648712, 'lat': 44.3060249, 'lon': 23.7976378, 'tags': {'addr:city': 'Craiova', 'addr:housenumber': '143', 'addr:street': 'Calea Unirii', 'amenity': 'clinic', 'healthcare': 'clinic', 'name': 'Renamed Dialcare'}}"
"{'type': 'node', 'id': 3253650406, 'lat': 44.3075228, 'lon': 23.7971646, 'tags': {'addr:city': 'Craiova', 'addr:street': 'Calea Unirii', 'amenity': 'pharmacy', 'healthcare': 'pharmacy', 'name': 'Olfarm'}}"
"{'type': 'node', 'id': 3293300031, 'lat': 44.3168891, 'lon': 23.815002, 'tags': {'amenity': 'pharmacy', 'healthcare': 'pharmacy', 'name': 'Farmacia AN-RA'}}"
"{'type': 'node', 'id': 3293300038, 'lat': 44.3158059, 'lon': 23.8204554, 'tags': {'amenity': 'pharmacy', 'name': 'Pharma Plus'}}"
"{'type': 'node', 'id': 3293300044, 'lat': 44.3172636, 'lon': 23.8130235, 'tags': {'amenity': 'pharmacy', 'name': 'Siti Pharma'}}"
"{'type': 'node', 'id': 3293308066, 'lat': 44.3145475, 'lon': 23.8263704, 'tags': {'addr:city': 'Craiova', 'addr:street': 'Calea București', 'amenity': 'pharmacy', 'healthcare': 'pharmacy'}}"
"{'type': 'node', 'id': 3323207816, 'lat': 44.3172286, 'lon': 23.8090301, 'tags': {'addr:city': 'Craiova', 'addr:street': 'Strada Alexandru Ioan Cuza', 'amenity': 'pharmacy', 'healthcare': 'pharmacy', 'name': 'Alifarm'}}"
"{'type': 'node', 'id': 3323207823, 'lat': 44.3200881, 'lon': 23.817671, 'tags': {'amenity': 'pharmacy', 'name': 'Farmacia verde'}}"
"{'type': 'node', 'id': 3323207834, 'lat': 44.3180977, 'lon': 23.8034179, 'tags': {'amenity': 'clinic', 'name': 'Regina Maria'}}"
"{'type': 'node', 'id': 3334259295, 'lat': 44.3190474, 'lon': 23.821686, 'tags': {'addr:city': 'Craiova', 'addr:country': 'RO', 'addr:housenumber': '17', 'addr:postcode': '200480', 'addr:street': 'Strada Petre Ispirescu', 'amenity': 'pharmacy', 'brand': 'Catena', 'brand:wikidata': 'Q24035728', 'healthcare': 'pharmacy', 'name': 'Catena'}}"
"{'type': 'node', 'id': 3334259309, 'lat': 44.3180451, 'lon': 23.8120701, 'tags': {'addr:city': 'Craiova', 'addr:country': 'RO', 'addr:housename': 'Bloc A13', 'addr:housenumber': '85', 'addr:postcode': '200473', 'addr:street': 'Calea București', 'amenity': 'pharmacy', 'name': ""Farmacia Gaby's Farm"", 'phone': '0745612557'}}"
"{'type': 'node', 'id': 3334259310, 'lat': 44.3195629, 'lon': 23.804334, 'tags': {'addr:city': 'Craiova', 'addr:country': 'RO', 'addr:housename': 'Bloc 23A', 'addr:housenumber': '7', 'addr:postcode': '200676', 'addr:street': 'Strada Nicolae Bălcescu', 'amenity': 'pharmacy', 'healthcare': 'pharmacy', 'name': 'Farmacia Hepites', 'phone': '0351405659'}}"
"{'type': 'node', 'id': 3334259312, 'lat': 44.3193163, 'lon': 23.8074821, 'tags': {'addr:city': 'Craiova', 'addr:country': 'RO', 'addr:housename': 'Bloc 31D', 'addr:housenumber': '61', 'addr:postcode': '200675', 'addr:street': 'Calea București', 'amenity': 'pharmacy', 'brand': 'Help Net', 'brand:wikidata': 'Q12729923', 'healthcare': 'pharmacy', 'name': 'Help Net'}}"
"{'type': 'node', 'id': 3334259314, 'lat': 44.3196471, 'lon': 23.8034607, 'tags': {'addr:city': 'Craiova', 'addr:country': 'RO', 'addr:housename': 'Bloc 21D', 'addr:housenumber': '35', 'addr:postcode': '200677', 'addr:street': 'Calea București', 'amenity': 'pharmacy', 'name': 'Mundofarm', 'opening_hours': '24/7'}}"
"{'type': 'node', 'id': 3334259316, 'lat': 44.3175187, 'lon': 23.8146908, 'tags': {'addr:city': 'Craiova', 'addr:country': 'RO', 'addr:housename': 'Bloc A11', 'addr:housenumber': '95', 'addr:postcode': '200473', 'addr:street': 'Calea București', 'amenity': 'pharmacy', 'name': 'Farmacia Trei F Rotonda', 'opening_hours': 'Mo-Su 08:00-22:00', 'phone': '0251448499'}}"
"{'type': 'node', 'id': 3334259322, 'lat': 44.3180633, 'lon': 23.8119719, 'tags': {'addr:city': 'Craiova', 'addr:country': 'RO', 'addr:housename': 'Bloc A13', 'addr:housenumber': '85', 'addr:postcode': '200473', 'addr:street': 'Calea București', 'amenity': 'clinic', 'name': 'Synlab'}}"
"{'type': 'node', 'id': 3334259334, 'lat': 44.3165039, 'lon': 23.8199169, 'tags': {'addr:city': 'Craiova', 'addr:country': 'RO', 'addr:housename': 'Bloc A1', 'addr:housenumber': '105', 'addr:postcode': '200477', 'addr:street': 'Calea București', 'amenity': 'pharmacy', 'name': 'Catena'}}"
"{'type': 'node', 'id': 3334259335, 'lat': 44.3180685, 'lon': 23.8211871, 'tags': {'amenity': 'pharmacy', 'name': 'Petryfarm'}}"
"{'type': 'node', 'id': 3334259338, 'lat': 44.3193878, 'lon': 23.8216986, 'tags': {'amenity': 'pharmacy', 'name': 'Plafar'}}"
"{'type': 'node', 'id': 3334259339, 'lat': 44.3195515, 'lon': 23.8215551, 'tags': {'addr:city': 'Craiova', 'addr:country': 'RO', 'addr:housenumber': '10', 'addr:postcode': '200480', 'addr:street': 'Strada Petre Ispirescu', 'amenity': 'pharmacy', 'healthcare': 'pharmacy', 'name': 'Plafar'}}"
"{'type': 'node', 'id': 3334259529, 'lat': 44.3202672, 'lon': 23.8190268, 'tags': {'amenity': 'pharmacy'}}"
"{'type': 'node', 'id': 3334355637, 'lat': 44.3194724, 'lon': 23.8075143, 'tags': {'amenity': 'pharmacy', 'name': 'Farmacia Dona'}}"
"{'type': 'node', 'id': 3334355638, 'lat': 44.3192264, 'lon': 23.8089202, 'tags': {'amenity': 'pharmacy', 'name': 'Farmacia Hipocrat'}}"
"{'type': 'node', 'id': 3336744757, 'lat': 44.321235, 'lon': 23.8078996, 'tags': {'addr:city': 'Craiova', 'addr:country': 'RO', 'addr:housenumber': '46', 'addr:postcode': '200463', 'addr:street': 'Strada Vasile Alecsandri', 'brand': 'Clinica Sante', 'brand:wikidata': 'Q121080834', 'email': 'craiova@clinica-sante.ro', 'fax': '0251425660', 'healthcare': 'laboratory', 'name': 'Clinica Sante', 'opening_hours': 'Mo-Fr 07:30-18:00; Sa 08:00-14:00; Su off', 'phone': '0251425660', 'sample_collection': 'yes', 'website': 'https://www.clinica-sante.ro/sante-craiova/'}}"
"{'type': 'node', 'id': 3336744767, 'lat': 44.3208689, 'lon': 23.7945888, 'tags': {'amenity': 'pharmacy', 'brand': 'Dr. Max', 'brand:wikidata': 'Q56317371', 'healthcare': 'pharmacy', 'name': 'Dr. Max', 'operator': 'Dr.Max', 'website': 'https://www.drmax.ro'}}"
"{'type': 'node', 'id': 3336744768, 'lat': 44.3203274, 'lon': 23.8080822, 'tags': {'addr:city': 'Craiova', 'addr:country': 'RO', 'addr:housenumber': '24', 'addr:postcode': '200467', 'addr:street': 'Strada Frații Golești', 'amenity': 'clinic', 'name': 'Tiens', 'website': 'http://ro.tiens.com'}}"
"{'type': 'node', 'id': 3336744777, 'lat': 44.3185797, 'lon': 23.8063754, 'tags': {'amenity': 'pharmacy'}}"
"{'type': 'node', 'id': 3360142439, 'lat': 44.320591, 'lon': 23.8218827, 'tags': {'amenity': 'pharmacy', 'name': 'Farmacia Gebafarm Rovine'}}"
"{'type': 'node', 'id': 3360142444, 'lat': 44.3202813, 'lon': 23.8217572, 'tags': {'amenity': 'clinic', 'name': 'OB-GYN'}}"
"{'type': 'node', 'id': 3360142445, 'lat': 44.3201141, 'lon': 23.8222172, 'tags': {'amenity': 'pharmacy', 'name': 'Plafar'}}"
"{'type': 'node', 'id': 3387591359, 'lat': 44.3236378, 'lon': 23.7940368, 'tags': {'amenity': 'clinic', 'name': 'Centrul medical MaDonna Maria'}}"
"{'type': 'node', 'id': 3423250859, 'lat': 44.3366121, 'lon': 23.777431, 'tags': {'addr:city': 'Craiova', 'addr:street': 'Strada George Enescu', 'amenity': 'pharmacy', 'healthcare': 'pharmacy', 'name': 'Farmacia Anedio'}}"
"{'type': 'node', 'id': 3423250860, 'lat': 44.3364636, 'lon': 23.7776101, 'tags': {'addr:city': 'Craiova', 'addr:street': 'Strada George Enescu', 'amenity': 'pharmacy', 'healthcare': 'pharmacy', 'name': 'Farmacia Catena'}}"
"{'type': 'node', 'id': 3423250862, 'lat': 44.3335316, 'lon': 23.7806801, 'tags': {'addr:city': 'Craiova', 'addr:street': 'Strada George Enescu', 'amenity': 'dentist', 'healthcare': 'dentist', 'healthcare:speciality': 'dentist', 'name': 'Magic Dent', 'survey:date': '2020-08-21'}}"
"{'type': 'node', 'id': 3423250863, 'lat': 44.3361739, 'lon': 23.7779572, 'tags': {'addr:city': 'Craiova', 'addr:street': 'Strada George Enescu', 'amenity': 'clinic', 'healthcare': 'clinic', 'name': 'Medical Center'}}"
"{'type': 'node', 'id': 3423253942, 'lat': 44.3362842, 'lon': 23.7777981, 'tags': {'addr:city': 'Craiova', 'addr:street': 'Strada George Enescu', 'amenity': 'pharmacy', 'healthcare': 'pharmacy'}}"
"{'type': 'node', 'id': 3446956589, 'lat': 44.3254082, 'lon': 23.806708, 'tags': {'addr:city': 'Craiova', 'addr:housenumber': '111', 'addr:street': 'Strada Ștefan cel Mare', 'amenity': 'clinic', 'healthcare': 'clinic', 'name': 'Policlinica Sfântul Ilie'}}"
"{'type': 'node', 'id': 3807220142, 'lat': 44.3092358, 'lon': 23.8049514, 'tags': {'addr:city': 'Craiova', 'addr:country': 'RO', 'addr:housenumber': '33', 'addr:postcode': '200347', 'addr:postcode:source': 'Date de la Poșta Română, publicate sub Licența pentru Guvernare Deschisă v1.0 la http://date.gov.ro/organization/posta-romana', 'addr:street': 'Strada Caracal', 'amenity': 'clinic', 'name': 'Clinica Medisof'}}"
"{'type': 'node', 'id': 3821605403, 'lat': 44.3237659, 'lon': 23.7925166, 'tags': {'addr:city': 'Craiova', 'amenity': 'pharmacy', 'brand': 'Farmacia Dona', 'brand:wikidata': 'Q12726919', 'healthcare': 'pharmacy', 'name': 'Farmacia Dona'}}"
"{'type': 'node', 'id': 3821605406, 'lat': 44.3271229, 'lon': 23.7996815, 'tags': {'addr:city': 'Craiova', 'healthcare': 'yes', 'name': 'Prokinetic'}}"
"{'type': 'node', 'id': 3822711552, 'lat': 44.3153897, 'lon': 23.8091356, 'tags': {'addr:city': 'Craiova', 'addr:country': 'RO', 'addr:housenumber': '69', 'addr:postcode': '200530', 'addr:street': 'Strada Împăratul Traian', 'amenity': 'clinic', 'email': 'office@sanatateacraiova.ro', 'name': 'Centrul Medical ""Sănătatea""', 'opening_hours': 'Mo-Fr 10:00-20:00', 'phone': '0351458808', 'website': 'https://www.sanatateacraiova.ro/'}}"
"{'type': 'node', 'id': 3822715361, 'lat': 44.3292924, 'lon': 23.8038203, 'tags': {'addr:city': 'Craiova', 'amenity': 'pharmacy', 'name': 'Farmacia Dona'}}"
"{'type': 'node', 'id': 3822715362, 'lat': 44.3299585, 'lon': 23.8045597, 'tags': {'amenity': 'pharmacy', 'name': 'Farmacia Olfarm'}}"
"{'type': 'node', 'id': 3822715363, 'lat': 44.329363, 'lon': 23.8040206, 'tags': {'addr:city': 'Craiova', 'amenity': 'pharmacy', 'name': 'Farmacia Petryfarm'}}"
"{'type': 'node', 'id': 3822715364, 'lat': 44.3277939, 'lon': 23.8151382, 'tags': {'addr:city': 'Craiova', 'addr:street': 'Bulevardul Dacia', 'amenity': 'pharmacy', 'healthcare': 'pharmacy', 'name': 'Farmacia Catena', 'opening_hours': '08:00-24:00'}}"
"{'type': 'node', 'id': 3822715365, 'lat': 44.3301263, 'lon': 23.8049887, 'tags': {'amenity': 'pharmacy', 'name': 'Farmacia Provita'}}"
"{'type': 'node', 'id': 3822715366, 'lat': 44.3278189, 'lon': 23.815265, 'tags': {'addr:city': 'Craiova', 'amenity': 'pharmacy', 'brand': 'Dr. Max', 'brand:wikidata': 'Q12740640', 'brand:wikipedia': 'ro:Sensiblu', 'dispensing': 'yes', 'healthcare': 'pharmacy', 'name': 'Dr. Max'}}"
"{'type': 'node', 'id': 3976952573, 'lat': 43.4026779, 'lon': 23.2345188, 'tags': {'amenity': 'clinic', 'name': 'Център за Спешна Медицинска Помощ'}}"
"{'type': 'node', 'id': 4015377105, 'lat': 44.3157058, 'lon': 23.8084196, 'tags': {'addr:city': 'Craiova', 'addr:country': 'RO', 'addr:housenumber': '57', 'addr:postcode': '200530', 'addr:street': 'Strada Împăratul Traian', 'amenity': 'doctors', 'email': 'cabinet@endocrine-craiova.ro', 'healthcare': 'doctor', 'name': 'CMI Paraliov Andreea', 'opening_hours': 'Mo 10:00-13:00, 15:30-19:00; Tu-Th 15:30-19:00', 'phone': '0723189359', 'website': 'https://www.endocrine-craiova.ro/'}}"
"{'type': 'node', 'id': 4015377108, 'lat': 44.3144882, 'lon': 23.8106346, 'tags': {'addr:city': 'Craiova', 'addr:country': 'RO', 'addr:housenumber': '93', 'addr:postcode': '200487', 'addr:street': 'Strada Împăratul Traian', 'amenity': 'clinic', 'name': 'Centrul Medical ""Sfântul Nicolae""', 'opening_hours': 'Mo-Fr 08:00-20:00', 'phone': '0351401577'}}"
"{'type': 'node', 'id': 4028841526, 'lat': 44.3199162, 'lon': 23.807533, 'tags': {'addr:city': 'Craiova', 'addr:country': 'RO', 'addr:housenumber': '9', 'addr:postcode': '200467', 'addr:street': 'Strada Frații Golești', 'amenity': 'clinic', 'email': 'centrulmedicalbataiosu@uv.ro', 'name': 'Centrul medical dr. Bătăiosu', 'opening_hours': 'Mo-Fr 08:00-20:00; Sa-Su off', 'phone': '0251544445', 'website': 'http://centrulmedicalbataiosu.uv.ro'}}"
"{'type': 'node', 'id': 4028841529, 'lat': 44.320988, 'lon': 23.8089713, 'tags': {'addr:city': 'Craiova', 'addr:country': 'RO', 'addr:housenumber': '58', 'addr:postcode': '200463', 'addr:street': 'Strada Vasile Alecsandri', 'amenity': 'pharmacy', 'name': 'Farmacia Izvorul Tămăduirii'}}"
"{'type': 'node', 'id': 4067089668, 'lat': 44.3155858, 'lon': 23.8239672, 'tags': {'addr:city': 'Craiova', 'addr:country': 'RO', 'addr:housenumber': '109', 'addr:place': 'Bloc R2', 'addr:postcode': '200516', 'addr:street': 'Calea București', 'amenity': 'clinic', 'email': 'office@phoenix-hospital.ro', 'name': 'Centrul Medical Phoenix', 'phone': '0351466211', 'website': 'https://phoenix-hospital.ro/'}}"
"{'type': 'node', 'id': 4199118079, 'lat': 44.3202117, 'lon': 23.8008593, 'tags': {'addr:city': 'Craiova', 'addr:country': 'RO', 'addr:housename': 'Bloc 17A', 'addr:housenumber': '25', 'addr:postcode': '200678', 'addr:street': 'Calea București', 'amenity': 'clinic', 'email': 'contact@medeeaclinic.ro', 'name': 'Medeea Clinic', 'opening_hours': 'Mo-Fr 13:00-19:00; Sa-Su off', 'phone': '0351421843', 'website': 'http://www.medeeaclinic.ro'}}"
"{'type': 'node', 'id': 4270007555, 'lat': 44.3024164, 'lon': 23.820187, 'tags': {'addr:city': 'Craiova', 'addr:country': 'RO', 'addr:housenumber': '95', 'addr:postcode': '200553', 'addr:street': 'Strada Caracal', 'amenity': 'pharmacy', 'brand': 'Farmacia Dona', 'brand:wikidata': 'Q12726919', 'healthcare': 'pharmacy', 'name': 'Farmacia Dona', 'opening_hours': 'Mo-Fr 08:00-21:00; Sa 08:00-16:00; Su 08:00-14:00', 'phone': '0372401283', 'website': 'http://farmaciiledona.ro/'}}"
"{'type': 'node', 'id': 4270186989, 'lat': 44.3272012, 'lon': 23.781625, 'tags': {'addr:city': 'Craiova', 'addr:housenumber': '104', 'addr:street': 'Bulevardul Nicolae Titulescu', 'amenity': 'clinic', 'name': 'Neurolife'}}"
"{'type': 'node', 'id': 4383509594, 'lat': 44.3171173, 'lon': 23.8187571, 'tags': {'addr:housenumber': '2', 'addr:street': 'Strada Ștefan Velovan', 'amenity': 'clinic', 'email': 'edy.bondoc@yahoo.com', 'healthcare': 'clinic', 'name': 'Cabinet Psihologie Eduard Bondoc', 'opening_hours': 'Mo-Fr 14:00-19:00', 'phone': '0723948913', 'website': 'https://www.psihoterapie-craiova.ro/'}}"
"{'type': 'node', 'id': 4428547790, 'lat': 44.3229665, 'lon': 23.7896766, 'tags': {'addr:city': 'Craiova', 'addr:country': 'RO', 'addr:housenumber': '18', 'addr:postcode': '200217', 'addr:street': 'Strada Constantin Lecca', 'amenity': 'clinic', 'email': 'office@prioritymedical.ro', 'healthcare': 'clinic', 'healthcare:speciality': 'general', 'name': 'Priority Medical', 'opening_hours': 'Mo-Fr 08:00-14:00; Sa 08:00-12:00; Su off', 'phone': '0351408366', 'website': 'https://prioritymedical.ro/'}}"
"{'type': 'node', 'id': 4565578337, 'lat': 44.3126076, 'lon': 23.8270883, 'tags': {'addr:city': 'Craiova', 'addr:country': 'RO', 'addr:housenumber': '72', 'addr:postcode': '200446', 'addr:street': 'Calea București', 'amenity': 'pharmacy', 'email': 'craiova.kaufland@internity.ro', 'fax': '+40761101104', 'name': 'Farmacia Dr. Max', 'opening_hours': 'Mo-Fr 09:00-21:00; Su 09:00-19:00; Sa 09:00-20:00', 'website': 'https://www.drmax.ro'}}"
"{'type': 'node', 'id': 4566566070, 'lat': 43.9970619, 'lon': 22.9332015, 'tags': {'addr:city': 'Calafat', 'addr:housenumber': '1', 'addr:postcode': '205200', 'addr:street': 'Strada 22 Decembrie', 'amenity': 'clinic', 'contact:website': 'http://www.policlinicabunavestire.ro/', 'healthcare': 'clinic', 'name': 'Top Med Buna Vestire', 'phone': '+40769047898'}}"
"{'type': 'node', 'id': 4798909579, 'lat': 43.1987003, 'lon': 23.5463128, 'tags': {'amenity': 'pharmacy', 'healthcare': 'pharmacy'}}"
"{'type': 'node', 'id': 4837214651, 'lat': 44.0987822, 'lon': 23.744372, 'tags': {'amenity': 'pharmacy', 'name': 'Farmacia Al Shefa'}}"
"{'type': 'node', 'id': 4908064285, 'lat': 44.024977, 'lon': 23.347739, 'tags': {'amenity': 'pharmacy', 'name': 'Sigmathfarm'}}"
"{'type': 'node', 'id': 4908064810, 'lat': 44.1432088, 'lon': 23.4894535, 'tags': {'amenity': 'pharmacy', 'name': 'MDM Farm'}}"
"{'type': 'node', 'id': 4996883522, 'lat': 43.1479594, 'lon': 23.7080739, 'tags': {'amenity': 'dentist', 'healthcare': 'dentist'}}"
"{'type': 'node', 'id': 5041453024, 'lat': 44.0286703, 'lon': 22.7522764, 'tags': {'amenity': 'clinic'}}"
"{'type': 'node', 'id': 5061724121, 'lat': 44.0288965, 'lon': 22.7541958, 'tags': {'amenity': 'pharmacy', 'name': 'Аптека', 'name:bg': 'Аптека'}}"
"{'type': 'node', 'id': 5145063321, 'lat': 43.987313, 'lon': 22.8764666, 'tags': {'amenity': 'hospital', 'name': '""Биомед - 99""', 'name:ro': '""Biomed - 99""', 'wheelchair': 'no'}}"
"{'type': 'node', 'id': 5232740829, 'lat': 43.1575847, 'lon': 22.5871776, 'tags': {'amenity': 'pharmacy'}}"
"{'type': 'node', 'id': 5318976840, 'lat': 43.1944856, 'lon': 23.5558454, 'tags': {'amenity': 'hospital', 'healthcare': 'hospital', 'healthcare:speciality': 'psychiatry;physiotherapy', 'name': 'Център Психично здраве', 'operator': 'МБАЛ „Христо Ботев""'}}"
"{'type': 'node', 'id': 5320286896, 'lat': 43.1977557, 'lon': 23.5617134, 'tags': {'amenity': 'pharmacy', 'healthcare': 'pharmacy'}}"
"{'type': 'node', 'id': 5320286897, 'lat': 43.1976368, 'lon': 23.5619597, 'tags': {'amenity': 'pharmacy', 'brand': 'Марешки', 'brand:wikidata': 'Q108852051', 'healthcare': 'pharmacy', 'name': 'Марешки', 'name:en': 'Mareshki'}}"
"{'type': 'node', 'id': 5320286898, 'lat': 43.1974419, 'lon': 23.5613316, 'tags': {'amenity': 'pharmacy', 'healthcare': 'pharmacy'}}"
"{'type': 'node', 'id': 5320286899, 'lat': 43.1986346, 'lon': 23.5590917, 'tags': {'amenity': 'pharmacy', 'brand': 'Санита', 'healthcare': 'pharmacy', 'name': 'Санита', 'name:en': 'Sanita', 'operator': 'Софарма Трейдинг', 'operator:wikidata': 'Q117303338'}}"
"{'type': 'node', 'id': 5730436832, 'lat': 43.4070419, 'lon': 23.2232871, 'tags': {'amenity': 'pharmacy', 'healthcare': 'pharmacy', 'name': 'Ирка'}}"
"{'type': 'node', 'id': 5730436835, 'lat': 43.40632, 'lon': 23.222917, 'tags': {'amenity': 'dentist', 'healthcare': 'dentist'}}"
"{'type': 'node', 'id': 5818859671, 'lat': 43.2364941, 'lon': 23.1316735, 'tags': {'amenity': 'hospital', 'healthcare': 'hospital'}}"
"{'type': 'node', 'id': 5820817848, 'lat': 43.2359734, 'lon': 23.1266657, 'tags': {'amenity': 'dentist', 'healthcare': 'dentist'}}"
"{'type': 'node', 'id': 5845920930, 'lat': 44.3183378, 'lon': 23.7981873, 'tags': {'addr:city': 'Craiova', 'addr:housenumber': '4', 'addr:postcode': '200395', 'addr:street': 'Strada Alexandru Ioan Cuza', 'description': 'Tratamente depresie,atacuri de panica,stres,dificultati în cuplu,dezvoltare personală.', 'email': 'psihoterapiecraiova@yahoo.com', 'healthcare': 'psychotherapist', 'name': 'Psiholog', 'phone': '0721151222'}}"
"{'type': 'node', 'id': 5853248049, 'lat': 44.152161, 'lon': 22.6382519, 'tags': {'amenity': 'pharmacy', 'dispensing': 'yes', 'healthcare': 'pharmacy'}}"
"{'type': 'node', 'id': 5923559016, 'lat': 43.2018941, 'lon': 23.5670108, 'tags': {'amenity': 'clinic', 'healthcare': 'clinic'}}"
"{'type': 'node', 'id': 5924040022, 'lat': 43.1976766, 'lon': 23.5633044, 'tags': {'amenity': 'dentist', 'healthcare': 'dentist', 'level': '6', 'opening_hours': 'Mo-Fr 09:00-17:00', 'payment:cash': 'yes', 'payment:contactless': 'yes', 'payment:credit_cards': 'yes', 'wheelchair': 'yes'}}"
"{'type': 'node', 'id': 5925984741, 'lat': 43.2115592, 'lon': 23.5581283, 'tags': {'amenity': 'hospital', 'healthcare': 'hospital', 'name': '1-ви ДКЦ филиал'}}"
"{'type': 'node', 'id': 6009322143, 'lat': 44.3206854, 'lon': 23.7959911, 'tags': {'healthcare': 'hospital', 'healthcare:speciality': 'clinic', 'name': 'Onco-Life Center'}}"
"{'type': 'node', 'id': 6023287094, 'lat': 44.3281135, 'lon': 23.7750712, 'tags': {'addr:city': 'Craiova', 'addr:country': 'RO', 'addr:housenumber': '5A', 'addr:postcode': '200233', 'addr:street': 'Calea Severinului', 'amenity': 'pharmacy', 'healthcare': 'pharmacy'}}"
"{'type': 'node', 'id': 6023287120, 'lat': 44.3277036, 'lon': 23.7745465, 'tags': {'addr:city': 'Craiova', 'addr:country': 'RO', 'addr:housenumber': '5A', 'addr:postcode': '200233', 'addr:street': 'Calea Severinului', 'amenity': 'pharmacy', 'brand': 'Dr. Max', 'brand:wikidata': 'Q56317371', 'healthcare': 'pharmacy', 'name': 'Dr. Max', 'operator': 'Dr.Max', 'website': 'https://www.drmax.ro'}}"
"{'type': 'node', 'id': 6121148695, 'lat': 43.3849909, 'lon': 22.8746081, 'tags': {'amenity': 'hospital', 'check_date': '2023-09-17', 'healthcare': 'hospital', 'name': 'Болница', 'wheelchair': 'yes'}}"
"{'type': 'node', 'id': 6248859549, 'lat': 43.9181063, 'lon': 23.0695543, 'tags': {'addr:city': 'Poiana Mare', 'addr:street': 'Strada 1 Decembrie', 'amenity': 'pharmacy', 'brand': 'Farmacity', 'dispensing': 'yes', 'drive_through': 'no', 'healthcare': 'pharmacy', 'name': 'Al Shefa'}}"
"{'type': 'node', 'id': 6264745466, 'lat': 43.3717488, 'lon': 23.4818505, 'tags': {'amenity': 'hospital', 'healthcare': 'hospital'}}"
"{'type': 'node', 'id': 6269508427, 'lat': 43.9185218, 'lon': 23.0695759, 'tags': {'addr:city': 'Poiana Mare', 'addr:postcode': '207470', 'addr:street': 'Strada Mihail Kogălniceanu', 'amenity': 'pharmacy', 'dispensing': 'yes', 'healthcare': 'pharmacy'}}"
"{'type': 'node', 'id': 6269508428, 'lat': 43.9163579, 'lon': 23.0683404, 'tags': {'amenity': 'pharmacy', 'dispensing': 'yes', 'healthcare': 'pharmacy'}}"
"{'type': 'node', 'id': 6269508429, 'lat': 43.9234522, 'lon': 23.0532231, 'tags': {'amenity': 'pharmacy', 'dispensing': 'yes', 'healthcare': 'pharmacy'}}"
"{'type': 'node', 'id': 6305642103, 'lat': 43.9183974, 'lon': 23.0685261, 'tags': {'amenity': 'pharmacy', 'dispensing': 'yes', 'healthcare': 'pharmacy', 'name': 'Nidofarm'}}"
"{'type': 'node', 'id': 6345054435, 'lat': 43.9948272, 'lon': 22.9406766, 'tags': {'addr:city': 'Calafat', 'addr:postcode': '205200', 'addr:street': 'Strada Traian', 'amenity': 'hospital', 'emergency': 'no', 'healthcare': 'hospital', 'name': 'Direcția de Sănătate Publică Calafat'}}"
"{'type': 'node', 'id': 6392836500, 'lat': 43.9135428, 'lon': 22.8134164, 'tags': {'amenity': 'clinic', 'healthcare': 'clinic'}}"
"{'type': 'node', 'id': 6442273991, 'lat': 43.6256549, 'lon': 22.685658, 'tags': {'amenity': 'pharmacy', 'brand': 'Санита', 'dispensing': 'yes', 'healthcare': 'pharmacy', 'name': 'Санита', 'name:en': 'Sanita', 'operator': 'Софарма Трейдинг', 'operator:wikidata': 'Q117303338'}}"
"{'type': 'node', 'id': 6442273997, 'lat': 43.6257192, 'lon': 22.6851296, 'tags': {'amenity': 'pharmacy', 'dispensing': 'yes', 'healthcare': 'pharmacy', 'name': 'Хития'}}"
"{'type': 'node', 'id': 6445737367, 'lat': 43.9999938, 'lon': 22.8706789, 'tags': {'amenity': 'pharmacy', 'brand': 'Марешки', 'brand:wikidata': 'Q108852051', 'dispensing': 'yes', 'healthcare': 'pharmacy', 'name': 'Марешки', 'name:en': 'Mareshki', 'name:ro': 'Mareşki'}}"
"{'type': 'node', 'id': 6468198562, 'lat': 43.411323, 'lon': 23.2268086, 'tags': {'amenity': 'pharmacy', 'dispensing': 'yes', 'healthcare': 'pharmacy'}}"
"{'type': 'node', 'id': 6579666185, 'lat': 44.091605, 'lon': 23.3132524, 'tags': {'amenity': 'pharmacy', 'lead_pharmacist': 'Ciuluvica Mariana Laura', 'name': 'Actifarm', 'reviewed': 'no'}}"
"{'type': 'node', 'id': 6597819794, 'lat': 44.3533208, 'lon': 23.2112539, 'tags': {'amenity': 'doctors', 'healthcare': 'doctor', 'name': 'Cabinet medical Dr. Florea Adriana'}}"
"{'type': 'node', 'id': 6598843333, 'lat': 44.3701541, 'lon': 23.4235562, 'tags': {'amenity': 'pharmacy', 'dispensing': 'yes', 'healthcare': 'pharmacy', 'name': 'Farmacia Al-Shefa'}}"
"{'type': 'node', 'id': 6678664898, 'lat': 43.2379236, 'lon': 23.1262504, 'tags': {'amenity': 'pharmacy', 'brand': 'Марешки', 'brand:wikidata': 'Q108852051', 'healthcare': 'pharmacy', 'name': 'Марешки', 'name:en': 'Mareshki'}}"
"{'type': 'node', 'id': 6781399124, 'lat': 44.3168253, 'lon': 23.8113285, 'tags': {'addr:city': 'Craiova', 'addr:street': 'Strada Înfrățirii', 'amenity': 'clinic', 'healthcare': 'clinic', 'name': 'MedLife Sama'}}"
"{'type': 'node', 'id': 6943828915, 'lat': 43.1970009, 'lon': 23.5625557, 'tags': {'air_conditioning': 'yes', 'amenity': 'clinic', 'ele': 'Yes', 'healthcare': 'clinic', 'healthcare:speciality': 'general', 'level': '2', 'opening_hours': 'Mo-Fr 09:00-17:00', 'payment:cash': 'yes', 'payment:contactless': 'yes', 'payment:credit_cards': 'yes', 'wheelchair': 'yes'}}"
"{'type': 'node', 'id': 6943828916, 'lat': 43.1969856, 'lon': 23.5625779, 'tags': {'amenity': 'pharmacy', 'brand': 'Pharmacie Principale', 'brand:wikidata': 'Q1547749', 'dispensing': 'yes', 'drive_through': 'no', 'healthcare': 'pharmacy', 'level': '1', 'name': 'Pharmacie Principale', 'opening_hours': 'Mo-Fr 09:00-17:00', 'payment:cash': 'yes', 'payment:contactless': 'yes', 'payment:credit_cards': 'yes', 'wheelchair': 'no'}}"
"{'type': 'node', 'id': 6945916659, 'lat': 43.1936769, 'lon': 23.5700431, 'tags': {'addr:city': 'Враца', 'addr:country': 'BG', 'addr:housenumber': '96А', 'addr:postcode': '3000', 'addr:street': 'бул. Втори юни', 'amenity': 'hospital', 'description': 'The First Private Specialized Hospital for Active Treatment of Orthopedy and Traumatology', 'emergency': 'yes', 'healthcare': 'hospital', 'healthcare:speciality': 'orthopaedics', 'internet_access': 'yes', 'internet_access:ssid': 'Vivacom Land', 'name': 'Първа частна МБАЛ - Враца', 'operator:type': 'private', 'phone': '+359 89 680 4779', 'source': 'local knowledge', 'start_date': '2007', 'website': 'https://orthopedic-clinic-vr.com/en/home', 'wheelchair': 'yes'}}"
"{'type': 'node', 'id': 6949256115, 'lat': 43.1920013, 'lon': 23.5669161, 'tags': {'amenity': 'dentist', 'healthcare': 'dentist', 'healthcare:speciality': 'dentist', 'level': '1', 'name': 'д-р Антоанета Тошева', 'opening_hours': 'Mo-Fr 09:00-20:00', 'payment:cash': 'yes', 'phone': '+359 87 898 6566', 'wheelchair': 'no'}}"
"{'type': 'node', 'id': 7040314953, 'lat': 44.3116932, 'lon': 23.8001629, 'tags': {'addr:city': 'Craiova', 'addr:housenumber': '53', 'addr:street': 'Strada Alexandru Macedonski', 'healthcare': 'laboratory', 'name': 'Synevo'}}"
"{'type': 'node', 'id': 7198084824, 'lat': 43.205378, 'lon': 23.5606623, 'tags': {'addr:city': 'Враца', 'addr:country': 'BG', 'addr:housenumber': '7', 'addr:neighbourhood': 'gk. Samuil', 'addr:postcode': '3002', 'addr:street': 'Цар Обединител', 'amenity': 'dentist', 'healthcare': 'dentist', 'healthcare:speciality': 'dentist', 'level': '2', 'name': 'Dr. Georgy Iliev', 'opening_hours': 'Mo-Fr 09:00-18:00', 'operator': 'Dr. Georgi Iliev', 'parking': 'yes', 'payment:cash': 'yes', 'source_type_GPS': '43.205348 23.560727', 'wheelchair': 'yes'}}"
"{'type': 'node', 'id': 7220598690, 'lat': 43.2040685, 'lon': 23.561968, 'tags': {'addr:city': 'Враца', 'addr:country': 'BG', 'addr:housenumber': '30', 'addr:neighbourhood': 'gk. Samuil', 'addr:postcode': '3002', 'addr:street': 'Козлодуйски бряг', 'amenity': 'dentist', 'description': 'Dental clinic', 'ele': 'no', 'healthcare': 'dentist', 'healthcare:speciality': 'dentist;dentistry', 'level': '1', 'name': 'Dentinn', 'opening_hours': 'Mo-Fr 09:00-17:00', 'parking': 'yes', 'payment:cash': 'yes', 'phone': '+359 87 825 2725', 'source_type_GPS': '43.204169 23.562023', 'wheelchair': 'yes'}}"
"{'type': 'node', 'id': 7300261386, 'lat': 43.1979451, 'lon': 23.5596851, 'tags': {'amenity': 'hospital', 'ele': '1', 'emergency': 'no', 'healthcare': 'hospital', 'healthcare:speciality': 'radiology', 'name': 'Отделение по лъчетерапия', 'operator:type': 'public', 'parking': 'yes', 'phone_1': '+35992 669 140', 'phone_2': '+35992 669 139', 'source_type_GPS': '43.197884 23.559498', 'website': 'http://www.onko-vratsa.bg/отделение-по-лъчелечение/', 'wheelchair': 'yes'}}"
"{'type': 'node', 'id': 7300261387, 'lat': 43.1982581, 'lon': 23.5595513, 'tags': {'addr:city': 'Враца', 'addr:country': 'BG', 'addr:housenumber': '66 - 68', 'addr:neighbourhood': 'Медковец', 'addr:postcode': '3001', 'addr:street': 'бул. Втори юни', 'air_conditioning': 'yes', 'amenity': 'clinic', 'email': 'mc.alpiko@alpiko.net', 'healthcare': 'clinic', 'healthcare:speciality': 'obstetric_gynecology;whole_body_ultrasound_diagnosis;surgery;oncology', 'level': '2', 'name': 'МЦ Алпико', 'name:en': 'Medical Center Alpico', 'opening_hours': 'Mo-Fr 09:00-17:00', 'parking': 'yes', 'payment:cash': 'yes', 'payment:contactless': 'yes', 'payment:credit_cards': 'yes', 'payment:debit_cards': 'yes', 'phone': '+3599266625', 'website': 'www.alpiko.net/', 'wheelchair': 'yes'}}"
"{'type': 'node', 'id': 7470510355, 'lat': 44.3060717, 'lon': 23.7929466, 'tags': {'amenity': 'hospital', 'healthcare': 'hospital', 'name': 'Unitatea de Primiri Urgențe'}}"
"{'type': 'node', 'id': 7842989276, 'lat': 44.3210016, 'lon': 23.8100349, 'tags': {'addr:city': 'Craiova', 'addr:housenumber': '74', 'addr:postcode': '200463', 'addr:street': 'Strada Vasile Alecsandri', 'amenity': 'hospital', 'healthcare': 'Psychology', 'healthcare:speciality': 'Psychology;Psychotherapy_and_Counselling', 'name': 'Cabinet psiholog Daniela Ianoș', 'operator': 'iCare', 'operator:type': 'private'}}"
"{'type': 'node', 'id': 7944502777, 'lat': 44.0972795, 'lon': 23.309847, 'tags': {'addr:city': 'Galicea Mare', 'addr:postcode': '207270', 'amenity': 'pharmacy', 'dispensing': 'yes', 'healthcare': 'pharmacy', 'name': 'Farmacia Siti Pharma'}}"
"{'type': 'node', 'id': 8325562443, 'lat': 44.3190824, 'lon': 23.8068889, 'tags': {'addr:city': 'Craiova', 'addr:country': 'RO', 'addr:housename': 'Bloc 31B', 'addr:housenumber': '57', 'addr:postcode': '200675', 'addr:street': 'Calea București', 'amenity': 'pharmacy', 'brand': 'Dr. Max', 'brand:wikidata': 'Q56317371', 'healthcare': 'pharmacy', 'name': 'Dr. Max'}}"
"{'type': 'node', 'id': 8325562446, 'lat': 44.3175745, 'lon': 23.8144178, 'tags': {'addr:city': 'Craiova', 'addr:country': 'RO', 'addr:housename': 'Bloc A11', 'addr:housenumber': '95', 'addr:postcode': '200473', 'addr:street': 'Calea București', 'amenity': 'clinic', 'name': 'Synevo'}}"
"{'type': 'node', 'id': 9526779359, 'lat': 44.322704, 'lon': 23.8155824, 'tags': {'addr:city': 'Craiova', 'addr:housenumber': '18', 'addr:postcode': '200463', 'addr:street': 'Strada Păstorului', 'amenity': 'dentist', 'email': 'contact@clinicadrm.ro', 'healthcare': 'dentist', 'healthcare:speciality': 'dentist;orthodontics;radiology', 'image': 'https://www.google.com/maps/uv?pb=!1s0x4752d76649aa8cf7%3A0x5e4e90b4ea75f3c!3m1!7e115!4s%2Fmaps%2Fplace%2Fclinica%2Bdr.%2BM%2F%4044.3226664%2C23.8157717%2C3a%2C75y%2C278.44h%2C90t%2Fdata%3D*213m4*211e1*213m2*211suGUcPJ9mbLqBr9N9FXS_yQ*212e0*214m2*213m1*21', 'name': 'Clinica Dr. M', 'opening_hours': 'Mo-Fr 09:00-21:00', 'phone': '0351173702', 'website': 'https://www.clinicadrm.ro/', 'wheelchair': 'yes'}}"
"{'type': 'node', 'id': 9552968095, 'lat': 44.3049118, 'lon': 23.7944514, 'tags': {'addr:city': 'Craiova', 'addr:housenumber': '66', 'addr:postcode': '200638', 'addr:street': 'Bulevardul 1 Mai', 'amenity': 'hospital', 'email': 'imagistica@umfcv.ro', 'healthcare': 'hospital', 'healthcare:speciality': 'radiology', 'name': 'UMF - Centrul de Imagistică', 'phone': '+40770245996', 'website': 'https://www.umfcv.ro/imagistica'}}"
"{'type': 'node', 'id': 9626674502, 'lat': 44.3167901, 'lon': 23.802621, 'tags': {'addr:city': 'Craiova', 'addr:housenumber': '10', 'addr:street': 'Strada Împăratul Traian', 'amenity': 'hospital', 'healthcare': 'hospital', 'healthcare:speciality': 'dentist;dentistry;paediatric_dentistry;dental_oral_maxillo_facial_surgery;dental', 'name': 'Dental32- Stomatologie Copii si Adulti', 'operator': 'Dental 32', 'operator:type': 'public'}}"
"{'type': 'node', 'id': 9771689337, 'lat': 43.9111019, 'lon': 23.1150684, 'tags': {'amenity': 'clinic', 'healthcare': 'clinic', 'name': 'Dispensar Tunarii Vechi'}}"
"{'type': 'node', 'id': 9771689378, 'lat': 43.9107401, 'lon': 23.1126491, 'tags': {'addr:city': 'Tunarii Vechi', 'addr:street': 'Strada Mihai Viteazul', 'amenity': 'pharmacy', 'dispensing': 'yes', 'healthcare': 'pharmacy', 'name': 'Nidofarm'}}"
"{'type': 'node', 'id': 9958811424, 'lat': 44.3169733, 'lon': 23.8026684, 'tags': {'amenity': 'dentist', 'contact:email': 'programaridental@reginamaria.ro', 'contact:facebook': 'https://www.facebook.com/DrLeahuCliniciDentare', 'contact:instagram': 'https://www.instagram.com/drleahudentalclinics/', 'contact:phone': '+40 21 9777', 'contact:website': 'https://cliniciledrleahu.ro/', 'contact:youtube': 'https://www.youtube.com/c/ClinicileDentareDrLeahu', 'healthcare': 'dentist', 'name': 'Clinicile Dentare Dr. Leahu', 'opening_hours': 'Fr 09:00-18:00; Mo-Th 09:00-21:00', 'operator': 'Implant Expert S.A.'}}"
"{'type': 'node', 'id': 10132658184, 'lat': 44.3124538, 'lon': 23.7982643, 'tags': {'addr:city': 'Craiova', 'addr:housenumber': '7', 'addr:street': 'Strada Bujorului', 'amenity': 'clinic', 'name': 'Oncolab'}}"
"{'type': 'node', 'id': 10140483311, 'lat': 43.1918682, 'lon': 23.2861426, 'tags': {'brand': 'Рамус', 'brand:wikidata': 'Q110583347', 'healthcare': 'laboratory', 'name': 'Рамус', 'name:bg': 'Рамус', 'name:en': 'Ramus'}}"
"{'type': 'node', 'id': 10209533723, 'lat': 44.3145689, 'lon': 23.8334468, 'tags': {'amenity': 'dentist', 'contact:phone': '+40 766 260 413', 'healthcare': 'dentist', 'name': 'W&H Dent', 'website': 'http://whdent.ro/'}}"
"{'type': 'node', 'id': 10235406629, 'lat': 44.3212566, 'lon': 23.8259634, 'tags': {'addr:city': 'Craiova', 'addr:housenumber': '13', 'addr:street': 'Strada Traian Lalescu', 'amenity': 'pharmacy', 'name': 'Vechea Farmacie'}}"
"{'type': 'node', 'id': 10969080205, 'lat': 43.2215792, 'lon': 23.5465947, 'tags': {'amenity': 'pharmacy', 'brand': 'Марешки', 'brand:wikidata': 'Q108852051', 'healthcare': 'pharmacy', 'name': 'Марешки', 'name:en': 'Mareshki', 'opening_hours': 'Mo-Fr 08:00-20:00; Sa-Su 09:00-19:00', 'operator': '""Медидор"" ООД', 'phone': '092641072'}}"
"{'type': 'node', 'id': 10969164905, 'lat': 43.2220593, 'lon': 23.5460304, 'tags': {'amenity': 'pharmacy', 'brand': 'Феникс', 'brand:wikidata': 'Q108852116', 'healthcare': 'pharmacy', 'name': 'Феникс', 'name:en': 'Feniks', 'opening_hours': 'Mo-Fr 08:00-19:00; Sa 08:00-13:00'}}"
"{'type': 'node', 'id': 10970468805, 'lat': 43.2047947, 'lon': 23.5551067, 'tags': {'amenity': 'pharmacy', 'name': 'Ремедиа', 'name:en': 'Remedia', 'opening_hours': 'Mo-Sa 08:00-19:30; Su 09:00-19:30', 'phone': '0886499066'}}"
"{'type': 'node', 'id': 10990164705, 'lat': 43.205057, 'lon': 23.54867, 'tags': {'addr:postcode': '3000', 'addr:street': 'Иванка Ботева', 'amenity': 'pharmacy', 'name': 'Фармакон-96', 'opening_hours': 'Mo-Fr 08:00-19:00; Sa 08:30-14:00'}}"
"{'type': 'node', 'id': 11093278018, 'lat': 43.922916, 'lon': 23.6166207, 'tags': {'amenity': 'pharmacy', 'healthcare': 'pharmacy', 'name': 'Farmacia Xantipa', 'wheelchair': 'no'}}"
"{'type': 'node', 'id': 11093278043, 'lat': 43.9379659, 'lon': 23.6109821, 'tags': {'amenity': 'clinic', 'healthcare': 'clinic', 'name': 'Centrul de Permanenţă Goicea'}}"
"{'type': 'node', 'id': 11093278153, 'lat': 43.9379743, 'lon': 23.6110963, 'tags': {'amenity': 'pharmacy', 'dispensing': 'yes', 'healthcare': 'pharmacy', 'name': 'Farmacia Xantipa', 'opening_hours': 'Mo-Fr 08:00-16:00; Sa-Su 08:00-13:00'}}"
"{'type': 'node', 'id': 11093278186, 'lat': 43.9347528, 'lon': 23.6130663, 'tags': {'amenity': 'pharmacy', 'healthcare': 'pharmacy', 'name': 'Farmacia Xantipa'}}"
"{'type': 'node', 'id': 11099601883, 'lat': 44.2911915, 'lon': 23.8490345, 'tags': {'addr:city': 'Cârcea', 'addr:housenumber': '3', 'addr:street': 'Strada Henry Ford', 'amenity': 'pharmacy', 'name': 'Roxifarm', 'opening_hours': 'Mo-Fr 08:00-21:00; Sa 09:00-18:00; Su 09:00-14:00', 'phone': '+40351444800'}}"
"{'type': 'node', 'id': 11197919629, 'lat': 43.3846023, 'lon': 22.8827946, 'tags': {'addr:housenumber': '18', 'addr:street': 'бул. Петър Парчевич', 'amenity': 'doctors', 'check_date': '2023-09-17', 'healthcare': 'doctor', 'name': 'Д-р Юли Цветков', 'wheelchair': 'yes'}}"
"{'type': 'node', 'id': 11231032180, 'lat': 44.3301666, 'lon': 23.7709987, 'tags': {'amenity': 'pharmacy', 'brand': 'Catena', 'brand:wikidata': 'Q24035728', 'healthcare': 'pharmacy', 'name': 'Catena'}}"
"{'type': 'node', 'id': 11260230309, 'lat': 44.3010861, 'lon': 23.8209226, 'tags': {'amenity': 'pharmacy', 'brand': 'Dr. Max', 'brand:wikidata': 'Q56317371', 'healthcare': 'pharmacy', 'name': 'Dr. Max', 'opening_hours': 'Mo-Fr 09:00-21:00; Sa, Su 09:00-20:00'}}"
"{'type': 'node', 'id': 11293063248, 'lat': 44.318312, 'lon': 23.8155949, 'tags': {'amenity': 'pharmacy', 'name': 'Heliconia'}}"
"{'type': 'node', 'id': 11355916860, 'lat': 43.1604008, 'lon': 22.591391, 'tags': {'addr:city': 'Pirot', 'addr:housenumber': '12a', 'addr:postcode': '18300', 'addr:street': 'Седми јул', 'amenity': 'dentist', 'healthcare': 'dentist', 'mobile': '+381 10 321516', 'name': 'Denta Golub', 'operator': 'Zorica Ignjatovic', 'ref:RS:kucni_broj': '5974748'}}"
"{'type': 'node', 'id': 11404997392, 'lat': 43.4214341, 'lon': 23.221271, 'tags': {'amenity': 'clinic', 'check_date': '2023-12-09', 'contact:phone': '+359 87 767 8383', 'contact:website': 'https://center-apex.com', 'healthcare': 'clinic', 'healthcare:speciality': 'general;neurology;gynaecology;endocrinology;cardiology;orthodontics;pulmonology;urology', 'internet_access': 'no', 'name': 'Апекс Център', 'opening_hours': 'Mo-Fr 08:00-16:00', 'payment:cash': 'yes', 'payment:mastercard': 'yes', 'payment:visa': 'yes', 'wheelchair': 'yes'}}"
"{'type': 'node', 'id': 11694763167, 'lat': 44.3001909, 'lon': 23.8287155, 'tags': {'addr:city': 'Craiova', 'addr:housenumber': '109', 'addr:street': 'Strada Caracal', 'amenity': 'hospital', 'emergency': 'no', 'healthcare': 'hospital', 'name': 'Centrul de Oncologie ""Sfântul Nectarie""'}}"
"{'type': 'node', 'id': 12065314204, 'lat': 44.1077577, 'lon': 23.0448092, 'tags': {'addr:city': 'Cetate', 'addr:housenumber': '122', 'addr:street': 'Calea Severinului', 'amenity': 'pharmacy', 'healthcare': 'pharmacy', 'name': 'Farmacia Olfarm'}}"
"{'type': 'node', 'id': 12105970272, 'lat': 44.2470517, 'lon': 23.7800878, 'tags': {'addr:city': 'Podari', 'addr:housenumber': '11t', 'addr:postcode': '207465', 'addr:street': 'Strada Dunării', 'amenity': 'pharmacy', 'healthcare': 'pharmacy', 'name': 'Farmacia Lavanda'}}"
"{'type': 'node', 'id': 12105970283, 'lat': 44.250684, 'lon': 23.7797311, 'tags': {'addr:city': 'Podari', 'addr:housenumber': '67', 'addr:street': 'Strada Dunării', 'amenity': 'pharmacy', 'healthcare': 'pharmacy', 'name': 'Mara farm'}}"
"{'type': 'node', 'id': 12112600329, 'lat': 44.1514367, 'lon': 23.1725896, 'tags': {'addr:city': 'Unirea', 'amenity': 'pharmacy', 'healthcare': 'pharmacy', 'name': 'Farmacia'}}"
"{'type': 'node', 'id': 12128972670, 'lat': 44.3059565, 'lon': 23.7942389, 'tags': {'amenity': 'pharmacy', 'healthcare': 'pharmacy', 'name': 'Pharma Plus', 'opening_hours': '24/7'}}"
"{'type': 'node', 'id': 12128972676, 'lat': 44.3068186, 'lon': 23.79346, 'tags': {'amenity': 'pharmacy', 'brand': 'Catena', 'dispensing': 'yes', 'healthcare': 'pharmacy', 'name': 'Catena', 'opening_hours': 'Mo-Fr 07:00-21:00; Sa 08:00-15:00; PH closed; Su 08:00-14:00'}}"
"{'type': 'node', 'id': 12132338215, 'lat': 44.3072112, 'lon': 23.7928951, 'tags': {'amenity': 'pharmacy', 'brand': 'Catena', 'dispensing': 'yes', 'healthcare': 'pharmacy', 'name': 'Catena'}}"
"{'type': 'node', 'id': 12132338216, 'lat': 44.3267461, 'lon': 23.7790528, 'tags': {'amenity': 'pharmacy', 'brand': 'Catena', 'healthcare': 'pharmacy', 'name': 'Catena'}}"
"{'type': 'node', 'id': 12132338217, 'lat': 44.3266941, 'lon': 23.7790374, 'tags': {'amenity': 'clinic', 'healthcare': 'clinic', 'name': 'Centrul medical HyltMED', 'website': 'https://hyltmed.ro/'}}"
"{'type': 'node', 'id': 12188977266, 'lat': 44.0652084, 'lon': 23.6733637, 'tags': {'amenity': 'pharmacy', 'healthcare': 'pharmacy', 'name': 'Farmacia Anda'}}"
"{'type': 'node', 'id': 12202527900, 'lat': 44.0815093, 'lon': 23.4479888, 'tags': {'healthcare': 'hospice', 'name': 'Medic de familie'}}"
"{'type': 'node', 'id': 12202527912, 'lat': 44.081494, 'lon': 23.4480532, 'tags': {'amenity': 'pharmacy', 'healthcare': 'pharmacy', 'name': 'Farmacia'}}"
"{'type': 'node', 'id': 12217737297, 'lat': 44.3001585, 'lon': 23.8277961, 'tags': {'addr:housenumber': '107', 'amenity': 'pharmacy', 'drive_through': 'no', 'healthcare': 'pharmacy', 'name': 'Farmacia Trei F'}}"
"{'type': 'node', 'id': 12217737298, 'lat': 44.3001117, 'lon': 23.8280094, 'tags': {'addr:housenumber': '107', 'amenity': 'pharmacy', 'drive_through': 'no', 'healthcare': 'pharmacy', 'name': 'Farmacia Pharma Plus', 'opening_hours': 'Mo-Fr 08:00-22:00', 'operator': 'Farmacia Pharma Plus', 'phone': '+40744474385', 'website': 'http://www.pharmaplus.ro/'}}"
"{'type': 'node', 'id': 12314217089, 'lat': 44.3086325, 'lon': 23.7930311, 'tags': {'addr:city': 'Craiova', 'addr:housenumber': '29', 'addr:street': 'Bulevardul 1 Mai', 'healthcare': 'yes', 'healthcare:speciality': 'radiology', 'name': 'Ecomed', 'phone': '+40 723 060 899', 'website': 'http://ecomedresearch.ro/'}}"
"{'type': 'node', 'id': 12317923640, 'lat': 44.308118, 'lon': 23.7934901, 'tags': {'addr:city': 'Craiova', 'addr:housenumber': '45c', 'addr:street': 'Bulevardul 1 Mai', 'healthcare': 'clinic', 'name': 'Echipa inimii'}}"
"{'type': 'node', 'id': 12317923642, 'lat': 44.3085717, 'lon': 23.7930515, 'tags': {'addr:city': 'Craiova', 'addr:housenumber': '31', 'addr:street': 'Bulevardul 1 Mai', 'amenity': 'doctors', 'healthcare': 'doctor', 'healthcare:speciality': 'endocrinology', 'name': 'Dr. Laura David'}}"
"{'type': 'node', 'id': 12317923644, 'lat': 44.3085561, 'lon': 23.793008, 'tags': {'addr:city': 'Craiova', 'addr:housenumber': '31', 'addr:street': 'Bulevardul 1 Mai', 'amenity': 'pharmacy', 'dispensing': 'yes', 'healthcare': 'pharmacy', 'name': 'Farmacia Salvia', 'opening_hours': 'Mo-Fr 08:00-21:00; Sa 09:00-18:00; PH closed'}}"
"{'type': 'node', 'id': 12390513907, 'lat': 44.3023981, 'lon': 23.794576, 'tags': {'amenity': 'clinic', 'healthcare': 'clinic', 'name': 'Phoenix Medicover', 'website': 'https://www.phoenix-hospital.ro/'}}"
