OSM_Data
"{'type': 'node', 'id': 41740072, 'lat': 50.9767335, 'lon': 6.2682136, 'tags': {'addr:city': 'Linnich', 'addr:country': 'DE', 'addr:housenumber': '56', 'addr:postcode': '52441', 'addr:street': 'Rurdorfer Straße', 'amenity': 'pharmacy', 'healthcare': 'pharmacy', 'name': 'Marienapotheke', 'operator': 'Katrin Vollmer', 'phone': '+49 2462 8033', 'wheelchair': 'limited'}}"
"{'type': 'node', 'id': 49320461, 'lat': 50.9216459, 'lon': 6.3580566, 'tags': {'addr:city': 'Jülich', 'addr:country': 'DE', 'addr:housenumber': '6a', 'addr:postcode': '52428', 'addr:street': 'Marktplatz', 'amenity': 'doctors', 'contact:fax': '+49-2461-58702', 'contact:phone': '+49 2461 56161', 'contact:website': 'http://www.zimjuelich.de/', 'healthcare': 'doctor', 'name': 'ZIM Jülich', 'opening_hours': 'Mo-Fr 08:00-10:00 open ""Akutspechstunde"" || Mo-Fr 07:30-13:00 open ""Sprechstunde"", Mo,Tu,Th 14:30-17:00 open ""Sprechstunde"" || ""Nach Vereinbarung""; Sa-Su, PH off', 'wheelchair': 'yes'}}"
"{'type': 'node', 'id': 70940028, 'lat': 51.4818128, 'lon': 5.6424049, 'tags': {'addr:city': 'Helmond', 'addr:housenumber': '25', 'addr:postcode': '5707HA', 'addr:street': 'Wesselmanlaan', 'amenity': 'hospital', 'healthcare': 'hospital', 'name': 'Elkerliek Ziekenhuis', 'phone': '+31 492 595 555', 'source': 'BAG', 'source:date': '2014-06-06', 'website': 'https://www.elkerliek.nl'}}"
"{'type': 'node', 'id': 75137961, 'lat': 51.1404639, 'lon': 6.2776652, 'tags': {'addr:city': 'Wegberg', 'addr:country': 'DE', 'addr:housenumber': '2', 'addr:postcode': '41844', 'addr:street': 'Karmelitergasse', 'amenity': 'pharmacy', 'dispensing': 'yes', 'fax': '+49 2434 20908', 'healthcare': 'pharmacy', 'name': 'Enten Apotheke', 'opening_hours': 'Mo-Fr 08:00-13:00,14:30-18:30; We 08:00-13:00', 'operator': 'Jörg Haßiepen', 'phone': '+49 2434 2121', 'website': 'https://www.enten-apotheke.de/', 'wheelchair': 'limited'}}"
"{'type': 'node', 'id': 75137967, 'lat': 51.1440672, 'lon': 6.2794335, 'tags': {'amenity': 'pharmacy', 'contact:email': 'info@postapotheke.org', 'contact:facebook': 'https://www.facebook.com/Post-Apotheke-Wegberg-276848355680767/', 'contact:fax': '+49 2434 25249', 'contact:phone': '+49 2434 25248', 'contact:website': 'http://www.postapotheke.org/', 'dispensing': 'yes', 'healthcare': 'pharmacy', 'name': 'Post Apotheke', 'opening_hours': 'Mo-Fr 08:30-13:00,14:30-18:30; We 08:30-13:00', 'operator': 'Jörg Friehoff', 'toilets:wheelchair': 'no', 'wheelchair': 'yes'}}"
"{'type': 'node', 'id': 76051405, 'lat': 50.7684401, 'lon': 6.0953269, 'tags': {'addr:city': 'Aachen', 'addr:country': 'DE', 'addr:housenumber': '44', 'addr:postcode': '52066', 'addr:street': 'Kurbrunnenstraße', 'amenity': 'pharmacy', 'check_date': '2024-03-03', 'dispensing': 'yes', 'healthcare': 'pharmacy', 'name': 'Kurbrunnen Apotheke', 'opening_hours': 'Mo,Tu 08:30-18:00; We 08:30-14:00; Th,Fr 08:30-18:00', 'phone': '+49 241 503484', 'wheelchair': 'no'}}"
"{'type': 'node', 'id': 126136208, 'lat': 50.9303738, 'lon': 6.3594902, 'tags': {'addr:city': 'Jülich', 'addr:country': 'DE', 'addr:housenumber': '1 A', 'addr:postcode': '52428', 'addr:street': 'Nordstraße', 'amenity': 'pharmacy', 'contact:fax': '+49 2461 59935', 'contact:phone': '+49 2461 8330', 'healthcare': 'pharmacy', 'name': 'Nord-Apotheke', 'opening_hours': 'Mo-Fr 08:00-18:30; Sa 08:00-13:00', 'operator': 'Barbara Hoschützky', 'website': 'https://www.nord-apotheke-juelich.de/', 'wheelchair': 'yes'}}"
"{'type': 'node', 'id': 126136217, 'lat': 50.9216391, 'lon': 6.3618153, 'tags': {'addr:city': 'Jülich', 'addr:country': 'DE', 'addr:housenumber': '16', 'addr:postcode': '52428', 'addr:street': 'Kleine Kölnstraße', 'amenity': 'pharmacy', 'contact:fax': '+49-2461-57656', 'contact:phone': '+49-2461-51152', 'healthcare': 'pharmacy', 'name': 'Rur-Apotheke', 'opening_hours': 'Mo-Fr 08:00-18:30;Sa 08:00-14:30', 'wheelchair': 'yes'}}"
"{'type': 'node', 'id': 202695614, 'lat': 51.152958, 'lon': 6.420159, 'tags': {'addr:housenumber': '16', 'addr:postcode': '41239', 'addr:street': 'Sperberstraße', 'amenity': 'pharmacy', 'healthcare': 'pharmacy', 'name': 'Iris-Apotheke', 'wheelchair': 'limited'}}"
"{'type': 'node', 'id': 208722045, 'lat': 51.1441958, 'lon': 6.2832621, 'tags': {'addr:city': 'Wegberg', 'addr:country': 'DE', 'addr:housenumber': '10', 'addr:postcode': '41844', 'addr:street': 'Am Bahnhof', 'amenity': 'pharmacy', 'email': 'info@farma-plus-wegberg.de', 'fax': '+49 2434 9936881', 'healthcare': 'pharmacy', 'name': 'Farma-Plus Apotheke', 'opening_hours': 'Mo-Sa 08:30-19:30', 'operator': 'Mehmet Karabulut e.K.', 'phone': '+49 2434 9936880', 'website': 'https://farma-plus-wegberg.de/', 'wheelchair': 'limited'}}"
"{'type': 'node', 'id': 215233964, 'lat': 51.2057093, 'lon': 6.3420806, 'tags': {'addr:housenumber': '536', 'addr:postcode': '41169', 'addr:street': 'Vorster Straße', 'amenity': 'pharmacy', 'contact:phone': '+49 2161 559508', 'contact:website': 'https://apo2u.com/2aml/website/', 'dispensing': 'yes', 'healthcare': 'pharmacy', 'name': 'Linden-Apotheke', 'opening_hours': 'Mo-Fr 08:30-13:00,14:30-18:30; We,Sa 08:30-13:00', 'toilets:wheelchair': 'no', 'wheelchair': 'yes'}}"
"{'type': 'node', 'id': 215238718, 'lat': 51.2048236, 'lon': 6.3430645, 'tags': {'addr:housenumber': '508', 'addr:postcode': '41169', 'addr:street': 'Vorster Straße', 'amenity': 'pharmacy', 'dispensing': 'yes', 'healthcare': 'pharmacy', 'name': 'Nikolaus-Apotheke'}}"
"{'type': 'node', 'id': 220882289, 'lat': 50.9216605, 'lon': 6.358251, 'tags': {'addr:city': 'Jülich', 'addr:country': 'DE', 'addr:housenumber': '5', 'addr:postcode': '52428', 'addr:street': 'Marktplatz', 'amenity': 'pharmacy', 'check_date:opening_hours': '2021-03-30', 'contact:fax': '+49-2461-58083', 'contact:phone': '+49-2461-2513;0800 -8002513', 'dispensing': 'yes', 'healthcare': 'pharmacy', 'name': 'Bacciocco-Apotheke', 'opening_hours': 'Mo-Fr 08:00-18:30; Sa 08:00-14:00', 'website': 'https://www.apotheke-bacciocco.de/', 'wheelchair': 'yes'}}"
"{'type': 'node', 'id': 220882332, 'lat': 50.9225557, 'lon': 6.3601236, 'tags': {'addr:city': 'Jülich', 'addr:country': 'DE', 'addr:housenumber': '19', 'addr:postcode': '52428', 'addr:street': 'Kölnstraße', 'amenity': 'pharmacy', 'contact:fax': '+49 2461 31402', 'contact:phone': '+49 2461 8868', 'healthcare': 'pharmacy', 'name': 'Post-Apotheke', 'opening_hours': 'Mo-Fr 08:00-18:30; Sa 09:00-15:00', 'website': 'https://www.post-apotheke-juelich.de/', 'wheelchair': 'yes'}}"
"{'type': 'node', 'id': 243671531, 'lat': 51.5940047, 'lon': 5.3209513, 'tags': {'amenity': 'hospital', 'created_by': 'JOSM', 'name': 'Jeroen Bosch, locatie Liduina'}}"
"{'type': 'node', 'id': 244312783, 'lat': 51.2478647, 'lon': 5.4390084, 'tags': {'amenity': 'pharmacy', 'name': 'Dhaenens'}}"
"{'type': 'node', 'id': 245916893, 'lat': 50.8862273, 'lon': 6.1184577, 'tags': {'addr:city': 'Herzogenrath', 'addr:country': 'DE', 'addr:housenumber': '10', 'addr:postcode': '52134', 'addr:street': 'August-Schmidt-Platz', 'amenity': 'pharmacy', 'dispensing': 'yes', 'email': 'park-apotheke-merkstein@t-online.de', 'healthcare': 'pharmacy', 'name': 'Park Apotheke', 'opening_hours': 'Mo,Tu,Th,Fr 08:30-13:00, 14:30-18:30; We 08:30-13:00;Sa 09:00-13:00;PH off', 'operator': 'Andreas Mette e.K', 'phone': '+49 2406 64380', 'website': 'https://www.park-apotheke-herzogenrath.de/', 'wheelchair': 'yes'}}"
"{'type': 'node', 'id': 245916958, 'lat': 50.8843557, 'lon': 6.1039656, 'tags': {'addr:city': 'Herzogenrath', 'addr:country': 'DE', 'addr:housenumber': '65', 'addr:postcode': '52134', 'addr:street': 'Kirchrather Straße', 'amenity': 'pharmacy', 'dispensing': 'yes', 'email': 'info@grenzland-apotheke.de', 'healthcare': 'pharmacy', 'name': 'Grenzland Apotheke', 'opening_hours': 'Mo,Tu,Th,Fr 08:30-13:00,15:00-18:30; We,Sa 08:30-13:00; PH off', 'operator': 'Lutz Engelen', 'phone': '+49 2406 97274', 'website': 'https://www.grenzland-apotheke.de/', 'wheelchair': 'limited'}}"
"{'type': 'node', 'id': 245916960, 'lat': 50.886763, 'lon': 6.1129481, 'tags': {'addr:city': 'Herzogenrath', 'addr:country': 'DE', 'addr:housenumber': '140', 'addr:postcode': '52134', 'addr:street': 'Kirchrather Straße', 'amenity': 'pharmacy', 'dispensing': 'yes', 'healthcare': 'pharmacy', 'name': 'Barbara Apotheke', 'opening_hours': 'Mo,Tu,Th,Fr 08:30-13:00, 15:00-18:30; We,Sa 08:30-13:00;PH off', 'phone': '+49 2406 969161', 'website': 'https://www.apotheken.de/52134/herzogenrath/barbara-apotheke/', 'wheelchair': 'yes'}}"
"{'type': 'node', 'id': 246840721, 'lat': 50.8585197, 'lon': 6.2018378, 'tags': {'addr:city': 'Alsdorf', 'addr:housenumber': '7', 'addr:postcode': '52477', 'addr:street': 'Eschweiler Straße', 'amenity': 'pharmacy', 'contact:phone': '+49 2404 62515', 'contact:website': 'https://www.apothekeamdreieck.de/', 'email': 'apotheke-am-dreieck@gmx.de', 'name': 'Apothele am Dreieck', 'opening_hours': 'Mo-Fr 08:00-18:30; Sa 08:00-13:00, Su,PH off', 'wheelchair': 'yes'}}"
"{'type': 'node', 'id': 246844781, 'lat': 50.775593, 'lon': 6.0887841, 'tags': {'addr:city': 'Aachen', 'addr:country': 'DE', 'addr:housenumber': '20-24', 'addr:postcode': '52062', 'addr:street': 'Peterstraße', 'amenity': 'pharmacy', 'check_date:opening_hours': '2024-03-01', 'dispensing': 'yes', 'healthcare': 'pharmacy', 'name': 'St. Georg-Apotheke', 'opening_hours': 'PH,Su off; Mo-Fr 08:00-18:30; Sa 09:00-16:00', 'phone': '+49 241 28100', 'website': 'https://www.st-georg-apotheke-aachen.de/', 'wheelchair': 'yes'}}"
"{'type': 'node', 'id': 246849363, 'lat': 50.8377162, 'lon': 6.1805072, 'tags': {'addr:housenumber': '184', 'addr:postcode': '52146', 'addr:street': 'Lindener Straße', 'amenity': 'pharmacy', 'contact:email': 'info@lindenapotheke-wuerselen.de', 'contact:fax': '+49 2405 71198', 'contact:phone': '+49 2405 72426', 'contact:website': 'https://www.lindenapotheke-wuerselen.de/', 'delivery': 'yes', 'name': 'Linden Apotheke', 'opening_hours': 'We 08:00-13:00; Mo,Tu,Th,Fr 08:00-13:00, 14:30-18:30; Sa 09:00-13:00 ;Su,PH off', 'operator': 'Stephanie Hohle', 'wheelchair': 'yes'}}"
"{'type': 'node', 'id': 247059906, 'lat': 50.8892236, 'lon': 6.1232261, 'tags': {'addr:city': 'Herzogenrath', 'addr:housenumber': '446', 'addr:postcode': '52134', 'addr:street': 'Geilenkirchener Straße', 'amenity': 'pharmacy', 'dispensing': 'yes', 'email': 'glueckaufapo@gmx.net', 'healthcare': 'pharmacy', 'name': 'Glückauf Apotheke', 'opening_hours': 'Mo,Tu,Th,Fr 08:30-13:00,15:00-18:30; We,Sa 08:30-13:00; PH off', 'operator': 'Andreas Mette', 'phone': '+49 2406 61042', 'website': 'https://www.glueckauf-apotheke-herzogenrath.de/', 'wheelchair': 'no'}}"
"{'type': 'node', 'id': 249815102, 'lat': 50.9121709, 'lon': 6.1374253, 'tags': {'addr:city': 'Übach-Palenberg', 'addr:country': 'DE', 'addr:housenumber': '1', 'addr:postcode': '52531', 'addr:street': 'Brünestraße', 'addr:suburb': 'Boscheln', 'amenity': 'pharmacy', 'dispensing': 'yes', 'healthcare': 'pharmacy', 'name': 'Fidelis Apotheke', 'operator': 'M. Schüder', 'phone': '+49 2404 20443', 'website': 'https://www.fidelis-apotheke.de/', 'wheelchair': 'yes'}}"
"{'type': 'node', 'id': 255596529, 'lat': 50.7775262, 'lon': 6.1419288, 'tags': {'addr:city': 'Aachen', 'addr:country': 'DE', 'addr:housenumber': '1', 'addr:postcode': '52080', 'addr:street': 'Von-Coels-Straße', 'amenity': 'pharmacy', 'check_date:opening_hours': '2022-04-13', 'healthcare': 'pharmacy', 'name': ""Alstedt's Apotheke"", 'opening_hours': 'Mo,Tu,Th,Fr 08:30-13:00,15:00-18:30; We,Sa 08:30-13:00; Su,PH off', 'phone': '+49 241 533100', 'website': 'https://www.alstedts-apotheke.de/', 'wheelchair': 'yes'}}"
"{'type': 'node', 'id': 256117813, 'lat': 51.0983626, 'lon': 5.5185918, 'tags': {'addr:housenumber': '1', 'addr:postcode': '3670', 'addr:street': 'Weg op Bree', 'amenity': 'pharmacy', 'dispensing': 'yes', 'healthcare': 'pharmacy', 'name': 'Schoofs'}}"
"{'type': 'node', 'id': 266579618, 'lat': 50.9050996, 'lon': 6.1852276, 'tags': {'addr:city': 'Baesweiler', 'addr:country': 'DE', 'addr:housenumber': '24-26', 'addr:postcode': '52499', 'addr:street': 'Kirchstraße', 'amenity': 'pharmacy', 'contact:phone': '+49 2401 4646', 'contact:website': 'http://brunnen-apotheke-liebe.de', 'healthcare': 'pharmacy', 'lastcheck': '2016-06-23', 'name': 'Brunnenapotheke', 'opening_hours': 'Mo-Fr 08:30-13:00,15:00-18:30; Sa 09:00-13:00', 'operator': 'Hans-Dieter Liebe', 'wheelchair': 'yes'}}"
"{'type': 'node', 'id': 266682415, 'lat': 51.7717776, 'lon': 6.1166141, 'tags': {'addr:city': 'Kleve', 'addr:country': 'DE', 'addr:housenumber': '65', 'addr:postcode': '47533', 'addr:street': 'Materborner Allee', 'amenity': 'pharmacy', 'healthcare': 'pharmacy', 'name': 'Flora-Apotheke'}}"
"{'type': 'node', 'id': 267178049, 'lat': 50.5985764, 'lon': 5.4676797, 'tags': {'amenity': 'pharmacy', 'branch': 'Flémalle Haute', 'brand': 'Multipharma', 'brand:wikidata': 'Q62565018', 'description': ""Grand' Route, 301Tél. 04/233 82 84"", 'healthcare': 'pharmacy', 'name': 'Multipharma'}}"
"{'type': 'node', 'id': 267178196, 'lat': 50.5839723, 'lon': 5.4334868, 'tags': {'amenity': 'pharmacy', 'description': 'Chée de Ramioul, 132Tél. 04/275 16 72', 'healthcare': 'pharmacy', 'name': 'Pharmacie Marsin', 'wheelchair': 'no'}}"
"{'type': 'node', 'id': 267924837, 'lat': 51.1893901, 'lon': 5.9868121, 'tags': {'addr:city': 'Roermond', 'addr:housenumber': '2', 'addr:postcode': '6041KJ', 'addr:street': 'Minderbroederssingel', 'amenity': 'pharmacy', 'dispensing': 'yes', 'healthcare': 'pharmacy', 'name': ""Gezondheidscentrum 'aan de singel'"", 'opening_hours': 'Mo-Fr 08:00-17:00', 'religion': 'christian', 'source': 'BAG', 'source:date': '2014-06-25', 'website': 'https://www.aandesingel.nl/'}}"
"{'type': 'node', 'id': 268136831, 'lat': 50.5893096, 'lon': 5.4660179, 'tags': {'amenity': 'pharmacy', 'healthcare': 'pharmacy', 'name': 'Pharmacie Crickx'}}"
"{'type': 'node', 'id': 268137745, 'lat': 50.5941912, 'lon': 5.4568965, 'tags': {'amenity': 'pharmacy', 'healthcare': 'pharmacy', 'name': 'PHARMACIE GENDEBIEN sprl'}}"
"{'type': 'node', 'id': 268138274, 'lat': 50.5972375, 'lon': 5.4112898, 'tags': {'amenity': 'pharmacy', 'name': 'PHARMACIE BORN'}}"
"{'type': 'node', 'id': 268138992, 'lat': 50.6045464, 'lon': 5.4818854, 'tags': {'amenity': 'pharmacy', 'healthcare': 'pharmacy', 'name': 'PHARMACIE DU PEUPLE sc'}}"
"{'type': 'node', 'id': 268139894, 'lat': 50.6167437, 'lon': 5.4818976, 'tags': {'amenity': 'pharmacy', 'healthcare': 'pharmacy', 'name': 'PHARMACIE DETRY sprl'}}"
"{'type': 'node', 'id': 268140655, 'lat': 50.6206032, 'lon': 5.4746959, 'tags': {'addr:housenumber': '495', 'addr:street': 'Rue Harkay', 'amenity': 'pharmacy', 'dispensing': 'yes', 'drive_through': 'no', 'email': 'info@pharmacieguisset.be', 'healthcare': 'pharmacy', 'name': 'Pharmacie Guisset', 'opening_hours': 'Mo-Fr 09:00-12:00,13:30-19:00; Sa 09:00-12:30', 'phone': '+32 4 233 82 46', 'start_date': '1929', 'website': 'https://guisset.pharmacie.be/'}}"
"{'type': 'node', 'id': 268141075, 'lat': 50.6225354, 'lon': 5.4595774, 'tags': {'amenity': 'pharmacy', 'brand': 'Multipharma', 'brand:wikidata': 'Q62565018', 'dispensing': 'yes', 'healthcare': 'pharmacy', 'name': 'Multipharma'}}"
"{'type': 'node', 'id': 268495155, 'lat': 50.7245994, 'lon': 6.1462824, 'tags': {'addr:city': 'Aachen', 'addr:country': 'DE', 'addr:housenumber': '121', 'addr:postcode': '52076', 'addr:street': 'Aachener Straße', 'addr:suburb': 'Oberforstbach', 'amenity': 'pharmacy', 'dispensing': 'yes', 'healthcare': 'pharmacy', 'name': 'St. Rochus-Apotheke Oberforstbach', 'phone': '+49 2408 4244', 'wheelchair': 'yes'}}"
"{'type': 'node', 'id': 268854231, 'lat': 50.6022432, 'lon': 5.4774703, 'tags': {'amenity': 'pharmacy', 'healthcare': 'pharmacy', 'name': 'PHARMACIE GURNE'}}"
"{'type': 'node', 'id': 268854512, 'lat': 50.6058656, 'lon': 5.4798438, 'tags': {'amenity': 'pharmacy', 'healthcare': 'pharmacy', 'name': 'Pharmacie Iacolino'}}"
"{'type': 'node', 'id': 268855585, 'lat': 50.5992043, 'lon': 5.40869, 'tags': {'addr:city': 'Awirs', 'addr:housenumber': '208', 'addr:postcode': '4400', 'addr:street': 'Rue des Awirs', 'amenity': 'pharmacy', 'dispensing': 'yes', 'drive_through': 'no', 'healthcare': 'pharmacy', 'level': '0', 'name': 'Pharmacie Wéra', 'phone': '+32 4 275 12 16'}}"
"{'type': 'node', 'id': 268857943, 'lat': 50.5998182, 'lon': 5.448982, 'tags': {'amenity': 'pharmacy', 'name': 'Pharmacies populaires Liegeoises'}}"
"{'type': 'node', 'id': 270051929, 'lat': 51.0552414, 'lon': 6.2229971, 'tags': {'amenity': 'pharmacy', 'healthcare': 'pharmacy', 'name': 'St.-Barbara-Apotheke', 'wheelchair': 'yes'}}"
"{'type': 'node', 'id': 273483026, 'lat': 50.8416588, 'lon': 6.1109063, 'tags': {'addr:city': 'Würselen', 'addr:housenumber': '18', 'addr:postcode': '52146', 'addr:street': 'Dorfstraße', 'contact:facebook': 'https://www.facebook.com/people/Physiotherapiepraxis-Roland-Thom/100063776774997/', 'healthcare': 'physiotherapist', 'name': 'Roland Thom', 'opening_hours': 'Mo 06:00-19:00; Tu 07:00-18:00; We 07:00-19:00; Th 06:00-12:00; Fr 07:00-12:00; Sa,Su,PH off; ""Bürozeit 08:00-13:00""', 'operator': 'Roland Thom', 'phone': '+49 2405 86666'}}"
"{'type': 'node', 'id': 276396829, 'lat': 50.7321049, 'lon': 5.9664955, 'tags': {'addr:city': 'Plombières', 'addr:housenumber': '64', 'addr:street': 'Rue du Chemin de Fer', 'amenity': 'pharmacy', 'name': 'V. Pharma'}}"
"{'type': 'node', 'id': 277939442, 'lat': 50.7452384, 'lon': 5.9938451, 'tags': {'addr:city': 'Gemmenich', 'addr:housenumber': '60', 'addr:postcode': '4851', 'addr:street': 'Rue César Franck', 'amenity': 'pharmacy', 'name': 'Pharmacie Ganser', 'operator': 'J.-M. Ganser'}}"
"{'type': 'node', 'id': 278139573, 'lat': 50.8115401, 'lon': 6.0606733, 'tags': {'addr:city': 'Aachen', 'addr:country': 'DE', 'addr:housenumber': '7', 'addr:postcode': '52072', 'addr:street': 'Rathausplatz', 'amenity': 'pharmacy', 'dispensing': 'yes', 'healthcare': 'pharmacy', 'name': 'Rats-Apotheke', 'opening_hours': 'Mo-Fr 08:30-13:00, 15:00-18:30; Sa 08:30-13:00', 'website': 'https://www.rats-apotheke-aachen.de', 'wheelchair': 'limited'}}"
"{'type': 'node', 'id': 278332738, 'lat': 50.7064147, 'lon': 5.9627462, 'tags': {'addr:city': 'Montzen', 'addr:housenumber': '28', 'addr:postcode': '4850', 'addr:street': 'Place Communale', 'amenity': 'pharmacy', 'name': 'Esser', 'name:de': 'Apotheke', 'name:fr': 'Pharmacie', 'opening_hours': 'Mo-Fr 08:30-12:30, 13:30-18:30; Sa 09:00-12:30', 'phone': '+32 87 78 60 06'}}"
"{'type': 'node', 'id': 279035527, 'lat': 50.7223985, 'lon': 5.9204544, 'tags': {'amenity': 'pharmacy', 'name': 'Hombourg Pharma', 'opening_hours': 'Mo-Fr 09:00-12:30,13:30-18:30; Sa 09:00-12:30'}}"
"{'type': 'node', 'id': 279579068, 'lat': 51.1410213, 'lon': 6.2769699, 'tags': {'addr:city': 'Wegberg', 'addr:country': 'DE', 'addr:housenumber': '13,15', 'addr:postcode': '41844', 'addr:street': 'Rathausplatz', 'amenity': 'doctors', 'description': 'Fachärzte für Kinder- und Jugendmedizin', 'fax': '+49 2434 927286', 'healthcare': 'doctor', 'healthcare:speciality': 'paediatrics', 'name': 'Praxis Dr.med. Peter Gerhards', 'opening_hours': 'Mo-Th 08:00-12:00; Fr 08:00-15:00', 'phone': '+49 2434 1883', 'website': 'http://www.doc-gerhards.de/'}}"
"{'type': 'node', 'id': 281496225, 'lat': 50.9054536, 'lon': 6.1842874, 'tags': {'addr:city': 'Baesweiler', 'addr:housenumber': '35a', 'addr:postcode': '52499', 'addr:street': 'Kirchstraße', 'amenity': 'pharmacy', 'check_date': '2023-07-24', 'contact:phone': '+49 2401 4200', 'contact:website': 'http://kreuz-apotheke.de/', 'healthcare': 'pharmacy', 'name': 'Kreuzapotheke', 'opening_hours': 'Mo-Fr 08:00-18:30; We,Sa 08:00-13:00', 'operator': 'Tobias Kreutz', 'phone': '+49 2401 4200', 'wheelchair': 'yes'}}"
"{'type': 'node', 'id': 281685252, 'lat': 51.1394762, 'lon': 6.2820182, 'tags': {'addr:city': 'Wegberg', 'addr:country': 'DE', 'addr:housenumber': '50a', 'addr:postcode': '41844', 'addr:street': 'Beecker Straße', 'alt_name': 'Die Nervenärzte aus Wegberg', 'amenity': 'doctors', 'description': 'Facharzt für Neurologie, Psychiatrie und Psychotherapie', 'fax': '+49 2434 91731', 'healthcare': 'doctor', 'healthcare:speciality': 'neurology', 'name': 'Praxis K. Rabe & E. Kortenhaus', 'opening_hours': 'Mo 08:00-12:30,14:00-17:30; Tu,We 08:00-12:30; Th 09:00-13:00,14:30-18:00; Fr 07:45-10:15; Sa-Su, PH off', 'phone': '+49 2434 91729', 'website': 'https://die-nervenaerzte-wegberg.de/', 'wheelchair': 'limited'}}"
"{'type': 'node', 'id': 282602042, 'lat': 51.1340099, 'lon': 6.3023465, 'tags': {'contact:email': 'jenny.r@hebammenpraxis-wegberg.de', 'contact:facebook': 'Liebeimbauch', 'contact:instagram': 'hebammenpraxis_wegberg', 'contact:mobile': '+49 178 6124675', 'contact:website': 'https://www.hebammenpraxis-wegberg.de', 'healthcare': 'midwife', 'name': 'Liebe im Bauch', 'old_name': 'Kreissparkasse Heinsberg', 'operator': 'Jenny Rögels'}}"
"{'type': 'node', 'id': 288215102, 'lat': 50.9096331, 'lon': 6.1821483, 'tags': {'addr:city': 'Baesweiler', 'addr:country': 'DE', 'addr:housenumber': '34', 'addr:postcode': '52499', 'addr:street': 'Burgstraße', 'amenity': 'pharmacy', 'check_date:opening_hours': '2022-04-18', 'healthcare': 'pharmacy', 'name': 'An Gut Driesch', 'opening_hours': 'Mo-Sa 08:30-13:00, Mo,Tu,Th,Fr 15:00-18:30', 'wheelchair': 'yes'}}"
"{'type': 'node', 'id': 288215103, 'lat': 50.9093693, 'lon': 6.1795449, 'tags': {'addr:city': 'Baesweiler', 'addr:country': 'DE', 'addr:housenumber': '38', 'addr:postcode': '52499', 'addr:street': 'Kückstraße', 'amenity': 'pharmacy', 'check_date': '2023-07-23', 'contact:email': 'info@mohren-apotheke-baesweiler.de', 'contact:fax': '+49 2401 8122', 'contact:phone': '+49 2401 7395', 'contact:website': 'https://www.mohren-apotheke-baesweiler.de/', 'dispensing': 'yes', 'drive_through': 'no', 'healthcare': 'pharmacy', 'level': '0', 'name': 'Mohrenapotheke', 'opening_hours': 'Mo-Fr 08:00-13:00,14:30-18:30; We,Sa 08:00-13:00', 'operator': 'Mohr-Germann OHG', 'payment:cash': 'yes', 'payment:maestro': 'yes', 'wheelchair': 'yes'}}"
"{'type': 'node', 'id': 289204386, 'lat': 50.8184935, 'lon': 6.1308296, 'tags': {'addr:city': 'Würselen', 'addr:housenumber': '25', 'addr:postcode': '52146', 'addr:street': 'Morlaixplatz', 'amenity': 'pharmacy', 'dispensing': 'yes', 'healthcare': 'pharmacy', 'name': 'Apotheke am Neuen Rathaus', 'opening_hours': 'Mo,Tu,Th,Fr 08:30-13:00,15:00-18:30; We 08:30-13:00; Sa 09:00-13:00; PH off', 'operator': 'Klemens Gasenzer', 'phone': '+49 2405 21828', 'wheelchair': 'yes'}}"
"{'type': 'node', 'id': 289527576, 'lat': 50.7758234, 'lon': 6.0958681, 'tags': {'addr:city': 'Aachen', 'addr:country': 'DE', 'addr:housenumber': '22', 'addr:postcode': '52062', 'addr:street': 'Heinrichsallee', 'amenity': 'pharmacy', 'healthcare': 'pharmacy', 'name': 'Engel-Apotheke', 'opening_hours': 'Mo-Fr 08:00-19:00; Sa 09:00-14:00', 'wheelchair': 'yes'}}"
"{'type': 'node', 'id': 290221229, 'lat': 50.8344563, 'lon': 6.0889622, 'tags': {'addr:city': 'Herzogenrath', 'addr:housenumber': '22-26', 'addr:postcode': '52134', 'addr:street': 'Markt', 'amenity': 'pharmacy', 'email': 'service@marktapotheke-kohlscheid.de', 'healthcare': 'pharmacy', 'name': 'Markt-Apotheke', 'opening_hours': 'Mo-Th 08:30-13:00,15:00-18:30; Fr 08:30-18:30; Sa 08:30-13:00; PH off', 'phone': '+49 2407 3781', 'toilets:wheelchair': 'no', 'website': 'https://www.marktapotheke-kohlscheid.de/', 'wheelchair': 'yes'}}"
"{'type': 'node', 'id': 290227754, 'lat': 50.8313102, 'lon': 6.0905065, 'tags': {'addr:city': 'Herzogenrath', 'addr:housenumber': '77-79', 'addr:postcode': '52134', 'addr:street': 'Südstraße', 'amenity': 'pharmacy', 'check_date:opening_hours': '2024-09-19', 'contact:phone': '+49 2407 59263', 'healthcare': 'pharmacy', 'name': 'Falken Apotheke', 'opening_hours': 'Fr 08:00-18:30; Sa 08:30-14:00; PH off; Mo-Th 08:00-13:30,14:30-18:30', 'toilets:wheelchair': 'no', 'website': 'https://www.falken-apotheke-kohlscheid.de/', 'wheelchair': 'yes'}}"
"{'type': 'node', 'id': 290758980, 'lat': 50.9208438, 'lon': 6.1130188, 'tags': {'addr:city': 'Übach-Palenberg', 'addr:country': 'DE', 'addr:housenumber': '1', 'addr:postcode': '52531', 'addr:street': 'Carlsplatz', 'amenity': 'pharmacy', 'email': 'info@herzapotheke-online.de', 'fax': '+49 2451 90 94 92', 'healthcare': 'pharmacy', 'name': 'Herz Apotheke', 'opening_hours': 'Mo-Fr 08:00-18:30; Th 08:00-20:00; Sa 08:00-14:00', 'operator': 'Jutta Spenner', 'phone': '+49 2451 90 94 90'}}"
"{'type': 'node', 'id': 294354459, 'lat': 51.285512, 'lon': 6.3719478, 'tags': {'healthcare': 'alternative', 'healthcare:speciality': 'homeopathy', 'name': 'Michael Schwarzbach'}}"
"{'type': 'node', 'id': 303044231, 'lat': 51.3082706, 'lon': 6.2760435, 'tags': {'addr:city': 'Nettetal', 'addr:housenumber': '1', 'addr:postcode': '41334', 'addr:street': 'Steegerstraße', 'amenity': 'pharmacy', 'dispensing': 'yes', 'email': 'service@adler-apo.net', 'fax': '+49 2153 / 2224', 'healthcare': 'pharmacy', 'name': 'Adler Apotheke', 'opening_hours': 'Mo-Fr 08:30-18:30; Sa 08:30-13:00', 'operator': 'Hans-Berto Korsten', 'phone': '+49 2153 / 2262', 'website': 'https://www.adler-apo.net/', 'wheelchair': 'yes'}}"
"{'type': 'node', 'id': 303131388, 'lat': 51.3065683, 'lon': 6.275986, 'tags': {'addr:city': 'Nettetal', 'addr:housenumber': '36', 'addr:postcode': '41334', 'addr:street': 'Hochstraße', 'amenity': 'pharmacy', 'check_date:opening_hours': '2022-10-30', 'dispensing': 'yes', 'email': 'rosenapotheke.nettetal@t-online.de', 'fax': '+49 2153 911164', 'healthcare': 'pharmacy', 'name': 'Rosen-Apotheke', 'opening_hours': 'Mo-Fr 08:30-18:30; Sa 08:30-13:00', 'operator': 'Barbara Henrich-Kröger', 'phone': '+49 2153 2121', 'website': 'https://www.rosen-apotheke-nettetal.de/', 'wheelchair': 'yes'}}"
"{'type': 'node', 'id': 305624884, 'lat': 51.7447812, 'lon': 5.6329668, 'tags': {'addr:city': 'Schaijk', 'addr:country': 'NL', 'addr:housenumber': '15', 'addr:postcode': '5374CA', 'addr:street': 'Schutsboomstraat', 'alt_name': 'Service Apotheek Schaijk', 'amenity': 'pharmacy', 'brand': 'Service Apotheek', 'brand:wikidata': 'Q124129179', 'dispensing': 'no', 'email': 'apotheekschaijk@ezorg.nl', 'healthcare': 'pharmacy', 'name': 'Apotheek Schaijk', 'opening_hours': 'Mo-Fr 08:30-12:30, 13:30-17:30; PH off', 'phone': '+31 486 46 33 44', 'source': 'BAG', 'source:date': '2014-06-13', 'website': 'https://www.serviceapotheek.nl/schaijk/'}}"
"{'type': 'node', 'id': 306629387, 'lat': 50.8660812, 'lon': 6.2092234, 'tags': {'addr:city': 'Alsdorf', 'addr:country': 'DE', 'addr:housenumber': '115', 'addr:postcode': '52477', 'addr:street': 'Jülicher Straße', 'addr:suburb': 'Hoengen', 'amenity': 'pharmacy', 'contact:phone': '+49 2404 61920', 'contact:website': 'http://www.cornelius-apo-alsdorf.de/', 'name': 'Cornelius Apotheke', 'opening_hours': 'Mo-Fr 08:30-13:00,15:00-18:30; We,Sa 08:30-13:00; Su,PH off'}}"
"{'type': 'node', 'id': 313777625, 'lat': 51.5189009, 'lon': 6.3262803, 'tags': {'addr:city': 'Geldern', 'addr:housenumber': '71', 'addr:postcode': '47608', 'addr:street': 'Issumer Straße', 'amenity': 'pharmacy', 'dispensing': 'yes', 'fax': '+49 2831 7559', 'healthcare': 'pharmacy', 'name': 'Drachen Apotheke', 'opening_hours': 'Mo-Fr 08:30-18:30; Sa 08:30-13:00', 'operator': 'Petja Kramer', 'phone': '+49 2831 6979', 'toilets:wheelchair': 'no', 'website': 'https://www.drachen-apotheke.de/', 'wheelchair': 'yes'}}"
"{'type': 'node', 'id': 313777784, 'lat': 51.5168195, 'lon': 6.3401251, 'tags': {'addr:city': 'Geldern', 'addr:country': 'DE', 'addr:housenumber': '1', 'addr:postcode': '47608', 'addr:street': 'Annastraße', 'amenity': 'pharmacy', 'contact:email': 'geldern@cuypers-apotheken.de', 'contact:facebook': 'https://www.facebook.com/cuypers.apotheken', 'contact:fax': '+49 2831 2799', 'contact:instagram': 'https://www.instagram.com/Cuypers_apotheken/', 'contact:phone': '+49 2831 87277', 'contact:website': 'https://www.cuypers-apotheken.de/filialen/barbara-apotheke/', 'dispensing': 'yes', 'healthcare': 'pharmacy', 'name': 'Barbara Aphotheke', 'opening_hours': 'Mo-Fr 08:00-18:30; Sa 08:30-13:00; Su,PH off', 'operator': 'Matthias Cuypers', 'wheelchair': 'yes'}}"
"{'type': 'node', 'id': 314698322, 'lat': 51.3666651, 'lon': 6.4178278, 'tags': {'addr:city': 'Kempen', 'addr:housenumber': '1', 'addr:postcode': '47906', 'addr:street': 'Burgring', 'amenity': 'pharmacy', 'dispensing': 'yes', 'email': 'team@kuhtor-apotheke.de', 'fax': '+49 2152 - 518862', 'healthcare': 'pharmacy', 'name': 'Kuhtor-Apotheke', 'opening_hours': 'Mo,Tu,Th,Fr 08:00-13:00,15:00-18:30; We 08:00-13:00; Sa 09:00-13:00', 'operator': 'Andreas Bruns', 'phone': '+49 2152 - 3497', 'website': 'https://www.kuhtor-apotheke.de/', 'wheelchair': 'yes'}}"
"{'type': 'node', 'id': 316826473, 'lat': 50.9413322, 'lon': 6.1054668, 'tags': {'addr:city': 'Übach-Palenberg', 'addr:country': 'DE', 'addr:housenumber': '13', 'addr:postcode': '52531', 'addr:street': 'Geilenkirchener Straße', 'addr:suburb': 'Frelenberg', 'amenity': 'pharmacy', 'email': 'info@barbara-apotheke-frelenberg.de', 'fax': '+49 2451 69456', 'name': 'Barbara Apotheke', 'opening_hours': 'Mo-Fr 08:30-13:00,14:30-18:30; We,Sa 08:30-13:00', 'operator': 'Krings-Dittmann', 'phone': '+49 2451 2158', 'website': 'https://www.barbara-apotheke-frelenberg.de/', 'wheelchair': 'yes'}}"
"{'type': 'node', 'id': 317214724, 'lat': 50.6147397, 'lon': 5.6805056, 'tags': {'addr:street': 'Avenue des Martyrs', 'amenity': 'pharmacy', 'healthcare': 'pharmacy', 'name': 'Pharmacie la Sauvegarde'}}"
"{'type': 'node', 'id': 317392435, 'lat': 50.8186955, 'lon': 6.2666646, 'tags': {'addr:city': 'Eschweiler', 'addr:housenumber': '48', 'addr:postcode': '52249', 'addr:street': 'Grabenstraße', 'amenity': 'pharmacy', 'check_date': '2024-06-14', 'healthcare': 'pharmacy', 'name': 'Graben-Apotheke', 'opening_hours': 'Mo,Tu,Th 08:00-19:00; We,Fr 08:00-18:30; Sa 08:00-14:00', 'operator': 'Martina Klein', 'phone': '+49 2403 26940', 'website': 'http://www.graben-apotheke.com/wir.html', 'wheelchair': 'yes'}}"
"{'type': 'node', 'id': 317392444, 'lat': 50.8164359, 'lon': 6.2670057, 'tags': {'amenity': 'pharmacy', 'healthcare': 'pharmacy', 'name': 'Kronen-Apotheke', 'wheelchair': 'yes'}}"
"{'type': 'node', 'id': 317462618, 'lat': 50.7966433, 'lon': 6.0632515, 'tags': {'addr:city': 'Aachen', 'addr:country': 'DE', 'addr:housenumber': '319', 'addr:postcode': '52072', 'addr:street': 'Roermonder Straße', 'amenity': 'pharmacy', 'dispensing': 'yes', 'email': 'laurentius-apotheke-aachen@t-online.de', 'fax': '+49 241 17 39 89', 'healthcare': 'pharmacy', 'name': 'Laurentius-Apotheke', 'opening_hours': 'Mo-Fr 08:30-13:00,15:00-18:30; Sa 08:30-14:00', 'operator': 'Herbert Pichler', 'phone': '+49 241 12809', 'website': 'https://www.laurentius-apotheke-aachen.de/', 'wheelchair': 'yes'}}"
"{'type': 'node', 'id': 317462620, 'lat': 50.7965779, 'lon': 6.0638189, 'tags': {'addr:city': 'Aachen', 'addr:country': 'DE', 'addr:housenumber': '326', 'addr:postcode': '52072', 'addr:street': 'Roermonder Straße', 'amenity': 'pharmacy', 'dispensing': 'yes', 'email': 'info@park-apotheke-aachen.de', 'fax': '+49 241 17 57 73', 'healthcare': 'pharmacy', 'name': 'Park-Apotheke', 'opening_hours': 'Mo-Fr 08:30-18:30; Sa 08:30-13:00', 'operator': 'Carmen Herbst', 'phone': '+49 241 17 46 46', 'website': 'https://www.park-apotheke-aachen.de/', 'wheelchair': 'yes'}}"
"{'type': 'node', 'id': 317852054, 'lat': 51.1981927, 'lon': 6.4299648, 'tags': {'addr:housenumber': '50-52', 'addr:postcode': '41061', 'addr:street': 'Viersener Straße', 'amenity': 'pharmacy', 'delivery:covid19': 'yes', 'dispensing': 'yes', 'drive_through': 'no', 'fax': '+49 2161 406029615', 'healthcare': 'pharmacy', 'name': 'MAXMO Apotheke', 'opening_hours': 'Mo-Fr 08:00-19:00; Sa 09:00-14:00', 'phone': '+49 2161 4060290', 'takeaway:covid19': 'no', 'toilets:wheelchair': 'no', 'wheelchair': 'yes'}}"
"{'type': 'node', 'id': 321692461, 'lat': 50.5714333, 'lon': 6.2643297, 'tags': {'amenity': 'pharmacy', 'dispensing': 'yes', 'healthcare': 'pharmacy', 'name': 'Marien-Apotheke', 'opening_hours': 'Mo, Tu, Th 08:00-19:00; We, Fr 08:00-18:30; Sa 08:30-14:00', 'phone': '+49 2472 80290', 'website': 'https://www.marienapotheke-monschau.de/', 'wheelchair': 'yes'}}"
"{'type': 'node', 'id': 321990039, 'lat': 50.8192774, 'lon': 6.2688184, 'tags': {'amenity': 'pharmacy', 'check_date': '2024-06-14', 'check_date:opening_hours': '2021-07-21', 'healthcare': 'pharmacy', 'name': 'Rathaus-Apotheke', 'opening_hours': 'Mo-Fr 08:30-18:30; Sa 08:30-14:00', 'wheelchair': 'yes'}}"
"{'type': 'node', 'id': 330801873, 'lat': 51.3289635, 'lon': 5.9710678, 'tags': {'addr:city': 'Panningen', 'addr:housenumber': '2', 'addr:postcode': '5981WT', 'addr:street': 'Steenbakkersstraat', 'amenity': 'clinic', 'healthcare': 'clinic', 'name': 'Pantaleon Gezondheidscentrum', 'source': 'BAG', 'source:date': '2014-08-10'}}"
"{'type': 'node', 'id': 332059004, 'lat': 51.3829877, 'lon': 6.4509242, 'tags': {'addr:city': 'Kempen', 'addr:housenumber': '10', 'addr:postcode': '47906', 'addr:street': 'Königsstraße', 'amenity': 'pharmacy', 'contact:email': 'info@hubertusapotheke.com', 'contact:fax': '+49 2152 8634', 'contact:phone': '+49 2152 7391', 'contact:website': 'https://www.hubertusapotheke.com/impressum', 'dispensing': 'yes', 'drive_through': 'no', 'healthcare': 'pharmacy', 'name': 'Hubertus-Apotheke', 'opening_hours': 'Mo,Tu,Th,Fr 08:30-13:00,15:00-18:30; We 08:30-13:00; Sa 09:00-13:00', 'operator': 'Dr. Michael Gehlen', 'wheelchair': 'no'}}"
"{'type': 'node', 'id': 332062556, 'lat': 51.3669147, 'lon': 6.423504, 'tags': {'amenity': 'doctors', 'check_date:opening_hours': '2023-06-15', 'contact:email': 'info@priessenundwollschlaeger.de', 'contact:fax': '+49 2152 4066', 'contact:phone': '+49 2152 4064', 'contact:website': 'https://www.priessenundwollschlaeger.de/', 'healthcare': 'doctor', 'healthcare:speciality': 'general', 'name': 'Gemeinschaftspraxis Dr. Prießen und Dr. Wollschläger', 'opening_hours': 'Mo-Th 08:00-12:00, Mo,Th 15:00-17:00, Tu 15:00-18:00, Fr 08:00-14:30; PH,Sa,Su off', 'operator': 'Prießen und Wollschläger', 'source': 'Kreis_Viersen_Gesundheitsamt_2020_04'}}"
"{'type': 'node', 'id': 332070941, 'lat': 51.3614025, 'lon': 6.4196155, 'tags': {'healthcare': 'podiatrist', 'name': 'Podologie am Hessenring', 'opening_hours': '""nach Vereinbarung""'}}"
"{'type': 'node', 'id': 332072621, 'lat': 51.3631302, 'lon': 6.4151632, 'tags': {'addr:city': 'Kempen', 'addr:housenumber': '2', 'addr:postcode': '47906', 'addr:street': 'Mülhauser Straße', 'amenity': 'pharmacy', 'check_date:opening_hours': '2022-09-28', 'contact:email': 'info@muehlenapo.de', 'contact:fax': '+49 2152 517 434', 'contact:phone': '+49 2152 51530', 'contact:website': 'https://www.muehlenapo.de/', 'dispensing': 'yes', 'healthcare': 'pharmacy', 'name': 'Mühlen-Apotheke', 'opening_hours': 'Mo,Tu,Th,Fr 08:30-13:00,15:00-18:30; We,Sa 08:30-13:00', 'operator': 'Ann-Kristin Behrend', 'wheelchair': 'yes'}}"
"{'type': 'node', 'id': 334297605, 'lat': 51.373215, 'lon': 6.411902, 'tags': {'amenity': 'doctors', 'healthcare': 'doctor', 'healthcare:speciality': 'general', 'name': 'Praxis Dr. Becker', 'operator': 'Dr. Becker', 'source': 'Kreis_Viersen_Gesundheitsamt_2020_04'}}"
"{'type': 'node', 'id': 334300406, 'lat': 51.3670848, 'lon': 6.4169823, 'tags': {'amenity': 'doctors', 'contact:fax': '+49 2152 510 224', 'contact:phone': '+49 2152 500 01', 'contact:website': 'https://www.rheinlandaerzte.de', 'healthcare': 'doctor', 'healthcare:speciality': 'general', 'name': 'MVZ Rheinlandärzte', 'opening_hours': 'Mo-Fr 08:00-12:00, Mo,Tu,Th 15:00-18:00', 'operator': 'Dr. Dr. med. Lars Benjamin Fritz', 'source': 'Kreis_Viersen_Gesundheitsamt_2020_04'}}"
"{'type': 'node', 'id': 334489432, 'lat': 51.1931875, 'lon': 6.4313962, 'tags': {'check_date': '2025-01', 'contact:email': 'hospiz.st.christophorus@t-online.de', 'contact:fax': '+49 2161 180700', 'contact:phone': '+49 2161 21737', 'contact:website': 'http://www.hospiz-st-christophorus.de/', 'healthcare': 'hospice', 'name': 'Hospiz St. Christophorus', 'social_facility': 'hospice', 'wheelchair': 'yes'}}"
"{'type': 'node', 'id': 334516909, 'lat': 51.1945577, 'lon': 6.431969, 'tags': {'amenity': 'pharmacy', 'check_date': '2023-09', 'dispensing': 'yes', 'fax': '+49 21 61 / 18 32 34', 'healthcare': 'pharmacy', 'name': 'Adler-Apotheke am Markt', 'opening_hours': 'Mo-Fr 08:00-18:30; Sa 08:00-14:00', 'operator': 'Michael Neukirchen', 'phone': '+49 2161 182361', 'website': 'http://www.adler-apotheke-koch.de', 'wheelchair': 'yes'}}"
"{'type': 'node', 'id': 336263306, 'lat': 51.1974321, 'lon': 6.4183547, 'tags': {'addr:housenumber': '224', 'addr:postcode': '41061', 'addr:street': 'Waldhausener Straße', 'amenity': 'pharmacy', 'dispensing': 'yes', 'healthcare': 'pharmacy', 'name': 'Engel-Apotheke', 'wheelchair': 'yes'}}"
"{'type': 'node', 'id': 336377399, 'lat': 51.1016265, 'lon': 6.1550403, 'tags': {'addr:city': 'Wassenberg', 'addr:country': 'DE', 'addr:housenumber': '23', 'addr:postcode': '41849', 'addr:street': 'Roermonder Straße', 'addr:suburb': 'Wassenberg', 'amenity': 'dentist', 'description': 'Zahnarzt', 'fax': '+49 2432 49665', 'healthcare': 'dentist', 'name': 'Gemeinschaftspraxis Marohn-Stahl, Janßen', 'phone': '+49 2432 3502'}}"
"{'type': 'node', 'id': 336378132, 'lat': 51.0980143, 'lon': 6.1556232, 'tags': {'amenity': 'pharmacy', 'dispensing': 'yes', 'email': 'info@parkapotheke-wassenberg.de', 'name': 'Park Apotheke', 'opening_hours': 'Mo-Th 08:00-19:00; We,Fr 08:00-18:30; Sa 08:30-13:00', 'operator': 'B. Kositzki', 'phone': '+49 2432 89190', 'website': 'https://parkapotheke-wassenberg.de/', 'wheelchair': 'limited'}}"
"{'type': 'node', 'id': 339094508, 'lat': 51.1269379, 'lon': 6.4114253, 'tags': {'addr:city': 'Mönchengladbach', 'addr:country': 'DE', 'addr:housenumber': '12a', 'addr:postcode': '41189', 'addr:street': 'Wickrathberger Straße', 'amenity': 'pharmacy', 'dispensing': 'yes', 'healthcare': 'pharmacy', 'name': 'Eukalyptus-Apotheke', 'opening_hours': 'Mo-Fr 08:00-13:00,14:00-19:00; Sa 08:30-14:00', 'wheelchair': 'yes'}}"
"{'type': 'node', 'id': 339094983, 'lat': 51.1296942, 'lon': 6.4132804, 'tags': {'addr:city': 'Mönchengladbach', 'addr:country': 'DE', 'addr:housenumber': '1', 'addr:postcode': '41189', 'addr:street': 'Beckrather Straße', 'amenity': 'pharmacy', 'dispensing': 'yes', 'healthcare': 'pharmacy', 'name': 'Löwen-Apotheke', 'opening_hours': 'Mo-Sa 08:30-13:00, Mo-Fr 14:00-18:30', 'wheelchair': 'yes'}}"
"{'type': 'node', 'id': 339101093, 'lat': 51.1307551, 'lon': 6.4128245, 'tags': {'amenity': 'pharmacy', 'dispensing': 'yes', 'healthcare': 'pharmacy', 'name': 'Linden-Apotheke', 'opening_hours': 'Mo-Fr 08:15-12:30,15:30-18:30; Sa 09:00-13:00', 'website': 'https://www.linden-apotheke-wickrath-app.de/'}}"
"{'type': 'node', 'id': 339101377, 'lat': 51.1314133, 'lon': 6.4141934, 'tags': {'amenity': 'pharmacy', 'dispensing': 'yes', 'healthcare': 'pharmacy', 'name': 'Kreuzherren-Apotheke', 'opening_hours': 'Mo-Fr 08:00-12:30,14:30-18:30; We 08:00-13:00; Sa 09:00 - 13:00; Su, PH off', 'phone': '+49 2166 54011', 'website': 'https://www.kreuzherren-apotheke.de/'}}"
"{'type': 'node', 'id': 339143486, 'lat': 51.2822083, 'lon': 6.3729438, 'tags': {'addr:city': 'Viersen', 'addr:housenumber': '52', 'addr:postcode': '41749', 'addr:street': 'Düsseldorfer Straße', 'amenity': 'pharmacy', 'dispensing': 'yes', 'email': 'hoehen-apotheke@gmx.de', 'fax': '+49 2162 7358', 'healthcare': 'pharmacy', 'name': 'Höhen-Apotheke', 'opening_hours': 'Mo-Fr 08:30-13:00,14:30-18:30; We,Sa 08:30-13:00', 'phone': '+49 2162 77001', 'wheelchair': 'limited'}}"
"{'type': 'node', 'id': 341470675, 'lat': 51.1537765, 'lon': 6.4521178, 'tags': {'amenity': 'pharmacy', 'dispensing': 'yes', 'healthcare': 'pharmacy', 'name': 'Löwen-Apotheke Mülfort', 'wheelchair': 'yes'}}"
"{'type': 'node', 'id': 344613576, 'lat': 50.7687911, 'lon': 6.0954587, 'tags': {'addr:city': 'Aachen', 'addr:country': 'DE', 'addr:housenumber': '48', 'addr:postcode': '52066', 'addr:street': 'Kurbrunnenstraße', 'amenity': 'dentist', 'check_date:opening_hours': '2024-07-06', 'healthcare': 'dentist', 'name': 'Memisi', 'opening_hours': 'Mo-Fr 08:00-20:00', 'wheelchair': 'limited'}}"
"{'type': 'node', 'id': 345569937, 'lat': 51.1649495, 'lon': 6.4417709, 'tags': {'amenity': 'pharmacy', 'check_date:opening_hours': '2023-10-24', 'dispensing': 'yes', 'healthcare': 'pharmacy', 'name': 'Hirsch-Apotheke Rheydt', 'opening_hours': 'Mo-Fr 08:30-18:30; Sa 09:00-14:00', 'wheelchair': 'yes'}}"
"{'type': 'node', 'id': 346798936, 'lat': 51.3831881, 'lon': 6.4519526, 'tags': {'amenity': 'doctors', 'contact:phone': '+49 2152 8399', 'healthcare': 'doctor', 'healthcare:speciality': 'general', 'name': 'Dr.med. Katrin Schürmanns', 'opening_hours': 'Mo-Fr 09:00-12:00; Mo,Tu,Th 15:00-18:00', 'operator': 'Dr.med. Katrin Schürmanns', 'source': 'Kreis_Viersen_Gesundheitsamt_2020_04'}}"
"{'type': 'node', 'id': 346801865, 'lat': 51.3829621, 'lon': 6.4515567, 'tags': {'amenity': 'doctors', 'contact:phone': '+49 2152 7258', 'healthcare': 'doctor', 'healthcare:speciality': 'general', 'name': 'Praxis Bernhard Heithoff', 'opening_hours': 'Mo-Fr 09:00-12:30; Mo,Tu,Th 17:00-18:30', 'operator': 'Bernhard Heithoff', 'source': 'Kreis_Viersen_Gesundheitsamt_2020_04', 'toilets:wheelchair': 'yes', 'wheelchair': 'yes'}}"
"{'type': 'node', 'id': 346823893, 'lat': 51.3252402, 'lon': 6.3803199, 'tags': {'addr:city': 'Grefrath', 'addr:housenumber': '3', 'addr:postcode': '47929', 'addr:street': 'Niedertor', 'amenity': 'pharmacy', 'check_date:opening_hours': '2022-10-08', 'dispensing': 'yes', 'email': 'info@niedertor-apotheke-oedt.de', 'fax': '+49 21 58 65 83', 'healthcare': 'pharmacy', 'name': 'Niedertor Apotheke', 'opening_hours': 'Mo-Fr 08:30-13:00,15:00-18:30; Sa 08:30-13:00', 'operator': 'Axel Schulte', 'phone': '+49 21 58 60 78', 'website': 'https://www.niedertor-apotheke-oedt.de/', 'wheelchair': 'yes'}}"
"{'type': 'node', 'id': 347049031, 'lat': 51.2581199, 'lon': 6.3876811, 'tags': {'addr:city': 'Viersen', 'addr:housenumber': '15', 'addr:postcode': '41747', 'addr:street': 'Hauptstraße', 'amenity': 'pharmacy', 'email': 'linden.apotheke.viersen@gmail.com', 'fax': '+49 2162 351444', 'healthcare': 'pharmacy', 'name': 'Linden-Apotheke', 'opening_hours': 'Mo-Fr 08:30-18:30; Sa 09:00-14:00', 'operator': 'Oksana Eck', 'phone': '+49 2162 15079', 'website': 'https://www.linden-apotheke-viersen.de/', 'wheelchair': 'yes'}}"
"{'type': 'node', 'id': 347049043, 'lat': 51.2555236, 'lon': 6.3911808, 'tags': {'addr:city': 'Viersen', 'addr:housenumber': '94b', 'addr:postcode': '41747', 'addr:street': 'Hauptstraße', 'amenity': 'pharmacy', 'email': 'kontakt@adler-apotheke-viersen.de', 'fax': '+49 2162 352238', 'healthcare': 'pharmacy', 'name': 'Adler-Apotheke', 'opening_hours': 'Mo-Fr 08:30-18:30; Sa 09:00-13:00', 'operator': 'Dr. Michael Müller', 'phone': '+49 2162 13187', 'website': 'https://www.adler-apotheke-viersen.de/', 'wheelchair': 'yes'}}"
"{'type': 'node', 'id': 347227350, 'lat': 51.223911, 'lon': 6.4477399, 'tags': {'addr:housenumber': '177', 'addr:postcode': '41066', 'addr:street': 'Von-Groote-Straße', 'amenity': 'pharmacy', 'dispensing': 'yes', 'name': 'St. Vitus-Apotheke', 'wheelchair': 'no'}}"
"{'type': 'node', 'id': 351229006, 'lat': 50.7631053, 'lon': 6.1204816, 'tags': {'addr:city': 'Aachen', 'addr:country': 'DE', 'addr:housenumber': '56', 'addr:postcode': '52066', 'addr:street': 'Adenauerallee', 'amenity': 'doctors', 'healthcare': 'doctor', 'name': 'Breuer, Gabriele', 'wheelchair': 'limited'}}"
"{'type': 'node', 'id': 354943989, 'lat': 51.3043692, 'lon': 6.4283074, 'tags': {'amenity': 'doctors', 'healthcare': 'doctor', 'healthcare:speciality': 'general', 'name': 'Arztpraxis Stottrop', 'operator': 'Maria Stottrop', 'source': 'Kreis_Viersen_Gesundheitsamt_2020_04'}}"
"{'type': 'node', 'id': 359927588, 'lat': 50.610925, 'lon': 5.6681544, 'tags': {'amenity': 'pharmacy', 'healthcare': 'pharmacy', 'name': 'Pharmacie Fonzé'}}"
"{'type': 'node', 'id': 364743078, 'lat': 51.1964488, 'lon': 6.4399968, 'tags': {'addr:city': 'Mönchengladbach', 'addr:country': 'DE', 'addr:housenumber': '41', 'addr:postcode': '41061', 'addr:street': 'Steinmetzstraße', 'amenity': 'pharmacy', 'dispensing': 'yes', 'healthcare': 'pharmacy', 'name': 'Apotheke am Albertus-Zentrum', 'website': 'https://albertuszentrum.de/', 'wheelchair': 'yes'}}"
"{'type': 'node', 'id': 364777186, 'lat': 51.1980993, 'lon': 6.4451888, 'tags': {'amenity': 'pharmacy', 'check_date': '2024-11', 'dispensing': 'yes', 'email': 'bahnhof-apotheke.mg@t-online.de', 'healthcare': 'pharmacy', 'name': 'Bahnhof-Apotheke', 'opening_hours': 'Mo-Fr 08:30-18:30; Sa 09:00-14:00', 'phone': '+49 2161 14903', 'website': 'http://www.bahnhof-apotheke-mg.de'}}"
"{'type': 'node', 'id': 364781002, 'lat': 51.1971372, 'lon': 6.4408916, 'tags': {'addr:city': 'Mönchengladbach', 'addr:country': 'DE', 'addr:housenumber': '60', 'addr:postcode': '41061', 'addr:street': 'Bismarckstraße', 'amenity': 'pharmacy', 'dispensing': 'yes', 'healthcare': 'pharmacy', 'name': 'Bären-Apotheke', 'opening_hours': 'Mo-Fr 08:00-18:30; Sa 09:00-13:00', 'phone': '+49 2161 183463', 'website': 'https://baeren-apotheke-moenchengladbach.de/'}}"
"{'type': 'node', 'id': 364784065, 'lat': 51.196079, 'lon': 6.4422653, 'tags': {'amenity': 'pharmacy', 'check_date': '2023-09', 'dispensing': 'yes', 'email': 'city.apo@t-online.de', 'healthcare': 'pharmacy', 'name': 'City-Apotheke', 'opening_hours': 'Mo-Fr 08:00-19:00; Sa 09:00-18:00', 'phone': '+49 2161 26162', 'website': 'http://www.city-apotheke-mg.de', 'wheelchair': 'yes'}}"
"{'type': 'node', 'id': 364784068, 'lat': 51.1956344, 'lon': 6.4422298, 'tags': {'amenity': 'pharmacy', 'check_date': '2023-09', 'dispensing': 'yes', 'healthcare': 'pharmacy', 'name': 'Vital Apotheke', 'wheelchair': 'yes'}}"
"{'type': 'node', 'id': 364796872, 'lat': 51.198751, 'lon': 6.438914, 'tags': {'amenity': 'pharmacy', 'contact:email': 'kontakt@friedrich-apotheke.com', 'contact:fax': '+49 2161 204582', 'contact:phone': '+49 2161 12123', 'contact:website': 'https://www.friedrich-apotheke.com/', 'dispensing': 'yes', 'healthcare': 'pharmacy', 'name': 'Friedrich-Apotheke', 'opening_hours': 'Mo,Tu,Th,Fr 08:00-13:30,14:30-18:30; We 08:00-13:30; Sa 10:00-13:00; Su,PH off', 'operator': 'Michael Neukirchen', 'wheelchair': 'yes'}}"
"{'type': 'node', 'id': 364797382, 'lat': 51.1913649, 'lon': 6.4228227, 'tags': {'amenity': 'pharmacy', 'dispensing': 'yes', 'healthcare': 'pharmacy', 'name': 'Gero-Apotheke', 'phone': '+49 2161 833800', 'website': 'https://www.geroapotheke-app.de', 'wheelchair': 'limited'}}"
"{'type': 'node', 'id': 364828064, 'lat': 51.1952348, 'lon': 6.4406, 'tags': {'amenity': 'pharmacy', 'check_date': '2023-09', 'dispensing': 'yes', 'healthcare': 'pharmacy', 'name': 'MAXMO-Apotheke', 'wheelchair': 'yes'}}"
"{'type': 'node', 'id': 364837422, 'lat': 51.1963302, 'lon': 6.424124, 'tags': {'amenity': 'pharmacy', 'dispensing': 'yes', 'healthcare': 'pharmacy', 'name': 'Münster-Apotheke'}}"
"{'type': 'node', 'id': 364843037, 'lat': 51.1922839, 'lon': 6.4423505, 'tags': {'addr:housenumber': '6-8', 'addr:postcode': '41061', 'addr:street': 'Rathenaustraße', 'amenity': 'pharmacy', 'dispensing': 'yes', 'healthcare': 'pharmacy', 'name': 'Stern-Apotheke'}}"
"{'type': 'node', 'id': 364846145, 'lat': 51.1908067, 'lon': 6.449141, 'tags': {'addr:housenumber': '97', 'addr:postcode': '41061', 'addr:street': 'Erzbergerstraße', 'amenity': 'pharmacy', 'dispensing': 'yes', 'name': 'Volksgarten-Apotheke'}}"
"{'type': 'node', 'id': 364847025, 'lat': 51.1910035, 'lon': 6.4228627, 'tags': {'amenity': 'pharmacy', 'dispensing': 'yes', 'healthcare': 'pharmacy', 'name': 'Westend-Apotheke', 'wheelchair': 'no'}}"
"{'type': 'node', 'id': 364898122, 'lat': 51.2047748, 'lon': 6.4465228, 'tags': {'amenity': 'pharmacy', 'check_date': '2023-08', 'dispensing': 'yes', 'healthcare': 'pharmacy', 'name': 'Eickener Apotheke', 'opening_hours': 'Mo,Tu,Th,Fr 08:00-18:30; We,Sa 08:00-13:00', 'wheelchair': 'yes'}}"
"{'type': 'node', 'id': 364899744, 'lat': 51.2046207, 'lon': 6.411898, 'tags': {'addr:housenumber': '276a', 'addr:postcode': '41063', 'addr:street': 'Lindenstraße', 'amenity': 'pharmacy', 'check_date:opening_hours': '2021-06-23', 'dispensing': 'yes', 'email': 'apothekelaurentius@t-online.de', 'fax': '+49 2161 87109', 'name': 'Laurentius-Apotheke', 'opening_hours': 'Mo-Sa 08:00-13:00, Mo-Fr 14:30-18:30', 'operator': 'Elisabeth Stockebrand', 'phone': '+49 2161 87133', 'website': 'https://www.laurentius-apotheke-moenchengladbach.de/', 'wheelchair': 'yes'}}"
"{'type': 'node', 'id': 364902016, 'lat': 51.2039456, 'lon': 6.4126874, 'tags': {'addr:housenumber': '264', 'addr:postcode': '41063', 'addr:street': 'Lindenstraße', 'amenity': 'pharmacy', 'dispensing': 'yes', 'email': 'kontakt@ulmen-apotheke.de', 'fax': '+49 2161 890842', 'name': 'Ulmen-Apotheke Windberg', 'opening_hours': 'Mo-Fr 08:00-13:00, Mo,Fr 14:00-18:30, Tu,Th 14:00-19:00, We 14:00-18:00; Sa 08:30-13:00', 'operator': 'Dirk Lammert', 'phone': '+49 2161 87877', 'website': 'https://www.ulmen-apotheke-app.de/', 'wheelchair': 'no'}}"
"{'type': 'node', 'id': 364907095, 'lat': 51.1847, 'lon': 6.4403835, 'tags': {'amenity': 'pharmacy', 'dispensing': 'yes', 'name': 'Apotheke am Hermges', 'opening_hours': 'Mo-Fr 08:30-13:00, Mo,Tu,Th,Fr 14:30-18:30, Sa 09:00-13:00', 'wheelchair': 'yes'}}"
"{'type': 'node', 'id': 364910459, 'lat': 51.1852522, 'lon': 6.4558989, 'tags': {'addr:housenumber': '58', 'addr:postcode': '41065', 'addr:street': 'Grevenbroicher Straße', 'amenity': 'pharmacy', 'dispensing': 'yes', 'name': 'Bonifatius-Apotheke'}}"
"{'type': 'node', 'id': 364936819, 'lat': 51.2017644, 'lon': 6.3875534, 'tags': {'addr:city': 'Mönchengladbach', 'addr:housenumber': '113', 'addr:postcode': '41068', 'addr:street': 'Moosheide', 'amenity': 'pharmacy', 'contact:phone': '+49 2161 51455', 'dispensing': 'yes', 'name': 'Liebfrauen-Apotheke', 'opening_hours': 'Mo-Fr 08:00-19:00; Sa 08:00-13:00', 'opening_hours:url': 'http://www.liebfrauen-apotheke-mg.de/apotheke/willkommen.htm', 'operator': 'Christina Kier', 'phone': '+49 2161 51455', 'website': 'https://www.liebfrauen-apotheke-mg.de/', 'wheelchair': 'yes'}}"
"{'type': 'node', 'id': 364938550, 'lat': 51.1977794, 'lon': 6.4114177, 'tags': {'addr:housenumber': '111', 'addr:postcode': '41068', 'addr:street': 'Roermonder Straße', 'amenity': 'pharmacy', 'dispensing': 'yes', 'drive_through': 'no', 'fax': '+49 2161 837322', 'healthcare': 'pharmacy', 'name': 'Sonnen-Apotheke', 'opening_hours': 'Mo-Fr 08:00-13:00, Mo,Tu,Th,Fr 14:30-18:00, Sa 09:00-12:00', 'operator': 'Andrea Prochaska', 'phone': '+49 2161 831200', 'website': 'https://sonnen-apotheke-moenchengladbach.de/', 'wheelchair': 'yes'}}"
"{'type': 'node', 'id': 364939969, 'lat': 51.1816267, 'lon': 6.4090714, 'tags': {'addr:city': 'Mönchengladbach', 'addr:country': 'DE', 'addr:housenumber': '455', 'addr:postcode': '41069', 'addr:street': 'Aachener Straße', 'amenity': 'pharmacy', 'dispensing': 'yes', 'healthcare': 'pharmacy', 'name': 'Apotheke St. Michael', 'opening_hours': 'Mo-Fr 08:00-19:00; Sa 08:00-14:00', 'phone': '+49 2161 540800', 'website': 'https://www.apomich.de/apotheke/'}}"
"{'type': 'node', 'id': 364999460, 'lat': 51.133692, 'lon': 6.4543793, 'tags': {'addr:city': 'Mönchengladbach', 'addr:housenumber': '20', 'addr:postcode': '41199', 'addr:street': 'Pastorsgasse', 'amenity': 'pharmacy', 'contact:facebook': 'https://www.facebook.com/PilzApotheke/', 'contact:phone': '+49 2166 603066', 'contact:website': 'https://www.burg-apotheke-pilz.de/', 'dispensing': 'yes', 'drive_through': 'no', 'healthcare': 'pharmacy', 'name': 'Burg-Apotheke Pilz', 'opening_hours': 'Mo-Fr 08:00-13:30,14:30-18:30; Sa 09:00-13:00; Su, PH ""siehe Apothekennotdienst""', 'operator': 'Günther Pilz', 'wheelchair': 'yes'}}"
"{'type': 'node', 'id': 365048153, 'lat': 51.1355375, 'lon': 6.449079, 'tags': {'addr:city': 'Mönchengladbach', 'addr:country': 'DE', 'addr:housenumber': '12', 'addr:postcode': '41199', 'addr:street': 'Ruhrfelder Straße', 'amenity': 'pharmacy', 'dispensing': 'yes', 'healthcare': 'pharmacy', 'name': 'Laurentius-Apotheke', 'opening_hours': 'Mo,Tu,Th,Fr 07:00-13:00,14:00-18:30; We 07:00-13:00; Sa 09:00-13:00', 'wheelchair': 'no'}}"
"{'type': 'node', 'id': 365049539, 'lat': 51.1343033, 'lon': 6.4523706, 'tags': {'addr:city': 'Mönchengladbach', 'addr:country': 'DE', 'addr:housenumber': '53', 'addr:postcode': '41199', 'addr:street': 'Burgfreiheit', 'addr:suburb': 'Odenkirchen', 'amenity': 'pharmacy', 'contact:phone': '+49 2166 963930', 'contact:website': 'http://stadt-apotheke-jansen.de', 'dispensing': 'yes', 'lastcheck': '2017-07-25', 'name': 'Stadt-Apotheke Jansen', 'opening_hours': 'Mo-Fr 08:00-19:00; Sa 08:00-13:00', 'operator': 'Annette Zimmermann', 'wheelchair': 'yes'}}"
"{'type': 'node', 'id': 365052851, 'lat': 51.1683641, 'lon': 6.4445244, 'tags': {'dispensing': 'yes', 'disused:amenity': 'pharmacy', 'healthcare': 'pharmacy', 'old_name': 'Adler-Apotheke Rheydt', 'opening_hours': 'Mo-Fr 08:30-18:30; Sa 08:30-13:30 || open ""Siehe Notdienste""', 'phone': '+49 2166 40413', 'website': 'http://www.adlerapotheke-rheydt.de/', 'wheelchair': 'yes'}}"
"{'type': 'node', 'id': 365059982, 'lat': 51.1674232, 'lon': 6.4436417, 'tags': {'contact:phone': '+49 2166 279 9619', 'healthcare': 'podiatrist', 'medical_system:western': 'yes', 'name': 'Podologie Zentrum Ajmida', 'opening_hours': '""Nach Vereinbarung""'}}"
"{'type': 'node', 'id': 365077233, 'lat': 51.1617048, 'lon': 6.4489806, 'tags': {'addr:housenumber': '41', 'addr:postcode': '41236', 'addr:street': 'Keplerstraße', 'amenity': 'pharmacy', 'dispensing': 'yes', 'healthcare': 'pharmacy', 'name': 'Falken-Apotheke', 'wheelchair': 'no'}}"
"{'type': 'node', 'id': 365087321, 'lat': 51.1638606, 'lon': 6.4431669, 'tags': {'amenity': 'pharmacy', 'check_date': '2023-12', 'dispensing': 'yes', 'healthcare': 'pharmacy', 'name': 'Marien-Apotheke', 'opening_hours': 'Mo-Fr 08:00-19:00; Sa 09:00-13:00', 'wheelchair': 'yes'}}"
"{'type': 'node', 'id': 365169737, 'lat': 51.1660882, 'lon': 6.4417856, 'tags': {'amenity': 'pharmacy', 'dispensing': 'yes', 'healthcare': 'pharmacy', 'level': '0', 'name': 'MAXMO Apotheke', 'opening_hours': 'Mo-Fr 08:00-19:00; Sa 09:00-18:00', 'wheelchair': 'yes'}}"
"{'type': 'node', 'id': 365175188, 'lat': 51.1727475, 'lon': 6.4438842, 'tags': {'amenity': 'pharmacy', 'dispensing': 'yes', 'name': 'Nord-Apotheke', 'wheelchair': 'yes'}}"
"{'type': 'node', 'id': 365177209, 'lat': 51.1685193, 'lon': 6.4453951, 'tags': {'addr:postcode': '41236', 'addr:street': 'Hauptstraße', 'amenity': 'pharmacy', 'dispensing': 'yes', 'healthcare': 'pharmacy', 'name': 'Schloss-Apotheke', 'wheelchair': 'yes'}}"
"{'type': 'node', 'id': 365178579, 'lat': 51.16603, 'lon': 6.4443072, 'tags': {'addr:housenumber': '44', 'addr:postcode': '41236', 'addr:street': 'Stresemannstraße', 'amenity': 'pharmacy', 'dispensing': 'yes', 'healthcare': 'pharmacy', 'name': 'Schwanen-Apotheke', 'wheelchair': 'yes'}}"
"{'type': 'node', 'id': 365182304, 'lat': 51.1660347, 'lon': 6.4269306, 'tags': {'addr:housenumber': '247', 'addr:postcode': '41239', 'addr:street': 'Dahlener Straße', 'amenity': 'pharmacy', 'dispensing': 'yes', 'healthcare': 'pharmacy', 'name': 'Vincenz-Apotheke', 'wheelchair': 'yes'}}"
"{'type': 'node', 'id': 365907633, 'lat': 51.5170352, 'lon': 6.3215052, 'tags': {'addr:city': 'Geldern', 'addr:housenumber': '36', 'addr:postcode': '47608', 'addr:street': 'Markt', 'amenity': 'pharmacy', 'dispensing': 'yes', 'fax': '+49 2831 89333', 'healthcare': 'pharmacy', 'name': 'Galenus-Apotheke', 'opening_hours': 'Mo-Fr 08:00-18:30; Sa 08:30-14:00', 'operator': 'Bernward Fohler', 'phone': '+49 2831 5376', 'toilets:wheelchair': 'no', 'website': 'https://www.galenus-apotheke-geldern.de/', 'wheelchair': 'yes'}}"
"{'type': 'node', 'id': 366877066, 'lat': 50.7754966, 'lon': 6.0962271, 'tags': {'addr:city': 'Aachen', 'addr:country': 'DE', 'addr:housenumber': '14', 'addr:postcode': '52062', 'addr:street': 'Heinrichsallee', 'amenity': 'dentist', 'healthcare': 'dentist', 'name': 'Moschel', 'website': 'http://www.moschel-dent.de'}}"
"{'type': 'node', 'id': 370584324, 'lat': 50.8249213, 'lon': 6.2509558, 'tags': {'amenity': 'pharmacy', 'check_date': '2024-08-17', 'healthcare': 'pharmacy', 'name': 'MAXMO Apotheke', 'opening_hours': 'Mo-Sa 09:00-20:00; Su,PH off', 'website': 'https://www.maxmo.de/apotheken/maxmo-apotheke-im-real-eschweiler/', 'wheelchair': 'yes'}}"
"{'type': 'node', 'id': 371394840, 'lat': 50.9938398, 'lon': 5.3424725, 'tags': {'addr:housenumber': 'Halveweg 68', 'amenity': 'pharmacy', 'changing_table': 'no', 'entrance:kerb:height': '0', 'entrance:step_count': '0', 'entrance:width': '0.95', 'healthcare': 'pharmacy', 'name': 'Gorissen', 'opening_hours': 'Mo-Su 08:30-08:30, 12:30-13:30, 19:00-19:00', 'toilets:wheelchair': 'no', 'wheelchair:turning_circle': 'no'}}"
"{'type': 'node', 'id': 373723141, 'lat': 51.571098, 'lon': 6.3625722, 'tags': {'addr:city': 'Geldern', 'addr:country': 'DE', 'addr:housenumber': '3', 'addr:postcode': '47608', 'addr:street': 'Lange Straße', 'addr:suburb': 'Kapellen', 'amenity': 'pharmacy', 'contact:email': 'kapellen@cuypers-apotheken.de', 'contact:facebook': 'https://www.facebook.com/cuypers.apotheken', 'contact:fax': '+49 2831 1340289', 'contact:instagram': 'https://www.instagram.com/Cuypers_apotheken/', 'contact:phone': '+49 2831 1340288', 'contact:website': 'https://www.cuypers-apotheken.de/filialen/dorf-apotheke-kapellen/', 'dispensing': 'yes', 'healthcare': 'pharmacy', 'name': 'Dorf Apotheke Kapellen', 'opening_hours': 'Mo,Tu,Th,Fr 08:30-12:30,14:30-18:30; We 08:30-12:30; Sa 09:00-12:30', 'operator': 'Matthias Cuypers', 'wheelchair': 'yes'}}"
"{'type': 'node', 'id': 380904993, 'lat': 51.0320765, 'lon': 5.8055775, 'tags': {'addr:city': 'Born', 'addr:housenumber': '1', 'addr:postcode': '6121KE', 'addr:street': 'Tiendstraat', 'amenity': 'pharmacy', 'brand': 'Service Apotheek', 'brand:wikidata': 'Q124129179', 'email': 'info@apotheekborn.nl', 'healthcare': 'pharmacy', 'name': 'Service Apotheek Born', 'opening_hours': 'Mo-Fr 08:00-18:00; Sa 09:00-17:30; PH off', 'phone': '+31 46 485 60 00', 'source': 'BAG', 'source:date': '2014-05-29', 'website': 'https://www.serviceapotheek.nl/born/', 'wheelchair': 'yes'}}"
"{'type': 'node', 'id': 381905098, 'lat': 51.2616233, 'lon': 6.4048018, 'tags': {'addr:city': 'Viersen', 'addr:housenumber': '51', 'addr:postcode': '41748', 'addr:street': 'Kanalstraße', 'amenity': 'pharmacy', 'drive_through': 'no', 'email': 'paracelsus@innovapotheke.de', 'fax': '+49 2162 / 8905929', 'healthcare': 'pharmacy', 'name': 'Paracelsus-Apotheke', 'opening_hours': 'Mo-Sa 08:00-20:00', 'operator': 'Peter Reitz', 'phone': '+49 2162 / 8905930', 'website': 'https://www.innovapotheken.de', 'wheelchair': 'yes'}}"
"{'type': 'node', 'id': 384739560, 'lat': 50.7968094, 'lon': 6.3888418, 'tags': {'amenity': 'doctors', 'healthcare': 'doctor', 'name': 'Dr. Guzinski, Merode'}}"
"{'type': 'node', 'id': 386006989, 'lat': 50.8277453, 'lon': 6.3146888, 'tags': {'addr:city': 'Eschweiler', 'addr:housenumber': '498a', 'addr:postcode': '52249', 'addr:street': 'Dürener Straße', 'amenity': 'pharmacy', 'contact:fax': '+49 2403 64713', 'contact:phone': '+49 2403 6368', 'contact:website': 'http://www.klara-apotheke.de/', 'healthcare': 'pharmacy', 'lastcheck': '2016-12-18', 'name': 'Klara-Apotheke', 'operator': 'Inge Huppertz', 'wheelchair': 'yes'}}"
"{'type': 'node', 'id': 389344478, 'lat': 51.6992522, 'lon': 6.3743164, 'tags': {'addr:city': 'Xanten', 'addr:housenumber': '89', 'addr:postcode': '46509', 'addr:street': 'Kalkarer Straße', 'amenity': 'doctors', 'description': 'Facharzt für Allgemeinmedizin', 'email': 'praxis@doc-maassen.de', 'fax': '+49 2804 181745', 'healthcare': 'doctor', 'healthcare:speciality': 'general;tropical;occupational', 'name': 'Dr. med. Wilhelm Maaßen', 'opening_hours': 'Mo,Th 08:00-11:30,15:00-17:30; Tu,We,Fr 08:00-11:30; PH off', 'phone': '+49 2804 8383'}}"
"{'type': 'node', 'id': 389376164, 'lat': 51.58137, 'lon': 6.2445952, 'tags': {'addr:city': 'Kevelaer', 'addr:housenumber': '58', 'addr:postcode': '47623', 'addr:street': 'Busmannstraße', 'amenity': 'pharmacy', 'dispensing': 'yes', 'healthcare': 'pharmacy', 'name': 'Rathaus Apotheke', 'opening_hours': 'Mo-Fr 08:00-13:00,14:00-18:30; Sa 08:30-13:00', 'wheelchair': 'yes'}}"
"{'type': 'node', 'id': 392392069, 'lat': 50.9248988, 'lon': 6.2014617, 'tags': {'addr:city': 'Baesweiler', 'addr:housenumber': '12A', 'addr:postcode': '52499', 'addr:street': 'An der Burg', 'addr:suburb': 'Setterich', 'amenity': 'doctors', 'healthcare': 'doctor', 'name': 'Bolz', 'opening_hours': 'Mo-Fr 08:00-12:00, Mo,Tu,Th,Fr 15:30-17:30', 'wheelchair': 'yes'}}"
"{'type': 'node', 'id': 392640118, 'lat': 50.9175458, 'lon': 6.3623178, 'tags': {'addr:city': 'Jülich', 'addr:country': 'DE', 'addr:housenumber': '6', 'addr:postcode': '52428', 'addr:street': 'Adolf-Fischer-Straße', 'contact:phone': '+49 2461 939362', 'healthcare': 'physiotherapist', 'name': 'Ergotherapie Praxis Twardowski'}}"
"{'type': 'node', 'id': 398940628, 'lat': 51.4761416, 'lon': 5.5507012, 'tags': {'addr:city': 'Nuenen', 'addr:housenumber': '22A', 'addr:postcode': '5671CC', 'addr:street': 'Berg', 'alt_name': 'Service Apotheek aan de Berg', 'amenity': 'pharmacy', 'brand': 'Service Apotheek', 'brand:wikidata': 'Q124129179', 'check_date:opening_hours': '2022-09-11', 'dispensing': 'yes', 'email': 'info@apotheekaandeberg.nl', 'healthcare': 'pharmacy', 'name': 'Apotheek aan de Berg', 'opening_hours': 'Mo-Fr 08:00-18:00; PH off', 'phone': '+31 40 290 6030', 'source': 'BAG', 'source:date': '2014-08-03', 'website': 'https://www.serviceapotheek.nl/aandeberg'}}"
"{'type': 'node', 'id': 405135829, 'lat': 50.8055312, 'lon': 6.276656, 'tags': {'amenity': 'pharmacy', 'check_date': '2024-09-15', 'healthcare': 'pharmacy', 'name': 'Bergrather Apotheke', 'toilets:wheelchair': 'no', 'wheelchair': 'yes'}}"
"{'type': 'node', 'id': 409009610, 'lat': 50.8412476, 'lon': 6.1097005, 'tags': {'addr:city': 'Würselen', 'addr:housenumber': '2', 'addr:postcode': '52146', 'addr:street': 'Dorfstraße', 'addr:suburb': 'Bardenberg', 'amenity': 'pharmacy', 'dispensing': 'yes', 'email': 'info@farma-plus-wuerselen-bardenberg.de', 'healthcare': 'pharmacy', 'name': 'farma-plus Apotheke Bardenberg', 'opening_hours': 'Mo-Fr 08:30-13:00,14:00-18:30; Sa 08:30-13:00; Su,PH off', 'operator': 'Jürgen Grossmann e.K.', 'phone': '+49 2405 48970', 'website': 'https://www.farma-plus-wuerselen-bardenberg.de/', 'wheelchair': 'yes'}}"
"{'type': 'node', 'id': 409009613, 'lat': 50.8408349, 'lon': 6.1091127, 'tags': {'addr:city': 'Würselen', 'addr:housenumber': '2', 'addr:postcode': '52146', 'addr:street': 'Heidestraße', 'addr:suburb': 'Bardenberg', 'amenity': 'doctors', 'email': 'info@praxis-dreesbach.de', 'healthcare': 'doctor', 'healthcare:speciality': 'general', 'name': 'Hausarztpraxis Dreesbach', 'opening_hours': 'Mo,Tu 08:00-12:00, 15:00-17:00; We 07:00-12:00;Th 8:00-12:00,16:00-18:30;Fr ""Nach Vereinbarung"";PH off', 'operator': 'Sven Dreesbach', 'phone': '+49 2405 86481', 'website': 'https://praxis-dreesbach.de/praxis/'}}"
"{'type': 'node', 'id': 409128464, 'lat': 51.2288747, 'lon': 6.0380699, 'tags': {'amenity': 'doctors', 'healthcare': 'doctor', 'name': 'Sterk & De Jong'}}"
"{'type': 'node', 'id': 409128465, 'lat': 51.2293076, 'lon': 6.0371825, 'tags': {'addr:city': 'Swalmen', 'addr:housenumber': '3', 'addr:postcode': '6071ES', 'addr:street': 'Prinses Julianastraat', 'amenity': 'dentist', 'healthcare': 'dentist', 'name': 'Tandartsenpraktijk Groenen', 'source': 'BAG', 'source:date': '2014-06-28'}}"
"{'type': 'node', 'id': 413037474, 'lat': 50.8684123, 'lon': 5.8282256, 'tags': {'amenity': 'clinic', 'healthcare': 'clinic', 'name': 'Zorgcentrum Juliana'}}"
"{'type': 'node', 'id': 426930873, 'lat': 51.6777759, 'lon': 6.159506, 'tags': {'addr:city': 'Goch', 'addr:housenumber': '31', 'addr:postcode': '47574', 'addr:street': 'Bahnhofstraße', 'amenity': 'pharmacy', 'healthcare': 'pharmacy', 'name': 'Bahnhofapotheke'}}"
"{'type': 'node', 'id': 426969433, 'lat': 51.6774446, 'lon': 6.1567318, 'tags': {'addr:city': 'Goch', 'addr:housenumber': '13', 'addr:postcode': '47574', 'addr:street': 'Brückenstraße', 'amenity': 'pharmacy', 'healthcare': 'pharmacy', 'name': 'Park-Apotheke', 'wheelchair': 'yes'}}"
"{'type': 'node', 'id': 427927766, 'lat': 50.8213408, 'lon': 6.1256546, 'tags': {'addr:city': 'Würselen', 'addr:housenumber': '54', 'addr:postcode': '52146', 'addr:street': 'Aachener Straße', 'amenity': 'doctors', 'healthcare': 'doctor', 'name': 'Dr. Pütz, Dr. Liber', 'wheelchair': 'no'}}"
"{'type': 'node', 'id': 428056785, 'lat': 50.8183212, 'lon': 6.2385482, 'tags': {'addr:city': 'Eschweiler', 'addr:housenumber': '59', 'addr:postcode': '52249', 'addr:street': 'Röher Straße', 'amenity': 'hospital', 'contact:email': 'info@privatklinik-eschweiler.de', 'contact:fax': '+49 2403 789 156', 'contact:phone': '+49 2403 789 10', 'contact:website': 'https://www.privatklinik-eschweiler.de', 'healthcare': 'hospital', 'healthcare:speciality': 'psychiatry', 'image': 'https://www.privatklinik-eschweiler.de/wp-content/uploads/privatklinik-echweiler-logo-300-200x256.jpg', 'name': 'Privatklinik Eschweiler', 'old_name': 'Röher Parkklinik', 'operator': 'Privatklinik Eschweiler GmbH', 'operator:type': 'business', 'website': 'https://www.privatklinik-eschweiler.de', 'wheelchair': 'yes'}}"
"{'type': 'node', 'id': 431169876, 'lat': 51.4272987, 'lon': 5.3918623, 'tags': {'addr:city': 'Veldhoven', 'addr:housenumber': '2', 'addr:postcode': '5508VG', 'addr:street': 'Dommelshei', 'amenity': 'pharmacy', 'dispensing': 'no', 'email': 'apotheek.heikant@ezorg.nl', 'healthcare': 'pharmacy', 'name': 'Alphega Apotheek Heikant', 'opening_hours': 'Mo-Fr 08:30-17:30', 'phone': '+31 40 254 6022', 'source': 'BAG', 'source:date': '2014-03-24', 'website': 'https://www.alphega-apotheek.nl/web/apotheekheikant'}}"
"{'type': 'node', 'id': 431169877, 'lat': 51.4275106, 'lon': 5.3931938, 'tags': {'addr:city': 'Veldhoven', 'addr:housenumber': '19', 'addr:postcode': '5508VE', 'addr:street': 'Dommelshei', 'amenity': 'doctors', 'email': 'assistente@heikant.nl', 'emergency': 'no', 'healthcare': 'doctor', 'name': 'Huisartsenpraktijk Heikant', 'opening_hours': 'Mo-Fr 08:00-17:00', 'phone': '+31 40 253 0530', 'website': 'https://heikant.nl/Huisartsen/Wie-zijn-wij'}}"
"{'type': 'node', 'id': 433825978, 'lat': 50.7701521, 'lon': 6.0399485, 'tags': {'amenity': 'pharmacy', 'healthcare': 'pharmacy', 'name': 'Kullen-Apotheke', 'note': 'Hat Eingänge von beiden Seiten des Gebäudes', 'opening_hours': 'Mo-Fr 08:30-18:30; Sa 08:30-13:00; Su,PH off', 'operator': 'Susanne Falke-Olk', 'phone': '+49 241 870333', 'website': 'https://www.kullen-apotheke-aachen.de/', 'wheelchair': 'yes'}}"
"{'type': 'node', 'id': 436198038, 'lat': 50.8187533, 'lon': 6.2595668, 'tags': {'amenity': 'pharmacy', 'check_date': '2023-09-08', 'healthcare': 'pharmacy', 'name': 'easy Apotheke', 'wheelchair': 'yes'}}"
"{'type': 'node', 'id': 436657697, 'lat': 50.7704919, 'lon': 6.0650945, 'tags': {'check_date:opening_hours': '2024-08-07', 'healthcare': 'physiotherapist', 'name': 'Physio Vital', 'opening_hours': 'Mo-Fr 08:00-20:00', 'website': 'http://www.physiovital-koenig.de/'}}"
"{'type': 'node', 'id': 442137068, 'lat': 50.8741055, 'lon': 6.1665956, 'tags': {'addr:city': 'Alsdorf', 'addr:country': 'DE', 'addr:housenumber': '55', 'addr:postcode': '52477', 'addr:street': 'Luisenstraße', 'amenity': 'pharmacy', 'contact:phone': '+49 2404 90500', 'healthcare': 'pharmacy', 'name': 'Rathaus-Apotheke', 'opening_hours': 'Mo-Fr 08:30-18:30; We 08:30-13:00; Sa 09:00-13:00; Su,PH off', 'operator': 'Stephan Jüsten', 'website': 'https://www.ja-apotheken.de/'}}"
"{'type': 'node', 'id': 442139135, 'lat': 50.8740941, 'lon': 6.1622969, 'tags': {'addr:city': 'Alsdorf', 'addr:country': 'DE', 'addr:housenumber': '3', 'addr:postcode': '52477', 'addr:street': 'Luisenstraße', 'amenity': 'pharmacy', 'healthcare': 'pharmacy', 'name': 'Barbara Apotheke', 'website': 'https://www.barbara-apotheke-alsdorf.de/', 'wheelchair': 'yes'}}"
"{'type': 'node', 'id': 442139204, 'lat': 50.8748109, 'lon': 6.159333, 'tags': {'addr:city': 'Alsdorf', 'addr:country': 'DE', 'addr:housenumber': '41', 'addr:postcode': '52477', 'addr:street': 'Denkmalplatz', 'amenity': 'pharmacy', 'healthcare': 'pharmacy', 'name': 'Apotheke am Denkmalplatz', 'operator': 'Ulrich Lamers', 'website': 'https://www.apothekeamdenkmalplatz.de/'}}"
"{'type': 'node', 'id': 448521294, 'lat': 51.4878299, 'lon': 5.6689731, 'tags': {'addr:city': 'Helmond', 'addr:housenumber': '131', 'addr:postcode': '5701AH', 'addr:street': 'Wethouder Ebbenlaan', 'alt_name': 'Service Apotheek Leonardus', 'amenity': 'pharmacy', 'brand': 'Service Apotheek', 'brand:wikidata': 'Q124129179', 'email': 'apotheek@gcleonardus.nl', 'healthcare': 'pharmacy', 'name': 'Apotheek Leonardus', 'opening_hours': 'Mo-Fr 08:00-18:00; PH off', 'phone': '+31 492 508 001', 'website': 'https://www.serviceapotheek.nl/leonardus'}}"
"{'type': 'node', 'id': 453095530, 'lat': 51.0917054, 'lon': 5.5236051, 'tags': {'addr:housenumber': '68', 'addr:postcode': '3670', 'addr:street': 'Hoogstraat', 'amenity': 'pharmacy', 'healthcare': 'pharmacy', 'name': 'Apotheek Foulon', 'phone': '+32 11 79 27 08', 'website': 'https://www.apotheekfoulon.be/'}}"
"{'type': 'node', 'id': 454617258, 'lat': 51.2007128, 'lon': 6.2178309, 'tags': {'addr:city': 'Niederkrüchten', 'addr:housenumber': '56', 'addr:postcode': '41372', 'addr:street': 'Mittelstraße', 'amenity': 'pharmacy', 'dispensing': 'yes', 'email': 'aposchwan@t-online.de', 'fax': '+49 2163 47581', 'healthcare': 'pharmacy', 'name': 'Schwanen Apotheke', 'opening_hours': 'Mo,Tu,Th,Fr 08:30-18:30; We,Sa 08:30-13:00', 'operator': 'Kornelia Steeger', 'phone': '+49 2163 47575', 'website': 'https://www.apotheke-niederkruechten.de/', 'wheelchair': 'limited'}}"
"{'type': 'node', 'id': 457630458, 'lat': 50.8558669, 'lon': 6.0788809, 'tags': {'addr:city': 'Herzogenrath', 'addr:country': 'DE', 'addr:housenumber': '80', 'addr:postcode': '52134', 'addr:street': 'Alte Straße', 'healthcare': 'speech_therapist', 'name': 'Logopädische Praxisgemeinschaft Bulles & Rieper', 'operator': 'Kerstin Bulles;Sibylle Rieper', 'phone': '+49 2406 9761431', 'website': 'http://logopaedie-strass.de/'}}"
"{'type': 'node', 'id': 458209595, 'lat': 50.6144892, 'lon': 5.6830466, 'tags': {'amenity': 'pharmacy', 'contact:phone': '+32 4 358 30 44', 'dispensing': 'yes', 'healthcare': 'pharmacy', 'name': 'Multipharma Fléron', 'opening_hours': 'Mo-Fr 09:00-12:30, 13:30-18:30; Sa 09:00-12:30'}}"
"{'type': 'node', 'id': 460393516, 'lat': 51.7633357, 'lon': 5.7855076, 'tags': {'addr:city': 'Overasselt', 'addr:country': 'NL', 'addr:housenumber': '1', 'addr:postcode': '6611AA', 'addr:street': 'Schoonenburgseweg', 'amenity': 'dentist', 'contact:email': 'info@tandartspraktijkoverasselt.nl', 'contact:fax': '+31 84 734 1749', 'contact:phone': '+31 24 622 2100', 'contact:website': 'https://www.tandartspraktijkoverasselt.nl', 'healthcare': 'dentist', 'name': 'Tandartspraktijk Overasselt'}}"
"{'type': 'node', 'id': 462427512, 'lat': 50.9224609, 'lon': 6.20424, 'tags': {'amenity': 'pharmacy', 'healthcare': 'pharmacy', 'name': 'Burgapotheke', 'wheelchair': 'yes'}}"
"{'type': 'node', 'id': 462739352, 'lat': 50.9929202, 'lon': 5.996287, 'tags': {'addr:city': 'Gangelt', 'addr:housenumber': '9', 'addr:postcode': '52538', 'addr:street': 'Sittarder Straße', 'amenity': 'pharmacy', 'dispensing': 'yes', 'healthcare': 'pharmacy', 'name': 'Hirsch Apotheke', 'operator': 'Krautwald', 'phone': '+49 2454 92140', 'wheelchair': 'no'}}"
"{'type': 'node', 'id': 463757288, 'lat': 50.6769764, 'lon': 5.9288673, 'tags': {'addr:housenumber': '48', 'addr:street': 'Village', 'amenity': 'pharmacy', 'dispensing': 'no', 'healthcare': 'pharmacy', 'name': 'Bolly'}}"
"{'type': 'node', 'id': 467096117, 'lat': 50.8394973, 'lon': 5.6502212, 'tags': {'addr:city': 'Maastricht', 'addr:housenumber': '9', 'addr:postcode': '6215BB', 'addr:street': 'Herculeshof', 'healthcare': 'physiotherapist', 'name': 'Fysio Daalhof', 'opening_hours': 'Mo,Tu 07:00-20:00; We 07:00-18:00; Th 07:00-20:30; Fr 08:00-18:00'}}"
"{'type': 'node', 'id': 470433807, 'lat': 51.3204401, 'lon': 6.3866899, 'tags': {'amenity': 'doctors', 'healthcare': 'doctor', 'healthcare:speciality': 'general', 'name': 'Gemeinschaftspraxis Dr.Winkels, Hermann, Dr. Raupach', 'opening_hours': 'Mo-Fr 08:00-13:00, Mo,Tu,Th 15:30-19:00', 'operator': 'Dr. Winkels', 'source': 'Kreis_Viersen_Gesundheitsamt_2020_04', 'wheelchair': 'limited'}}"
"{'type': 'node', 'id': 470470026, 'lat': 51.2832354, 'lon': 6.3722405, 'tags': {'amenity': 'doctors', 'healthcare': 'doctor', 'healthcare:speciality': 'general', 'name': 'Hausarztzentrum-Viersen', 'opening_hours': 'Mo,Tu 08:00-12:00,15:30-18:00; We,Fr 08:00-12:00; Th 08:00-12:00,14:30-18:00', 'operator': 'Dr. med. Margita Meyer, MD Marian Vermeulen, Wolfgang Bertram , Dr. med. Jürgen Dreher', 'source': 'Kreis_Viersen_Gesundheitsamt_2020_04', 'website': 'https://www.hausarztzentrum-viersen.de/', 'wheelchair': 'limited'}}"
"{'type': 'node', 'id': 474656342, 'lat': 51.6973004, 'lon': 5.3345443, 'tags': {'addr:city': ""'s-Hertogenbosch"", 'addr:housenumber': '6', 'addr:postcode': '5213HX', 'addr:street': 'van Broeckhovenlaan', 'amenity': 'doctors', 'contact:phone': '+31 73 613 3288', 'healthcare': 'doctor', 'name': 'Huisartsenpraktijk Den Bosch Oost', 'source': 'BAG', 'source:date': '2014-02-11', 'website': 'https://denboschoost.nl/'}}"
"{'type': 'node', 'id': 474656351, 'lat': 51.6973954, 'lon': 5.334289, 'tags': {'addr:city': ""'s-Hertogenbosch"", 'addr:housenumber': '6a', 'addr:postcode': '5213HX', 'addr:street': 'van Broeckhovenlaan', 'amenity': 'pharmacy', 'healthcare': 'pharmacy', 'name': 'BENU Apotheek Den Bosch-Oost', 'opening_hours': 'Mo-Fr 08:00-17:30', 'operator': 'BENU Apotheek', 'website': 'https://www.benuapotheek.nl/apotheek/den-bosch-oost'}}"
"{'type': 'node', 'id': 475579606, 'lat': 50.7320505, 'lon': 6.2104537, 'tags': {'amenity': 'pharmacy', 'dispensing': 'yes', 'healthcare': 'pharmacy', 'name': 'Barbara Apotheke', 'opening_hours': 'Mo-Fr 08:00-18:30; Sa 08:30-14:00', 'phone': '+49 2402 30388', 'wheelchair': 'yes'}}"
"{'type': 'node', 'id': 480333994, 'lat': 51.0309736, 'lon': 5.3754998, 'tags': {'addr:housenumber': '1B', 'addr:street': 'Dorpsstraat', 'amenity': 'pharmacy', 'dispensing': 'yes', 'drive_through': 'no', 'healthcare': 'pharmacy', 'name': 'Lenssen', 'opening_hours': 'Mo-Fr 09:00-12:00,13:30-18:30', 'source': 'https://lenssen.apotheek.be/', 'website': 'https://lenssen.apotheek.be/'}}"
"{'type': 'node', 'id': 480704987, 'lat': 51.2858059, 'lon': 6.3700671, 'tags': {'addr:city': 'Viersen', 'addr:housenumber': '37', 'addr:postcode': '41749', 'addr:street': 'Hochstraße', 'amenity': 'pharmacy', 'dispensing': 'yes', 'email': 'INFO@LEUKENSCHE-APOTHEKE.DE', 'fax': '+49 2162 7125', 'healthcare': 'pharmacy', 'name': ""Leuken'sche Apotheke"", 'opening_hours': 'Mo-Fr 08:30-13:00,14:30-18:30; Sa 09:00-13:00', 'phone': '+49 2162 6010', 'website': 'https://www.leuken-apo.de/', 'wheelchair': 'yes'}}"
"{'type': 'node', 'id': 481272373, 'lat': 50.9627944, 'lon': 6.1239684, 'tags': {'amenity': 'pharmacy', 'dispensing': 'yes', 'healthcare': 'pharmacy', 'name': 'Hirsch Apotheke', 'operator': 'J. Kusiek', 'phone': '+49 2451 2656', 'wheelchair': 'yes'}}"
"{'type': 'node', 'id': 483389033, 'lat': 51.6757645, 'lon': 6.1576422, 'tags': {'addr:city': 'Goch', 'addr:housenumber': '18', 'addr:postcode': '47574', 'addr:street': 'Steinstraße', 'amenity': 'pharmacy', 'healthcare': 'pharmacy', 'name': 'Einhorn-Apotheke', 'wheelchair': 'no'}}"
"{'type': 'node', 'id': 485083514, 'lat': 50.7580346, 'lon': 5.7140062, 'tags': {'addr:city': 'Voeren', 'addr:housenumber': '13', 'addr:postcode': '3790', 'addr:street': 'Withuisstraat - Rue Maison Blanche', 'amenity': 'pharmacy', 'name': 'Apotheek Simon', 'phone': '+32 4 381 12 84'}}"
"{'type': 'node', 'id': 496282427, 'lat': 50.7719012, 'lon': 6.0842262, 'tags': {'amenity': 'pharmacy', 'check_date:opening_hours': '2024-08-24', 'dispensing': 'yes', 'healthcare': 'pharmacy', 'name': 'Barbarossa Apotheke', 'opening_hours': 'Mo-Fr 08:30-18:30; Sa 08:30-18:00', 'phone': '+49 241 32201', 'website': 'http://www.barbarossa-apotheke-aachen.de/', 'wheelchair': 'yes'}}"
"{'type': 'node', 'id': 497061403, 'lat': 50.7341705, 'lon': 5.6962086, 'tags': {'amenity': 'pharmacy', 'contact:phone': '+32 4 379 12 10', 'dispensing': 'yes', 'healthcare': 'pharmacy', 'name': 'Müller', 'opening_hours': 'Mo-Fr 09:00-12:30, 14:00-18:00; Sa 09:00-12:30'}}"
"{'type': 'node', 'id': 497061419, 'lat': 50.7350632, 'lon': 5.6946884, 'tags': {'amenity': 'pharmacy', 'contact:phone': '+32 4 379 10 29', 'dispensing': 'yes', 'healthcare': 'pharmacy', 'name': 'Lassance', 'opening_hours': 'Mo-Fr 10:00-19:00; Sa 09:00-18:00'}}"
"{'type': 'node', 'id': 497061486, 'lat': 50.7374763, 'lon': 5.69572, 'tags': {'amenity': 'pharmacy', 'contact:phone': '+32 4 379 13 65', 'dispensing': 'yes', 'healthcare': 'pharmacy', 'name': 'Fivez'}}"
"{'type': 'node', 'id': 497061490, 'lat': 50.7369531, 'lon': 5.6949286, 'tags': {'amenity': 'pharmacy', 'contact:phone': '+32 4 379 15 22', 'dispensing': 'yes', 'healthcare': 'pharmacy', 'name': 'Pharmacie Henry'}}"
"{'type': 'node', 'id': 499114704, 'lat': 51.1257466, 'lon': 5.3601172, 'tags': {'addr:city': 'Hechtel', 'addr:country': 'BE', 'addr:housenumber': '4', 'addr:postcode': '3940', 'addr:street': 'Dorpsstraat', 'amenity': 'doctors', 'healthcare': 'doctor', 'name': 'Dr. Schutyser', 'opening_hours': 'Mo-Fr 07:48-11:36,16:00-19:00', 'phone': '+32 11 73 16 00', 'url': 'http://www.dokterschutyser.be/'}}"
"{'type': 'node', 'id': 501975668, 'lat': 51.4710142, 'lon': 5.473745, 'tags': {'addr:city': 'Eindhoven', 'addr:housenumber': '83D', 'addr:postcode': '5625AE', 'addr:street': 'Winkelcentrum Woensel', 'amenity': 'pharmacy', 'email': 'apotheekwoensel@sge.nl', 'healthcare': 'pharmacy', 'name': 'Apotheek SGE Woensel', 'opening_hours': 'Mo-Fr 08:30-17:30', 'phone': '+31 40 711 6810', 'source': 'BAG', 'source:date': '2014-03-24', 'website': 'https://woensel.sge.nl'}}"
"{'type': 'node', 'id': 504655935, 'lat': 50.8484202, 'lon': 6.426894, 'tags': {'addr:city': 'Düren', 'addr:housenumber': '119', 'addr:postcode': '52353', 'addr:street': 'Peterstraße', 'addr:suburb': 'Merken', 'amenity': 'pharmacy', 'dispensing': 'yes', 'drive_through': 'no', 'fax': '+49 2421 81282', 'name': 'Rosen-Apotheke', 'phone': '+49 2421 81220', 'wheelchair': 'limited'}}"
"{'type': 'node', 'id': 505074647, 'lat': 51.1235514, 'lon': 5.3622574, 'tags': {'addr:city': 'Hechtel', 'addr:country': 'BE', 'addr:housenumber': '36b 1-2', 'addr:postcode': '3940', 'addr:street': 'Dorpsstraat', 'amenity': 'doctors', 'healthcare': 'doctor', 'name': ""Huisartsenpraktijk 'De Zorgboom'"", 'phone': '+32 11 73 33 60', 'url': 'http://www.dezorgboom.be'}}"
"{'type': 'node', 'id': 513679057, 'lat': 50.7588349, 'lon': 6.0857295, 'tags': {'addr:city': 'Aachen', 'addr:country': 'DE', 'addr:housenumber': '73-75', 'addr:postcode': '52066', 'addr:street': 'Eupener Straße', 'amenity': 'pharmacy', 'dispensing': 'yes', 'healthcare': 'pharmacy', 'name': 'Granus Apotheke', 'opening_hours': 'Mo-Tu 08:30-13:00,15:00-18:30; We 08:30-13:00; Th-Fr 08:30-13:00,15:00-18:30; Sa 08:30-13:00', 'phone': '+49 241 62063', 'website': 'https://www.granus-apotheke.de/', 'wheelchair': 'limited'}}"
"{'type': 'node', 'id': 517475353, 'lat': 51.1298011, 'lon': 5.4549078, 'tags': {'addr:city': 'Peer', 'addr:country': 'BE', 'addr:housenumber': '5', 'addr:postcode': '3990', 'addr:street': 'Wittesteenstraat', 'amenity': 'dentist', 'healthcare': 'dentist', 'name': 'Bvba Henckens-Agten', 'opening_hours': '""Enkel op afspraak""; PH off', 'phone': '+32 11 63 18 41'}}"
"{'type': 'node', 'id': 521229313, 'lat': 51.3683661, 'lon': 6.4275678, 'tags': {'addr:city': 'Kempen', 'addr:housenumber': '13', 'addr:postcode': '47906', 'addr:street': 'Arnoldstraße', 'amenity': 'pharmacy', 'check_date:opening_hours': '2023-10-26', 'contact:email': 'info@apotheke-im-arnoldhaus.de', 'contact:fax': '+49 2152 - 1489486', 'contact:phone': '+49 2152 - 1489485', 'contact:website': 'https://www.apotheke-im-arnoldhaus.de', 'healthcare': 'pharmacy', 'name': 'Apotheke im Arnoldhaus', 'opening_hours': 'Mo,Tu,Th,Fr 08:00-18:30; We 08:00-13:00', 'operator': 'Olaf Orthen', 'wheelchair': 'yes'}}"
"{'type': 'node', 'id': 535273417, 'lat': 50.7426475, 'lon': 6.263837, 'tags': {'addr:city': 'Stolberg (Rhld.)', 'addr:country': 'DE', 'addr:housenumber': '31', 'addr:postcode': '52224', 'addr:street': 'Eifelstraße', 'addr:suburb': 'Vicht', 'amenity': 'pharmacy', 'contact:email': 'johannes@schopps-apotheken.de', 'contact:fax': '+49 2402 1240488', 'contact:phone': '+49 2402 1240477', 'contact:website': 'https://schopps-apotheken.de/filiale-vicht/', 'dispensing': 'yes', 'healthcare': 'pharmacy', 'name': 'Johannes-Apotheke', 'opening_hours': 'Mo,Tu,Th,Fr 08:00-13:00,15:00-18:30; We 08:00-13:00; Sa 09:00-13:00; Su,PH off', 'operator': 'Iris Kräckel', 'wheelchair': 'yes'}}"
"{'type': 'node', 'id': 536671390, 'lat': 51.4431711, 'lon': 5.4411653, 'tags': {'addr:city': 'Eindhoven', 'addr:housenumber': '66', 'addr:postcode': '5652LE', 'addr:street': 'Noord Brabantlaan', 'amenity': 'pharmacy', 'email': 'apotheekstrijp@sge.nl', 'healthcare': 'pharmacy', 'name': 'Apotheek SGE Strijp', 'opening_hours': 'Mo-Fr 08:30-17:30', 'phone': '+31 40 711 6910'}}"
"{'type': 'node', 'id': 536671392, 'lat': 51.4432346, 'lon': 5.4413316, 'tags': {'amenity': 'doctors', 'healthcare': 'doctor', 'name': 'Gezondheidscentrum Strijp'}}"
"{'type': 'node', 'id': 539778123, 'lat': 50.6290782, 'lon': 5.9706839, 'tags': {'amenity': 'pharmacy', 'healthcare': 'pharmacy', 'name': 'Pharmacie Gillet'}}"
"{'type': 'node', 'id': 540982154, 'lat': 50.7973783, 'lon': 6.4560356, 'tags': {'addr:city': 'Düren', 'addr:country': 'DE', 'addr:housenumber': '134', 'addr:postcode': '52355', 'addr:street': 'Valencienner Straße', 'amenity': 'pharmacy', 'drive_through': 'no', 'healthcare': 'pharmacy', 'name': 'Ahorn-Apotheke', 'opening_hours': 'Mo-Fr 07:30-18:30; Sa 08:00-13:00', 'website': 'https://www.ahorn-apotheke-dueren.de/', 'wheelchair': 'limited'}}"
"{'type': 'node', 'id': 540987140, 'lat': 50.7974044, 'lon': 6.4558787, 'tags': {'addr:city': 'Düren', 'addr:housenumber': '134', 'addr:postcode': '52355', 'addr:street': 'Valencienner Straße', 'amenity': 'doctors', 'healthcare': 'doctor', 'healthcare:speciality': 'general', 'level': '1', 'name': 'Praxis Reuter-Stankewitz', 'opening_hours': 'Mo-Fr 08:00-17:00', 'operator': 'Dr. Ruth Reuter- Dr. Michael Stankewitz', 'phone': '+49 2421 65844', 'website': 'https://www.reuter-stankewitz.de', 'wheelchair': 'yes'}}"
"{'type': 'node', 'id': 544493382, 'lat': 50.964632, 'lon': 6.1188803, 'tags': {'amenity': 'pharmacy', 'healthcare': 'pharmacy', 'name': 'Selfkant-Apotheke'}}"
"{'type': 'node', 'id': 549315240, 'lat': 50.5055579, 'lon': 5.6631894, 'tags': {'amenity': 'pharmacy', 'healthcare': 'pharmacy', 'name': 'La sauvegarde'}}"
"{'type': 'node', 'id': 551639219, 'lat': 51.1661887, 'lon': 5.8066417, 'tags': {'amenity': 'pharmacy'}}"
"{'type': 'node', 'id': 551796109, 'lat': 51.1727724, 'lon': 5.8152251, 'tags': {'amenity': 'pharmacy'}}"
"{'type': 'node', 'id': 567343767, 'lat': 50.7685333, 'lon': 6.1218285, 'tags': {'addr:city': 'Aachen', 'addr:country': 'DE', 'addr:housenumber': '67', 'addr:postcode': '52078', 'addr:street': 'Trierer Straße', 'amenity': 'pharmacy', 'dispensing': 'yes', 'healthcare': 'pharmacy', 'name': 'Apotheke im alten Bürgermeisteramt', 'opening_hours': 'Mo,Tu,Th 08:00-19:00; PH,Sa,Su off; We 08:00-13:00; Fr 08:00-18:00', 'phone': '+49 (0) 241 5791310', 'website': 'https://www.apotheke-im-alten-buergermeisteramt-aachen.de/', 'wheelchair': 'yes'}}"
"{'type': 'node', 'id': 568345138, 'lat': 50.9163111, 'lon': 6.359234, 'tags': {'addr:city': 'Jülich', 'addr:country': 'DE', 'addr:housenumber': '11a', 'addr:postcode': '52428', 'addr:street': 'Brockmüllerstraße', 'amenity': 'doctors', 'contact:phone': '+49 2461 7000', 'healthcare': 'doctor', 'healthcare:speciality': 'internal', 'name': 'Jürgen Elsen', 'opening_hours': 'Mo 08:00-12:30,15:00-18:00; Tu-We 08:00-12:30; Th 08:00-12:30,15:00-18:00; Fr 08:00-12:30; PH off'}}"
"{'type': 'node', 'id': 569112568, 'lat': 50.6203385, 'lon': 5.9430573, 'tags': {'amenity': 'pharmacy', 'dispensing': 'yes', 'healthcare': 'pharmacy', 'name': 'Pharmacie Henroteaux'}}"
"{'type': 'node', 'id': 569932431, 'lat': 51.6812685, 'lon': 5.3255132, 'tags': {'addr:city': ""'s-Hertogenbosch"", 'addr:housenumber': '100', 'addr:postcode': '5216GC', 'addr:street': 'Mozartsingel', 'amenity': 'doctors', 'healthcare': 'doctor', 'name': 'Huisartsenpraktijk Zuiderhoed', 'source': 'BAG', 'source:date': '2017-02-08', 'website': 'https://zuiderhoed.nl/'}}"
"{'type': 'node', 'id': 569997811, 'lat': 50.618542, 'lon': 5.9392471, 'tags': {'amenity': 'pharmacy', 'healthcare': 'pharmacy', 'name': 'V. Pharma'}}"
"{'type': 'node', 'id': 570083176, 'lat': 51.0960182, 'lon': 6.2181149, 'tags': {'addr:city': 'Erkelenz', 'addr:country': 'DE', 'addr:housenumber': '21', 'addr:postcode': '41812', 'addr:street': 'Lauerstraße', 'addr:suburb': 'Gerderath', 'amenity': 'dentist', 'description': 'Zahnarzt', 'fax': '+49 2432 908445', 'healthcare': 'dentist', 'name': 'Praxis Kowalik und Kollegen', 'operator': 'Kowalik', 'phone': '+49 2432 6867'}}"
"{'type': 'node', 'id': 571308290, 'lat': 51.661363, 'lon': 6.4533962, 'tags': {'addr:city': 'Xanten', 'addr:country': 'DE', 'addr:housenumber': '8', 'addr:postcode': '46509', 'addr:street': 'Markt', 'amenity': 'pharmacy', 'dispensing': 'yes', 'healthcare': 'pharmacy', 'name': 'Hirsch-Apotheke', 'opening_hours': 'Mo-Fr 08:30-18:30; Sa 08:30-13:00', 'operator': 'Maximilian Dyckmans', 'phone': '+49 2801 3024', 'website': 'https://www.hirsch-apotheke-xanten.de/', 'wheelchair': 'no'}}"
"{'type': 'node', 'id': 571525713, 'lat': 50.8331837, 'lon': 6.0443817, 'tags': {'addr:city': 'Aachen', 'addr:housenumber': '321a', 'addr:postcode': '52072', 'addr:street': 'Horbacher Straße', 'addr:suburb': 'Horbach', 'amenity': 'dentist', 'email': 'info@praxis-haenseler.de', 'fax': '+49 2407 80001', 'healthcare': 'dentist', 'healthcare:speciality': 'general', 'name': 'Dr. Julia Hänseler', 'opening_hours': 'Mo-Fr 09:00-12:00; Mo 15:00-19:00', 'operator': 'Dr. med. dent. Julia Hänseler', 'phone': '+49 2407 80000', 'website': 'http://praxis-haenseler.de/#section1'}}"
"{'type': 'node', 'id': 571530326, 'lat': 51.2830963, 'lon': 6.0813004, 'tags': {'addr:city': 'Reuver', 'addr:housenumber': '4a', 'addr:postcode': '5953NB', 'addr:street': 'Broeklaan', 'alt_name': 'Service Apotheek Reuver', 'amenity': 'pharmacy', 'brand': 'Service Apotheek', 'brand:wikidata': 'Q124129179', 'email': 'info@apotheekreuver.nl', 'healthcare': 'pharmacy', 'name': 'Apotheek Reuver', 'opening_hours': 'Mo-Fr 08:30-17:30; PH off', 'phone': '+31 77 474 1210', 'source': 'BAG', 'source:date': '2014-08-06', 'website': 'https://www.serviceapotheek.nl/reuver'}}"
"{'type': 'node', 'id': 573396130, 'lat': 51.3385446, 'lon': 6.3369675, 'tags': {'amenity': 'doctors', 'healthcare': 'doctor', 'healthcare:speciality': 'general', 'name': 'Gemeinschaftspraxis Helmut und Monika Retzer', 'operator': 'Helmut und Monika Retzer', 'source': 'Kreis_Viersen_Gesundheitsamt_2020_04'}}"
"{'type': 'node', 'id': 574333664, 'lat': 50.8455378, 'lon': 6.3582537, 'tags': {'addr:city': 'Inden', 'addr:country': 'DE', 'addr:housenumber': '10', 'addr:postcode': '52459', 'addr:street': 'Rathausstraße', 'amenity': 'pharmacy', 'contact:email': 'kontakt@adler-apo-inden.de', 'contact:phone': '+49 246599100', 'contact:website': 'https://www.adler-apotheke-inden.de/', 'dispensing': 'yes', 'healthcare': 'pharmacy', 'name': 'Adler Apotheke', 'opening_hours': 'Mo,Tu,Fr 08:00-12:30,14:00-18:30; We,Sa 08:00-13:00; Th 08:00-12:30,14:00-19:30', 'phone': '+49 2465 99100', 'wheelchair': 'yes'}}"
"{'type': 'node', 'id': 581993899, 'lat': 50.9279164, 'lon': 6.3638681, 'tags': {'addr:city': 'Jülich', 'addr:country': 'DE', 'addr:housenumber': '2', 'addr:postcode': '52428', 'addr:street': 'Münchener Straße', 'amenity': 'doctors', 'contact:phone': '+49-2461-7150', 'healthcare': 'doctor', 'healthcare:speciality': 'otolaryngology', 'name': 'HNO Dres. Schütz', 'opening_hours:signed': 'no'}}"
"{'type': 'node', 'id': 588653741, 'lat': 50.9258433, 'lon': 6.3249689, 'tags': {'addr:city': 'Jülich', 'addr:country': 'DE', 'addr:housenumber': '35', 'addr:postcode': '52428', 'addr:street': 'Kreisbahnstraße', 'addr:suburb': 'Koslar', 'amenity': 'pharmacy', 'contact:fax': '+49-2461-58646', 'contact:phone': '+49-2461-345272', 'dispensing': 'yes', 'name': 'Apotheke Bacciocco', 'opening_hours': 'Mo-Tu 08:30-12:30,14:30-18:30;We 08:30-13:00;Th-Fr 08:30-12:30,14:30-18:30;Sa 09:00-13:00', 'website': 'https://www.apotheke-bacciocco.de/', 'wheelchair': 'yes'}}"
"{'type': 'node', 'id': 599399097, 'lat': 51.762479, 'lon': 6.187212, 'tags': {'addr:city': 'Bedburg-Hau', 'addr:housenumber': '20', 'addr:postcode': '47551', 'addr:street': 'Klosterplatz', 'amenity': 'pharmacy', 'fax': '+49 28 21 - 66 99 334', 'healthcare': 'pharmacy', 'name': 'Apotheke am Rathaus', 'opening_hours': 'Mo-Fr 08:30-18:30; Sa 08:30-13:30', 'operator': 'Henrik Scholten', 'phone': '+49 28 21 - 66 99 333', 'website': 'https://www.apo-bedburg-hau.de/', 'wheelchair': 'yes'}}"
"{'type': 'node', 'id': 600437519, 'lat': 50.7781459, 'lon': 6.1605228, 'tags': {'amenity': 'pharmacy', 'healthcare': 'pharmacy', 'name': 'Barbara-Apotheke', 'opening_hours': 'Mo- Fr 08:30-13:00,15:00-18:30; Sa 08:30-13:00; Su,PH off', 'phone': '+49 241 553100', 'website': 'http://www.barbara-apotheke-online.com/', 'wheelchair': 'no'}}"
"{'type': 'node', 'id': 600437522, 'lat': 50.7813314, 'lon': 6.1550858, 'tags': {'amenity': 'pharmacy', 'healthcare': 'pharmacy', 'name': 'Linden-Apotheke', 'opening_hours': 'Mo-Fr 08:00-13:00,15:00-18:30; Sa 08:00-13:00; PH off', 'phone': '+49 (0)241 9512000', 'wheelchair': 'limited'}}"
"{'type': 'node', 'id': 600437579, 'lat': 50.7765648, 'lon': 6.1487378, 'tags': {'addr:city': 'Aachen', 'addr:country': 'DE', 'addr:housenumber': '57', 'addr:postcode': '52080', 'addr:street': 'Von-Coels-Straße', 'amenity': 'pharmacy', 'check_date:opening_hours': '2022-04-01', 'healthcare': 'pharmacy', 'name': 'Severin-Apotheke', 'opening_hours': 'Mo-Fr 08:30-13:00,15:00-18:30; Sa 08:30-13:00; Su,PH off', 'phone': '+49 241 557859', 'website': 'https://www.severin-apo-aachen.de/', 'wheelchair': 'yes'}}"
"{'type': 'node', 'id': 612380116, 'lat': 51.3770018, 'lon': 6.1800344, 'tags': {'addr:city': 'Venlo', 'addr:housenumber': '168', 'addr:postcode': '5914AS', 'addr:street': 'Straelseweg', 'amenity': 'pharmacy', 'name': 'BENU Apotheek', 'opening_hours': 'Mo-Fr 08:30-12:00,14:00-17:30; PH,Sa,Su off', 'source': 'BAG', 'source:date': '2014-06-21'}}"
"{'type': 'node', 'id': 614840972, 'lat': 50.9214298, 'lon': 6.3613688, 'tags': {'addr:city': 'Jülich', 'addr:country': 'DE', 'addr:housenumber': '48', 'addr:postcode': '52428', 'addr:street': 'Große Rurstraße', 'amenity': 'dentist', 'contact:phone': '+49-2461-2690', 'healthcare': 'dentist', 'name': 'Drs. Anton Gielen', 'opening_hours': '""Termine nach Vereinbarung""'}}"
"{'type': 'node', 'id': 614840975, 'lat': 50.9221124, 'lon': 6.3603808, 'tags': {'addr:city': 'Jülich', 'addr:country': 'DE', 'addr:housenumber': '4', 'addr:postcode': '52428', 'addr:street': 'Poststraße', 'amenity': 'dentist', 'healthcare': 'dentist', 'name': 'Frohen & Quitmann', 'opening_hours': 'Mo-Fr 08:00-11:30, Mo,Tu,Th 13:30-17:00', 'wheelchair': 'no'}}"
"{'type': 'node', 'id': 615695144, 'lat': 51.704838, 'lon': 5.3127508, 'tags': {'addr:city': ""'s-Hertogenbosch"", 'addr:housenumber': '1', 'addr:postcode': '5231MG', 'addr:street': 'Frans Fransenstraat', 'amenity': 'pharmacy', 'email': 'derompertsebaan@benuapotheek.nl', 'healthcare': 'pharmacy', 'name': 'BENU Apotheek de Rompertsebaan', 'operator': 'Benu', 'phone': '+31 73 642 7490', 'source': 'BAG', 'source:date': '2017-02-08', 'website': 'https://www.benuapotheek.nl/apotheek/de-rompertsebaan'}}"
"{'type': 'node', 'id': 616059623, 'lat': 50.619972, 'lon': 5.5650536, 'tags': {'addr:city': 'Liège', 'addr:housenumber': '341', 'addr:postcode': '4000', 'addr:street': ""Avenue de l'Observatoire"", 'amenity': 'pharmacy', 'dispensing': 'yes', 'healthcare': 'pharmacy', 'name': 'Pharmacie Goffin'}}"
"{'type': 'node', 'id': 616060190, 'lat': 50.6204922, 'lon': 5.5740917, 'tags': {'addr:city': 'Liège', 'addr:country': 'BE', 'addr:housenumber': '29', 'addr:postcode': '4000', 'addr:street': 'Place du Général Leman', 'amenity': 'pharmacy', 'dispensing': 'yes', 'healthcare': 'pharmacy', 'name': 'Pharmacie de Fragnée'}}"
"{'type': 'node', 'id': 618282645, 'lat': 51.6978693, 'lon': 5.9362361, 'tags': {'addr:city': 'Oeffelt', 'addr:housenumber': '8c', 'addr:postcode': '5441AS', 'addr:street': 'Lietingsestraat', 'amenity': 'clinic', 'email': 'info@b-strong.nl', 'internet_access': 'wlan', 'name': 'B-Strong', 'opening_hours': '24/7', 'phone': '+31 6 11114488', 'source': 'BAG', 'source:date': '2021-08-08', 'website': 'https://www.b-strong.nl/'}}"
"{'type': 'node', 'id': 619404233, 'lat': 51.7118515, 'lon': 5.3141507, 'tags': {'addr:city': ""'s-Hertogenbosch"", 'addr:housenumber': '78', 'addr:postcode': '5231BR', 'addr:street': 'Sint Teunislaan', 'amenity': 'pharmacy', 'branch': 'Noord', 'brand': 'Benu', 'brand:wikidata': 'Q62562792', 'email': 'info@apotheeknoord.nl', 'healthcare': 'pharmacy', 'name': 'Benu', 'phone': '+31 73 641 1812', 'source': 'BAG', 'source:date': '2014-03-24', 'toilets:wheelchair': 'no', 'website': 'https://www.benuapotheek.nl/apotheek/noord', 'wheelchair': 'yes'}}"
"{'type': 'node', 'id': 637830176, 'lat': 50.767916, 'lon': 6.1233261, 'tags': {'addr:city': 'Aachen', 'addr:housenumber': '89', 'addr:postcode': '52078', 'addr:street': 'Trierer Straße', 'check_date': '2024-02-14', 'email': 'info@logo-aachen.de', 'healthcare': 'speech_therapist', 'name': 'Praxis für Logopädie auf der Trierer Straße', 'opening_hours': 'Mo-Fr ""nach Vereinbarung""; PH off', 'operator': 'Irit Gottschalk', 'phone': '+49 241 90068090', 'website': 'https://www.logo-aachen.de', 'wheelchair': 'yes'}}"
"{'type': 'node', 'id': 645530549, 'lat': 50.8238369, 'lon': 6.1642392, 'tags': {'addr:city': 'Würselen', 'addr:country': 'DE', 'addr:housenumber': '40', 'addr:postcode': '52146', 'addr:street': 'Hauptstraße', 'addr:suburb': 'Broichweiden', 'amenity': 'pharmacy', 'check_date': '2024-06-07', 'dispensing': 'yes', 'name': 'Barbarossa-Apotheke', 'opening_hours': 'Mo-Fr 08:00-18:30; Sa 08:30-13:00', 'operator': 'Dr. Wilhelm Thevis', 'phone': '+49 2405 73976', 'website': 'http://www.barbarossa-apotheke-wuerselen-app.de/', 'wheelchair': 'limited'}}"
"{'type': 'node', 'id': 648083303, 'lat': 51.603433, 'lon': 5.6737804, 'tags': {'addr:city': 'Boekel', 'addr:housenumber': '35', 'addr:postcode': '5427BB', 'addr:street': 'Kerkstraat', 'amenity': 'pharmacy', 'email': 'bestelling.boekel@ezorg.nl', 'healthcare': 'pharmacy', 'name': 'Apotheek Boekel', 'opening_hours': 'Mo-Fr 08:00-18:00; Sa 10:00-12:00; PH off', 'operator': 'Alphega', 'phone': '+31 492 323 805', 'source': 'BAG', 'source:date': '2014-05-07', 'website': 'https://www.apotheekboekel.nl', 'wheelchair': 'yes'}}"
"{'type': 'node', 'id': 649559516, 'lat': 51.0143289, 'lon': 5.8991725, 'tags': {'addr:city': 'Selfkant', 'addr:country': 'DE', 'addr:housenumber': '30', 'addr:postcode': '52538', 'addr:street': 'Sittarder Straße', 'addr:suburb': 'Tüddern', 'amenity': 'pharmacy', 'dispensing': 'yes', 'healthcare': 'pharmacy', 'name': 'West Apotheke', 'operator': 'Stephan Wagner', 'phone': '+49 2456 823', 'website': 'https://www.westapotheke-selfkant.de/'}}"
"{'type': 'node', 'id': 650907125, 'lat': 50.7703185, 'lon': 6.119267, 'tags': {'amenity': 'doctors', 'healthcare': 'doctor', 'name': 'Zweigpraxis Aachen Eisenbahnweg des MVZ Annapark Alsdorf GbR', 'opening_hours': 'Mo-Fr 08:00-12:30,14:30-17:30'}}"
"{'type': 'node', 'id': 652446206, 'lat': 50.605031, 'lon': 6.3069043, 'tags': {'addr:city': 'Simmerath', 'addr:country': 'DE', 'addr:housenumber': '1', 'addr:postcode': '52152', 'addr:street': 'Humboldtstraße', 'amenity': 'pharmacy', 'dispensing': 'yes', 'healthcare': 'pharmacy', 'name': 'Apotheke in den Bremen', 'opening_hours': 'Mo, Tu, Th 08:30-19:00; We, Fr 08:30-18:30; Sa 08:30-14:00', 'phone': '+49 2473 87938', 'website': 'https://www.apotheke-in-den-bremen.de/'}}"
"{'type': 'node', 'id': 655230991, 'lat': 51.6927156, 'lon': 5.2888276, 'tags': {'addr:city': ""'s-Hertogenbosch"", 'addr:housenumber': '403', 'addr:postcode': '5223EH', 'addr:street': 'Copernicuslaan', 'alt_name': 'Service Apotheek West', 'amenity': 'pharmacy', 'brand': 'Service Apotheek', 'brand:wikidata': 'Q124129179', 'check_date:opening_hours': '2022-10-01', 'email': 'apotheekwestrecept@ezorg.nl', 'healthcare': 'pharmacy', 'name': 'Apotheek West', 'opening_hours': 'Mo-Fr 08:30-17:30; PH off', 'phone': '+31 73 621 6122', 'source': 'BAG', 'source:date': '2014-03-24', 'website': 'https://www.serviceapotheek.nl/west-db', 'wheelchair': 'yes'}}"
"{'type': 'node', 'id': 658076686, 'lat': 50.8733124, 'lon': 6.1604211, 'tags': {'addr:city': 'Alsdorf', 'addr:country': 'DE', 'addr:housenumber': '59', 'addr:postcode': '52477', 'addr:street': 'Bahnhofstraße', 'amenity': 'pharmacy', 'contact:fax': '+49 2404 9061-14', 'contact:phone': '+49 2404 9061-0', 'contact:website': 'http://www.ja-apotheken.de/', 'healthcare': 'pharmacy', 'name': 'Anna Apotheke', 'opening_hours': 'Mo-Fr 08:00-18:30; Sa 09:00-14:00; Su,PH off', 'operator': 'Stephan Jüsten', 'wheelchair': 'yes'}}"
"{'type': 'node', 'id': 659625288, 'lat': 51.6529665, 'lon': 6.4452255, 'tags': {'amenity': 'dentist', 'healthcare': 'dentist', 'name': 'Dr. med. Dr. med. dent. Michael Langen'}}"
"{'type': 'node', 'id': 659625289, 'lat': 51.6529894, 'lon': 6.4452132, 'tags': {'amenity': 'dentist', 'healthcare': 'dentist', 'name': 'Dr. Susanne Goebel-Langen'}}"
"{'type': 'node', 'id': 660829024, 'lat': 51.715855, 'lon': 5.362926, 'tags': {'addr:city': 'Rosmalen', 'addr:housenumber': '52A', 'addr:postcode': '5241ED', 'addr:street': 'Dorpsstraat', 'amenity': 'doctors', 'healthcare': 'doctor', 'healthcare:speciality': 'general', 'name': 'Huisartsenpraktijk Rosmalen Centrum', 'opening_hours': 'Mo-Fr 08:00-17:00', 'phone': '+31 73 522 6138', 'source': 'BAG', 'source:date': '2014-03-24', 'website': 'https://www.huisartsenrosmalencentrum.nl'}}"
"{'type': 'node', 'id': 672366383, 'lat': 51.3273847, 'lon': 5.4209847, 'tags': {'amenity': 'doctors', 'healthcare': 'doctor'}}"
"{'type': 'node', 'id': 672979397, 'lat': 50.7283537, 'lon': 6.1762388, 'tags': {'addr:postcode': '52076', 'amenity': 'doctors', 'healthcare': 'doctor', 'name': 'Hausärztliche Partnerschaft', 'opening_hours': 'Mo-Fr 8:00-11:00;Mo,Tu,Th 16:00-17:00', 'phone': '+492408938390', 'website': 'http://www.schleck18.de', 'wheelchair': 'yes'}}"
"{'type': 'node', 'id': 676000499, 'lat': 50.6346956, 'lon': 5.5842873, 'tags': {'amenity': 'pharmacy', 'healthcare': 'pharmacy', 'name': 'Dussard'}}"
"{'type': 'node', 'id': 676078044, 'lat': 50.9251872, 'lon': 5.3223207, 'tags': {'amenity': 'pharmacy', 'drive_through': 'no', 'healthcare': 'pharmacy', 'name': 'De Voorzorg', 'opening_hours': 'Mo-Fr 08:30-12:30,13:30-18:30; Sa 09:00-13:00; PH,Su off'}}"
"{'type': 'node', 'id': 676930105, 'lat': 51.1770855, 'lon': 5.175042, 'tags': {'addr:city': 'Balen', 'addr:housenumber': '10', 'addr:postcode': '2490', 'addr:street': 'Soef', 'amenity': 'pharmacy', 'healthcare': 'pharmacy', 'name': 'Apotheek De Soef', 'phone': '+32 14 81 16 83', 'website': 'https://apotheekdesoef.be/'}}"
"{'type': 'node', 'id': 676930116, 'lat': 51.1717852, 'lon': 5.1618463, 'tags': {'addr:city': 'Balen', 'addr:housenumber': '81', 'addr:postcode': '2490', 'addr:street': 'Vaartstraat', 'amenity': 'pharmacy', 'healthcare': 'pharmacy', 'name': 'Apotheek van Hoecke', 'phone': '+32 14 81 31 66', 'website': 'https://www.apovanhoecke.be/'}}"
