OSM_Data
"{'type': 'node', 'id': 1036708053, 'lat': 11.5362029, 'lon': -72.9043858, 'tags': {'addr:city': 'Riohacha, La Guajira', 'addr:housenumber': 'carrera 7H calle 24', 'addr:street': 'Carrera 7H', 'amenity': 'hospital', 'healthcare': 'hospital', 'healthcare:speciality': 'general', 'name': 'Farmaplus'}}"
"{'type': 'node', 'id': 1693949424, 'lat': 11.545779, 'lon': -72.9142334, 'tags': {'emergency': 'phone', 'healthcare': 'centre', 'name': 'Nta. Sra. de los Remedios', 'phone': '+57 5 7270053'}}"
"{'type': 'node', 'id': 2617655330, 'lat': 10.7065687, 'lon': -71.6380811, 'tags': {'amenity': 'hospital'}}"
"{'type': 'node', 'id': 4008213762, 'lat': 11.5425862, 'lon': -72.9085784, 'tags': {'addr:city': 'Riohcha', 'addr:street': 'Calle 15 N° 8-69', 'amenity': 'hospital', 'healthcare': 'hospital', 'healthcare:speciality': 'general;stomatology', 'name': 'Cruz Roja'}}"
"{'type': 'node', 'id': 4261594919, 'lat': 11.3711319, 'lon': -72.2525713, 'tags': {'amenity': 'hospital'}}"
"{'type': 'node', 'id': 4265419356, 'lat': 11.5460266, 'lon': -72.9135641, 'tags': {'addr:housenumber': 'carrera 12', 'addr:street': 'Calle12-58', 'amenity': 'doctors', 'healthcare': 'doctor', 'name': 'ASOCIACION MEDICA COLOMBIANA DE VIDA S.A'}}"
"{'type': 'node', 'id': 4265419357, 'lat': 11.54625, 'lon': -72.9129633, 'tags': {'addr:city': 'Riohacha, La Guajira', 'addr:housenumber': 'calle 12', 'addr:street': 'Carrera 11- 159', 'amenity': 'doctors', 'healthcare': 'doctor', 'healthcare:speciality': 'general', 'name': 'MEDICENTER ESPECIALIZADO LTDA'}}"
"{'type': 'node', 'id': 4268302841, 'lat': 11.542842, 'lon': -72.9123692, 'tags': {'addr:housenumber': 'calle 14a', 'addr:street': 'Carrera 11a-28', 'healthcare': 'centre', 'name': 'Imagen dental'}}"
"{'type': 'node', 'id': 4268302842, 'lat': 11.547278, 'lon': -72.9143433, 'tags': {'addr:city': 'Riohacha', 'addr:housenumber': '16-20', 'addr:street': 'Calle 13', 'amenity': 'doctors', 'healthcare': 'doctor', 'healthcare:speciality': 'general', 'name': 'Clínica Mediser IPS ltda', 'phone': '+57 7285542'}}"
"{'type': 'node', 'id': 4268302843, 'lat': 11.5419958, 'lon': -72.911999, 'tags': {'addr:city': 'Riohacha, La Guajira', 'addr:housenumber': 'carrera 11 esquina', 'addr:street': 'Cl 14A #N° 11-09', 'healthcare': 'centre', 'healthcare:speciality': 'general', 'name': 'UNIDAD DE CUIDADOS INTENSIVOS RENACER', 'phone': '+57(5) 7282809'}}"
"{'type': 'node', 'id': 4268302844, 'lat': 11.5412758, 'lon': -72.9118488, 'tags': {'healthcare': 'centre', 'name': 'CORPORACION PARA LA REHABILITACION Y EDUCACION ESPECIAL CRECES'}}"
"{'type': 'node', 'id': 4268314693, 'lat': 11.5428444, 'lon': -72.9082498, 'tags': {'addr:city': 'Riohacha', 'addr:housenumber': '9-51', 'addr:street': 'Calle 15', 'healthcare': 'centre', 'name': 'vidacoop'}}"
"{'type': 'node', 'id': 4268316025, 'lat': 11.5405727, 'lon': -72.895801, 'tags': {'addr:city': 'urbanizacion villa confamiliar', 'addr:street': 'Vía Riohacha - Maicao', 'amenity': 'hospital', 'emergency': 'yes', 'healthcare': 'hospital', 'healthcare:speciality': 'general;chiropractic;internal;dentist;urology;dermatology;cardiology;neurology', 'name': 'fundacion manos que construyen paz'}}"
"{'type': 'node', 'id': 4268326542, 'lat': 11.540658, 'lon': -72.9132709, 'tags': {'addr:housenumber': '12-60', 'addr:street': 'Carrera 12', 'healthcare': 'centre', 'name': 'diagnosticos medicos avanzados del norte S.A.S'}}"
"{'type': 'node', 'id': 4268357939, 'lat': 11.5467759, 'lon': -72.9120478, 'tags': {'addr:city': 'Riohacha', 'addr:housenumber': 'a 8-211, Cl. 20 #8-1', 'amenity': 'doctors', 'healthcare': 'doctor', 'name': 'CARDIO LIVE IPS S.A.S', 'phone': '+57  5 7271842'}}"
"{'type': 'node', 'id': 4268410223, 'lat': 11.544211, 'lon': -72.9118332, 'tags': {'addr:city': 'Riohacha', 'addr:housenumber': '11-09', 'addr:street': 'Calle 14', 'healthcare': 'centre', 'name': 'CENTRO SALUD DE LA GUAJIRA'}}"
"{'type': 'node', 'id': 4268423097, 'lat': 11.5518082, 'lon': -72.9096438, 'tags': {'addr:housenumber': '6-43', 'addr:street': 'Calle 2', 'healthcare': 'optometrist', 'name': 'OPTICA LINARES'}}"
"{'type': 'node', 'id': 4268435427, 'lat': 11.5441689, 'lon': -72.9117903, 'tags': {'addr:city': 'Riohacha', 'addr:housenumber': '11-09', 'addr:street': 'Calle 14 A', 'amenity': 'pharmacy', 'dispensing': 'yes', 'healthcare': 'pharmacy', 'name': 'UNIMEGAS', 'opening_hours': 'Mo-Sa 08:00-12:00 - 14:00- 18:00PM', 'phone': '+57 5 7270690'}}"
"{'type': 'node', 'id': 4268441998, 'lat': 11.540679, 'lon': -72.9132494, 'tags': {'addr:city': 'RIOHACHA', 'addr:housenumber': '12-48', 'addr:street': 'Calle 15', 'healthcare': 'centre', 'name': 'FUNDACION ALIS IPS'}}"
"{'type': 'node', 'id': 4268445753, 'lat': 11.5449258, 'lon': -72.9119405, 'tags': {'addr:city': 'Riohacha', 'addr:housenumber': '11', 'addr:street': 'Calle 13', 'amenity': 'doctors', 'healthcare': 'doctor', 'healthcare:speciality': 'general', 'name': 'RESONANCIA MAGNETICA DEL NORTE', 'opening_hours': 'Mo-Fr 07:00-18:00 Sa-7:00AM - 13:00', 'phone': '+57 (5) 7289147'}}"
"{'type': 'node', 'id': 4268461360, 'lat': 11.5446735, 'lon': -72.9103097, 'tags': {'addr:housenumber': '14-77', 'addr:street': 'Carrera 10', 'amenity': 'doctors', 'healthcare': 'doctor', 'name': 'SALA VIP'}}"
"{'type': 'node', 'id': 4268477110, 'lat': 11.5448373, 'lon': -72.9102141, 'tags': {'addr:housenumber': '14-35', 'addr:street': 'Carrera 10', 'amenity': 'pharmacy', 'name': 'PROMOSALUD LIMITADA'}}"
"{'type': 'node', 'id': 4393602280, 'lat': 11.7781591, 'lon': -72.4444783, 'tags': {'amenity': 'hospital'}}"
"{'type': 'node', 'id': 4393784622, 'lat': 11.778529, 'lon': -72.4448174, 'tags': {'amenity': 'hospital', 'name': 'consulta externa'}}"
"{'type': 'node', 'id': 4393784623, 'lat': 11.7784099, 'lon': -72.4448154, 'tags': {'addr:city': 'Manaure', 'addr:housenumber': '6', 'addr:street': 'Calle 1A', 'amenity': 'hospital', 'emergency': 'yes', 'healthcare': 'hospital', 'healthcare:speciality': 'general', 'name': 'Hospital Armado Pabon Lopez'}}"
"{'type': 'node', 'id': 4393784625, 'lat': 11.7780301, 'lon': -72.4457334, 'tags': {'addr:city': 'Manaure', 'addr:housenumber': '85', 'addr:street': 'Calle 2', 'amenity': 'doctors', 'healthcare': 'doctor', 'healthcare:speciality': 'general', 'name': 'IPSI Sol Wayuu', 'opening_hours': 'Mo-Fr 07:00-17:00'}}"
"{'type': 'node', 'id': 4393784626, 'lat': 11.7784949, 'lon': -72.445099, 'tags': {'addr:city': 'Manaure', 'addr:housenumber': '6', 'addr:street': 'Calle 1A', 'amenity': 'doctors', 'healthcare': 'doctor', 'healthcare:speciality': 'general', 'name': 'Centro de Salud', 'opening_hours': 'Mo-Fr 07:00-17:00'}}"
"{'type': 'node', 'id': 4714336590, 'lat': 11.5427994, 'lon': -72.9114491, 'tags': {'addr:city': 'Riohacha, La Guajira', 'addr:street': 'calle 14b# 12-2 a 11-106', 'amenity': 'clinic', 'name': 'CLÍNICA RENACER', 'phone': '+57 3204246799'}}"
"{'type': 'node', 'id': 4910861352, 'lat': 10.7219868, 'lon': -71.6908173, 'tags': {'amenity': 'hospital', 'name': 'Ambulatorio CAPI'}}"
"{'type': 'node', 'id': 5082700918, 'lat': 11.5453295, 'lon': -72.9088217, 'tags': {'amenity': 'hospital'}}"
"{'type': 'node', 'id': 5082716175, 'lat': 11.3772858, 'lon': -72.2479433, 'tags': {'amenity': 'hospital', 'name': 'Antiguo hospital San José'}}"
"{'type': 'node', 'id': 5203331702, 'lat': 11.5491574, 'lon': -72.9138533, 'tags': {'addr:city': 'Riohacha', 'addr:housenumber': '10-16', 'addr:street': 'Calle 7', 'amenity': 'hospital', 'ele': '0', 'emergency': 'no', 'healthcare': 'hospital', 'healthcare:speciality': 'orthodontics', 'name': 'INVERSIONES DENTALES DE RIOHACHA S.A', 'phone': '+57 5 7280593'}}"
"{'type': 'node', 'id': 5207267379, 'lat': 11.5500753, 'lon': -72.9071055, 'tags': {'addr:city': 'Riohacha', 'addr:housenumber': '3-75', 'addr:street': 'Calle 7 (Cll. Ancha)', 'addr:unit': 'IPS', 'email': 'fundacionmarfi@hotmail.com', 'healthcare': 'centro_de_Salud', 'healthcare:speciality': 'salud_publica', 'name': 'FUNDACION MARFI', 'operator': 'CLAUDIA PATRICIA LASCARRO TORRES'}}"
"{'type': 'node', 'id': 5207299903, 'lat': 11.5488499, 'lon': -72.9088176, 'tags': {'addr:city': 'Riohacha, La Guajira', 'addr:housenumber': '20-45', 'addr:street': 'Carrera 8', 'addr:unit': 'I.P.S', 'email': 'asesogua@gmail.com', 'healthcare': 'centro_de_salud', 'healthcare:speciality': 'centro_de_salud', 'name': 'FUNDACION ADANIES DIAZ BRITO', 'operator': 'JOYCE GALENA DIAZ ORTIZ'}}"
"{'type': 'node', 'id': 5207321616, 'lat': 11.5453342, 'lon': -72.9109891, 'tags': {'addr:city': 'Riohacha, La Guajira', 'addr:housenumber': '11-33', 'addr:street': 'Calle 13', 'addr:unit': 'I.P.S', 'email': 'famicurarips@hotmail.com', 'healthcare': 'SALUD_PUBLICA', 'healthcare:speciality': 'CENTRO_DE_SALUD', 'name': 'FAMICURAR', 'operator': 'ONEIDA MARIA BARBOSA AMAYA'}}"
"{'type': 'node', 'id': 5207328914, 'lat': 11.5384702, 'lon': -72.9051911, 'tags': {'addr:city': 'riohacha - la guajira', 'addr:housenumber': '17-73', 'addr:street': 'Carrera 7b', 'addr:unit': 'I.P.S', 'email': 'eiyajawanulu@hotmail.com', 'healthcare': 'SALUD_PUBLICA', 'healthcare:speciality': 'CENTRO_DE_SALUD', 'name': 'IPSI EIYAJAA WANULU', 'operator': 'JUAN CARLOS IBARRA SOLANO'}}"
"{'type': 'node', 'id': 5207342734, 'lat': 11.5434351, 'lon': -72.9139612, 'tags': {'addr:city': 'RIOHACHA', 'addr:housenumber': '15-35', 'addr:street': 'Calle 14', 'addr:unit': 'I.P.S', 'email': 'mltorres@corporcion.gov.co', 'healthcare': 'SALUD_PUBLICA', 'healthcare:speciality': 'CENTRO_DE_SALUD', 'name': 'CORPORACION IPS COSTA ATLANTICA', 'operator': 'HUMBERTO MIGUEL VENGOECHEA CHARDAUX'}}"
"{'type': 'node', 'id': 5207344336, 'lat': 11.5429986, 'lon': -72.9115837, 'tags': {'addr:city': 'Riohacha', 'addr:housenumber': '11A-28', 'addr:street': 'Calle 14A', 'addr:unit': 'I.P.S', 'email': 'imagendentaleu@hotmail.com', 'healthcare': 'SALUD_PUBLICA', 'healthcare:speciality': 'CENTRO_DE_SALUD', 'name': 'IMAGEN DENTAL E.U.', 'operator': 'ORNELLA CAROLINA PEREZ VANEGAS'}}"
"{'type': 'node', 'id': 5207355141, 'lat': 11.5471147, 'lon': -72.90706, 'tags': {'addr:city': 'Riohacha, La Guajira', 'addr:housenumber': '11-58', 'addr:street': 'Calle 12', 'addr:unit': 'I.P.S', 'email': 'cardiolivw_guajira@hotmail.com', 'healthcare': 'SALUD_PUBLICA', 'healthcare:speciality': 'CENTRO_DE_SALUD', 'name': 'CARDIO LIVE I.P.S. S.A.S', 'operator': 'RONAL JAVIER GUERRA VANEGAS'}}"
"{'type': 'node', 'id': 5207358552, 'lat': 11.5463778, 'lon': -72.9123546, 'tags': {'addr:city': 'Riohacha, La Guajira', 'addr:housenumber': '12 35', 'addr:street': 'Cr 15', 'addr:unit': 'I.P.A', 'healthcare': 'SALUD_PUBLICA', 'healthcare:speciality': 'CENTRO_DE_SALUD', 'name': 'CIDSALUD IPSI', 'operator': 'FIDEL NAVARRO GUTIERREZ', 'phone': '+57 3008438437'}}"
"{'type': 'node', 'id': 5207363718, 'lat': 11.5396075, 'lon': -72.9099992, 'tags': {'addr:city': 'RIOHACHA', 'addr:housenumber': '7-26', 'addr:street': 'Calle 17', 'addr:unit': 'I.P.S', 'email': 'fuspancra@yahoo.es', 'healthcare': 'SALUD_PUBLICA', 'healthcare:speciality': 'CENTRO_DE_SALUD', 'name': 'FUNDACION SAN PANCRACIO FUSPANCRA', 'operator': 'JENNIS JANETH BARRAZA LOZANO'}}"
"{'type': 'node', 'id': 5207364645, 'lat': 11.5445226, 'lon': -72.9071468, 'tags': {'addr:city': 'Riohacha, La Guajira', 'addr:housenumber': '7-93', 'addr:street': 'Calle 15', 'addr:unit': 'I.P.S', 'email': 'asukulaaipsi@hotmail.com', 'healthcare': 'SALUD_PUBLICA', 'healthcare:speciality': 'AISKEL_ADALINDA_ESCUDERO_GONZALEZ', 'name': 'ASUKULAA ANAA IPSI'}}"
"{'type': 'node', 'id': 5207371010, 'lat': 11.5462137, 'lon': -72.9135555, 'tags': {'addr:city': 'Riohacha, La Guajira', 'addr:housenumber': 'CALLE12', 'addr:street': 'Carrera 12', 'amenity': 'restaurant', 'cuisine': 'regional', 'healthcare': 'yes', 'name': 'SABOR COLOMBIA'}}"
"{'type': 'node', 'id': 5207616839, 'lat': 11.5477308, 'lon': -72.9066878, 'tags': {'addr:housenumber': '8-31', 'addr:street': 'Calle 11', 'amenity': 'hospital', 'healthcare': 'hospital', 'name': 'ANASU AINWA IPS-I'}}"
"{'type': 'node', 'id': 5207630477, 'lat': 11.5470738, 'lon': -72.9124009, 'tags': {'addr:city': 'Riohacha, La Guajira', 'addr:housenumber': 'carrera 13 N 15 51', 'addr:street': 'Calle 11A', 'amenity': 'hospital', 'healthcare': 'hospital', 'healthcare:speciality': 'general', 'name': 'SOCIEDAD MEDICA CLINICA RIOHACHA SAS', 'phone': '+57 7283399'}}"
"{'type': 'node', 'id': 5207632947, 'lat': 11.5500786, 'lon': -72.9057186, 'tags': {'addr:housenumber': '3-28', 'addr:street': 'Calle 7', 'amenity': 'hospital', 'healthcare': 'hospital', 'name': 'CITY OPTICA RIOHACHA SAS'}}"
"{'type': 'node', 'id': 5414876714, 'lat': 10.7916452, 'lon': -71.6805902, 'tags': {'amenity': 'hospital', 'name': 'Módulo'}}"
"{'type': 'node', 'id': 5705926480, 'lat': 11.5468689, 'lon': -72.9095721, 'tags': {'addr:city': 'Riohacha, La Guajira', 'addr:street': 'Calle 12', 'amenity': 'dentist', 'healthcare': 'dentist', 'name': 'Dental Caribe'}}"
"{'type': 'node', 'id': 5705926484, 'lat': 11.5470423, 'lon': -72.9095226, 'tags': {'addr:city': 'Riohacha, La Guajira', 'addr:street': 'Calle 11A', 'amenity': 'hospital', 'emergency': 'yes', 'healthcare': 'hospital', 'healthcare:speciality': 'general', 'name': 'Salud Total'}}"
"{'type': 'node', 'id': 5705926487, 'lat': 11.5471047, 'lon': -72.9110515, 'tags': {'addr:housenumber': '# 10 - 123', 'addr:street': 'Calle 11A', 'amenity': 'hospital', 'emergency': 'yes', 'healthcare': 'hospital', 'healthcare:speciality': 'general', 'name': 'I.P.S. Asociacion de Cabildos y/o Autoridades tradicionales de la Guajira'}}"
"{'type': 'node', 'id': 5705926490, 'lat': 11.546751, 'lon': -72.9104428, 'tags': {'addr:city': 'Riohacha, La Guajira', 'addr:housenumber': '10-08', 'addr:street': 'Calle 12', 'amenity': 'hospital', 'emergency': 'yes', 'healthcare': 'hospital', 'healthcare:speciality': 'general', 'name': 'I.P.S. Palaima'}}"
"{'type': 'node', 'id': 5705926498, 'lat': 11.5465187, 'lon': -72.9111329, 'tags': {'addr:city': 'Riohacha, La Guajira', 'addr:housenumber': '10-138', 'addr:street': 'Calle 12', 'amenity': 'hospital', 'emergency': 'yes', 'healthcare': 'hospital', 'healthcare:speciality': 'general', 'name': 'Lab de Colombia I.P.S.', 'phone': '+57 7288223'}}"
"{'type': 'node', 'id': 5705927122, 'lat': 11.5459327, 'lon': -72.9093846, 'tags': {'amenity': 'hospital', 'healthcare': 'hospital', 'name': 'I.P.S. SERVICIO DE SALUD ESPECIALIZADA'}}"
"{'type': 'node', 'id': 5705927123, 'lat': 11.5459119, 'lon': -72.9094731, 'tags': {'amenity': 'hospital', 'healthcare': 'hospital', 'name': 'E.P.S.I. PUSAKAWI'}}"
"{'type': 'node', 'id': 5996051385, 'lat': 11.5465363, 'lon': -72.913528, 'tags': {'addr:city': 'Riohacha, La Guajira', 'addr:street': 'Carrera 12', 'amenity': 'pharmacy', 'dispensing': 'yes', 'healthcare': 'pharmacy', 'name': 'Farmacia La Rebaja', 'opening_hours': '7:00 am 8:00 pm', 'operator': 'regional', 'phone': '+57 7287271'}}"
"{'type': 'node', 'id': 6108022985, 'lat': 11.7168186, 'lon': -72.2648434, 'tags': {'amenity': 'clinic', 'name': 'I P S I Asocabildos', 'name:en': '45 cm'}}"
"{'type': 'node', 'id': 6133274485, 'lat': 11.7178384, 'lon': -72.2676706, 'tags': {'amenity': 'pharmacy', 'name': 'Farma Drogas el médico'}}"
"{'type': 'node', 'id': 6135817808, 'lat': 11.5518874, 'lon': -72.9082987, 'tags': {'addr:city': 'Riohacha, La Guajira', 'addr:housenumber': '6-53', 'addr:street': 'Calle 3', 'amenity': 'clinic', 'healthcare': 'clinic', 'healthcare:speciality': 'general', 'name': 'colsanitas eps', 'opening_hours': 'Mo-Fr 07:00-17:00'}}"
"{'type': 'node', 'id': 6135817894, 'lat': 11.5512917, 'lon': -72.9092835, 'tags': {'addr:city': 'Riohacha', 'addr:housenumber': '3-27', 'addr:street': 'Carrera 8', 'amenity': 'clinic', 'healthcare': 'clinic', 'name': 'coomeva'}}"
"{'type': 'node', 'id': 6135944409, 'lat': 11.5500965, 'lon': -72.9084305, 'tags': {'amenity': 'pharmacy', 'name': 'love store'}}"
"{'type': 'node', 'id': 6136049801, 'lat': 11.5498585, 'lon': -72.9075745, 'tags': {'healthcare': 'optometrist', 'name': 'optica central'}}"
"{'type': 'node', 'id': 6136049809, 'lat': 11.5497639, 'lon': -72.9084597, 'tags': {'amenity': 'clinic', 'healthcare': 'clinic'}}"
"{'type': 'node', 'id': 6222432288, 'lat': 10.7087754, 'lon': -71.6720908, 'tags': {'amenity': 'doctors', 'healthcare': 'doctor', 'name': 'Consultorio Médico Popular Armando Reverón 1'}}"
"{'type': 'node', 'id': 6235613685, 'lat': 10.7086308, 'lon': -71.673208, 'tags': {'addr:street': 'Avenida 99', 'amenity': 'doctors', 'healthcare': 'doctor', 'name': 'Consultorio Médico Popular Armando Reverón 2'}}"
"{'type': 'node', 'id': 7293542848, 'lat': 10.9556878, 'lon': -72.789008, 'tags': {'amenity': 'pharmacy', 'dispensing': 'yes', 'healthcare': 'pharmacy', 'name': 'La Botica'}}"
"{'type': 'node', 'id': 7294573264, 'lat': 10.949332, 'lon': -72.8008266, 'tags': {'amenity': 'clinic', 'healthcare': 'clinic', 'name': 'Cuidamos Salud', 'operator': 'Operador Monte Sion'}}"
"{'type': 'node', 'id': 7294593295, 'lat': 10.9552307, 'lon': -72.7923011, 'tags': {'amenity': 'hospital', 'healthcare': 'hospital', 'name': 'Hospital Nuestra Senora del Pilar'}}"
"{'type': 'node', 'id': 7324074873, 'lat': 10.955478, 'lon': -72.7891564, 'tags': {'amenity': 'pharmacy', 'dispensing': 'yes', 'healthcare': 'pharmacy', 'name': 'Farmacia La Economia'}}"
"{'type': 'node', 'id': 7359977053, 'lat': 10.9510251, 'lon': -72.7954121, 'tags': {'amenity': 'clinic', 'healthcare': 'clinic', 'name': 'Clinica de Salud Mental Cuidamos Salud'}}"
"{'type': 'node', 'id': 7396338189, 'lat': 11.5346859, 'lon': -72.9042351, 'tags': {'addr:city': 'Riohacha, La Guajira', 'addr:housenumber': 'carrera 7H calle 24', 'addr:street': 'Carrera 7H', 'amenity': 'hospital', 'healthcare': 'hospital', 'healthcare:speciality': 'general', 'name': 'Farmaplus', 'operator': 'desconocidos'}}"
"{'type': 'node', 'id': 7399597140, 'lat': 11.5428564, 'lon': -72.9116391, 'tags': {'addr:city': 'Riohacha, La Guajira', 'addr:street': 'Cl 14a 11-09', 'amenity': 'clinic', 'healthcare': 'clinic', 'healthcare:speciality': 'Endoscopia;gastroenterologia;gostroenterologia_infantil', 'name': 'Unidad medica gastrica Unimegas', 'phone': '+57 5 7270690'}}"
"{'type': 'node', 'id': 7400728705, 'lat': 11.5473671, 'lon': -72.9134834, 'tags': {'addr:city': 'Riohacha', 'addr:housenumber': 'No. Esquina, Cra. 12', 'addr:street': 'Calle 11A', 'amenity': 'pharmacy', 'dispensing': 'yes', 'healthcare': 'pharmacy', 'name': 'drogueria la botica', 'operator': '+57 (5) 7287271'}}"
"{'type': 'node', 'id': 7400728706, 'lat': 11.5472843, 'lon': -72.9140783, 'tags': {'addr:city': 'Riohacha', 'addr:housenumber': '#72', 'addr:street': 'Calle 11A', 'amenity': 'pharmacy', 'dispensing': 'yes', 'drive_through': 'yes', 'healthcare': 'pharmacy', 'name': 'Drogueria la Economía', 'opening_hours': 'Mo-Su 07:00-21:00', 'phone': '+57 5 7273546'}}"
"{'type': 'node', 'id': 7400728707, 'lat': 11.5473079, 'lon': -72.9139845, 'tags': {'addr:city': 'Riohacha', 'addr:housenumber': '12-96', 'addr:street': 'Calle 11A', 'amenity': 'clinic', 'healthcare': 'clinic', 'healthcare:speciality': 'general', 'name': 'anas wayuu epsi'}}"
"{'type': 'node', 'id': 7400728709, 'lat': 11.5472738, 'lon': -72.9137189, 'tags': {'addr:city': 'Riohacha', 'addr:housenumber': 'Cra. 12 #44', 'addr:street': 'Calle 10', 'amenity': 'clinic', 'healthcare': 'clinic', 'healthcare:speciality': 'radiology', 'name': 'unidad medica radiologica del carmen', 'phone': '+57 5 7274471'}}"
"{'type': 'node', 'id': 7400821550, 'lat': 11.5461012, 'lon': -72.9135185, 'tags': {'addr:city': 'Riohacha', 'addr:housenumber': '12-88', 'addr:street': 'Calle 12', 'amenity': 'doctors', 'healthcare': 'doctor', 'name': 'Medicenter especializado'}}"
"{'type': 'node', 'id': 7402677816, 'lat': 11.5465817, 'lon': -72.9135327, 'tags': {'addr:city': 'Riohacha, La Guajira', 'addr:housenumber': '13-71', 'addr:street': 'Carrera 7', 'amenity': 'pharmacy', 'dispensing': 'yes', 'healthcare': 'pharmacy', 'name': 'Farmacia la rebaja', 'opening_hours': 'Mo-Sa 07:00-20:30', 'phone': '+57 5 7272182'}}"
"{'type': 'node', 'id': 7402807302, 'lat': 11.3815095, 'lon': -72.2662454, 'tags': {'amenity': 'hospital', 'healthcare': 'hospital'}}"
"{'type': 'node', 'id': 7402807308, 'lat': 11.3813977, 'lon': -72.2345132, 'tags': {'amenity': 'clinic', 'healthcare': 'clinic', 'name': 'clinica maicao', 'phone': '+57 (5) 7250400'}}"
"{'type': 'node', 'id': 7403336276, 'lat': 11.5356598, 'lon': -72.9113175, 'tags': {'addr:city': 'Riohacha', 'addr:street': 'Calle 21', 'amenity': 'pharmacy', 'dispensing': 'yes', 'healthcare': 'pharmacy', 'opening_hours': 'Mo-Su 09:00-21:00'}}"
"{'type': 'node', 'id': 7403336278, 'lat': 11.5354661, 'lon': -72.9122414, 'tags': {'amenity': 'pharmacy', 'dispensing': 'yes', 'healthcare': 'pharmacy', 'opening_hours': 'Mo-Su 08:00-20:30'}}"
"{'type': 'node', 'id': 7403726394, 'lat': 11.5499169, 'lon': -72.9032668, 'tags': {'addr:street': 'Calle 9Cra. 1c,', 'amenity': 'clinic', 'healthcare': 'clinic', 'name': 'Centro De Salud Barrio Arriba', 'phone': '+57300 7002878'}}"
"{'type': 'node', 'id': 7449185255, 'lat': 11.5297023, 'lon': -72.9034191, 'tags': {'addr:city': 'Riohacha', 'addr:street': 'carrera 7H', 'amenity': 'pharmacy', 'dispensing': 'yes', 'healthcare': 'pharmacy', 'name': 'La rebaja'}}"
"{'type': 'node', 'id': 7490618069, 'lat': 11.5404336, 'lon': -72.8954037, 'tags': {'addr:city': 'Riohacha', 'addr:postcode': '440007', 'addr:street': 'Vía Riohacha - Maicao', 'amenity': 'hospital', 'healthcare': 'hospital', 'healthcare:speciality': 'general', 'name': 'Fundacionque conastruyen paz'}}"
"{'type': 'node', 'id': 7490618070, 'lat': 11.5410193, 'lon': -72.8956185, 'tags': {'addr:city': 'Riohacha', 'addr:postcode': '440007', 'addr:street': 'Vía Riohacha - Maicao', 'amenity': 'hospital', 'healthcare': 'hospital', 'healthcare:speciality': 'chiropractic;paediatrics;dentist;orthodontics;radiology', 'name': 'Fundacion manos que construyen paz'}}"
"{'type': 'node', 'id': 7490618071, 'lat': 11.5410718, 'lon': -72.8951256, 'tags': {'addr:city': 'Riohacha', 'addr:postcode': '440007', 'addr:street': 'Vía Riohacha - Maicao', 'healthcare': 'audiologist', 'operator': 'Fundacion que construyen Paz'}}"
"{'type': 'node', 'id': 9062409585, 'lat': 11.3466165, 'lon': -71.968663, 'tags': {'amenity': 'hospital', 'healthcare': 'hospital', 'name': 'Hospital II binacional paraguaipoa Dr. Jose Leonardo Fernandez'}}"
"{'type': 'node', 'id': 9062797788, 'lat': 11.188627, 'lon': -72.1999624, 'tags': {'amenity': 'hospital'}}"
"{'type': 'node', 'id': 9063103813, 'lat': 10.9544141, 'lon': -71.6482106, 'tags': {'amenity': 'hospital'}}"
"{'type': 'node', 'id': 9937061821, 'lat': 11.0857008, 'lon': -71.8555413, 'tags': {'amenity': 'hospital', 'healthcare': 'hospital', 'name': 'Hospital 1 de Sinamaica'}}"
"{'type': 'node', 'id': 10756751672, 'lat': 11.3813998, 'lon': -72.2254896, 'tags': {'amenity': 'pharmacy', 'healthcare': 'pharmacy'}}"
"{'type': 'node', 'id': 10756751673, 'lat': 11.3629216, 'lon': -72.1377556, 'tags': {'amenity': 'hospital', 'healthcare': 'hospital', 'name': 'Sede Hospital de Maicao'}}"
"{'type': 'node', 'id': 10756751703, 'lat': 11.3561244, 'lon': -72.0680808, 'tags': {'amenity': 'pharmacy', 'healthcare': 'pharmacy', 'name': 'Farmacia Obra de Dios'}}"
"{'type': 'node', 'id': 10756777625, 'lat': 11.3469561, 'lon': -71.9663108, 'tags': {'amenity': 'pharmacy', 'healthcare': 'pharmacy', 'name': 'El Gordo'}}"
"{'type': 'node', 'id': 11201147553, 'lat': 10.9576363, 'lon': -71.6450872, 'tags': {'addr:street': 'Calle Campo Elías', 'healthcare': 'hospital', 'healthcare:speciality': 'emergency', 'name': 'Hospital I, Isla de Toas'}}"
"{'type': 'node', 'id': 11201147555, 'lat': 10.9602384, 'lon': -71.6477234, 'tags': {'healthcare': 'hospital', 'name': 'CDI de Isla de Toas'}}"
"{'type': 'node', 'id': 11414811269, 'lat': 11.5494538, 'lon': -72.9108256, 'tags': {'amenity': 'pharmacy', 'name': 'GHG Farmacia EPS Familiar Colombia'}}"
