OSM_Data
"{'type': 'node', 'id': 280027410, 'lat': 53.8821014, 'lon': 27.4243018, 'tags': {'amenity': 'pharmacy', 'healthcare': 'pharmacy', 'name': 'Экомаркет №2', 'name:be': 'Экамаркет №2', 'name:ru': 'Экомаркет №2', 'opening_hours': 'Mo-Fr 09:00-21:00; Sa,Su 10:00-18:00', 'operator': 'ООО ""Экомаркет""', 'phone': '+375 17 3159518;+375 44 5072502', 'ref': '2'}}"
"{'type': 'node', 'id': 280030892, 'lat': 53.8822621, 'lon': 27.4322809, 'tags': {'addr:city': 'Мінск', 'addr:city:ru': 'Минск', 'addr:country': 'BY', 'addr:housenumber': '109', 'addr:postcode': '220019', 'addr:street': 'вуліца Лабанка', 'amenity': 'pharmacy', 'brand': 'Добрыя лекі', 'contact:email': 'info@d-leki.by', 'contact:instagram': 'https://www.instagram.com/apteka_adel', 'contact:phone': '+375 25 5355757;+375 29 5355757;+375 44 5355757', 'contact:vk': 'https://vk.com/apteka_adel', 'contact:website': 'https://d-leki.by/', 'healthcare': 'pharmacy', 'name': 'Добрыя лекі', 'name:be': 'Добрыя лекі', 'name:ru': 'Добрыя леки', 'opening_hours': 'Mo-Fr 08:00-22:00;Sa-Su 10:00-20:00', 'operator': '""Фарммаркет-плюс""', 'ref': '14'}}"
"{'type': 'node', 'id': 280032621, 'lat': 53.882012, 'lon': 27.4340313, 'tags': {'amenity': 'pharmacy', 'brand': 'Планета Здоровья', 'healthcare': 'pharmacy', 'name': 'Планета Здоровья №4', 'name:be': 'Планета Здароўя №4', 'name:ru': 'Планета Здоровья №4', 'opening_hours': 'Mo-Fr 09:00-22:00; Sa,Su 09:00-03:00', 'operator': 'ОДО ""Белэкрос""', 'phone': '+375 29 3189604', 'ref': '4', 'website': 'https://www.healthplanet.by'}}"
"{'type': 'node', 'id': 280035033, 'lat': 53.88612, 'lon': 27.4277969, 'tags': {'amenity': 'pharmacy', 'brand': 'Adel', 'contact:email': 'info@apteka-adel.by', 'contact:instagram': 'https://www.instagram.com/apteka_adel', 'contact:phone': '+375 25 6838787;+375 29 6838787;+375 33 6838787', 'contact:vk': 'https://vk.com/apteka_adel', 'contact:website': 'https://apteka-adel.by/', 'dispensing': 'yes', 'drive_through': 'no', 'healthcare': 'pharmacy', 'level': '1', 'name': 'Адэль', 'name:be': 'Адэль', 'name:en': 'ADEL', 'name:ru': 'Адель', 'opening_hours': 'Mo-Su 09:00-21:00', 'operator': '""Фарммаркет-плюс""', 'ref': '3'}}"
"{'type': 'node', 'id': 281243237, 'lat': 53.8764824, 'lon': 27.498173, 'tags': {'amenity': 'pharmacy', 'contact:phone': '+375 17 3204388', 'description': 'Пятая категория, филиал 4 аптеки N39', 'dispensing': 'yes', 'healthcare': 'pharmacy', 'name:be': 'Белфармацыя', 'name:ru': 'Белфармация', 'opening_hours': 'Mo-Fr 08:00-21:45; Sa, Su 10:00-18:00; Th[4] 08:00-12:00 off', 'operator': 'Белфармацыя', 'ref': '39'}}"
"{'type': 'node', 'id': 305673920, 'lat': 53.85833, 'lon': 27.43273, 'tags': {'amenity': 'pharmacy', 'contact:phone': '+375 17 3607912', 'contact:website': 'http://medway.by', 'healthcare': 'pharmacy', 'name': 'Флора Фарм Аптека №4', 'name:be': 'Флора Фарм Аптэка №4', 'name:ru': 'Флора Фарм Аптека №4', 'opening_hours': 'Mo-Sa 09:00-21:00; Su 10:00-20:00', 'operator': 'ООО ""Флора Фарм""', 'ref': '4'}}"
"{'type': 'node', 'id': 305673955, 'lat': 53.8610863, 'lon': 27.4296515, 'tags': {'amenity': 'pharmacy', 'healthcare': 'pharmacy', 'name': 'Белфармация №20', 'name:be': 'Белфармацыя №20', 'name:ru': 'Белфармация №20', 'opening_hours': 'Mo-Fr 08:00-21:00; Sa,Su 09:00-17:00', 'operator': 'РУП ""Белфармация""', 'phone': '+375 17 2749019; +375 17 2749475;+375 17 2749738', 'ref': '20', 'website': 'https://pharma.by'}}"
"{'type': 'node', 'id': 305674117, 'lat': 53.9158431, 'lon': 27.4408008, 'tags': {'amenity': 'pharmacy', 'healthcare': 'pharmacy', 'name': '№68 БелФармацыя', 'name:be': '№68 БелФармацыя', 'name:ru': '№68 БелФармация', 'opening_hours': '24/7'}}"
"{'type': 'node', 'id': 305674149, 'lat': 53.8588324, 'lon': 27.4385675, 'tags': {'amenity': 'pharmacy', 'brand': 'Добрыя лекі', 'contact:email': 'info@d-leki.by', 'contact:instagram': 'https://www.instagram.com/apteka_adel', 'contact:phone': '+375 25 5355757;+375 29 5355757;+375 44 5355757', 'contact:vk': 'https://vk.com/apteka_adel', 'contact:website': 'https://d-leki.by/', 'healthcare': 'pharmacy', 'name': 'Добрыя леки', 'name:be': 'Добрыя лекі', 'name:ru': 'Добрыя леки', 'opening_hours': 'Mo-Fr 08:00-22:00;Sa-Su 09:00-22:00', 'operator': '""Фарммаркет-плюс""', 'ref': '1'}}"
"{'type': 'node', 'id': 305674409, 'lat': 53.9025394, 'lon': 27.436221, 'tags': {'amenity': 'pharmacy', 'healthcare': 'pharmacy', 'name': '№91 «Белфармацыя»', 'name:be': '№91 «Белфармацыя»', 'name:ru': '№91 «Белфармация»', 'name:uk': '№91 «Белфармація»', 'opening_hours': 'Mo-Fr 08:00-21:00; Sa-Su 09:00-17:00'}}"
"{'type': 'node', 'id': 305674426, 'lat': 53.8825881, 'lon': 27.4400118, 'tags': {'addr:city': 'Мінск', 'addr:city:ru': 'Минск', 'addr:country': 'BY', 'addr:housenumber': '48', 'addr:postcode': '220022', 'addr:street': 'вуліца Шаранговіча', 'amenity': 'pharmacy', 'drive_through': 'no', 'healthcare': 'pharmacy', 'name': 'Белфармация №113', 'name:be': 'Белфармацыя №113', 'name:ru': 'Белфармация №113', 'opening_hours': 'Mo-Fr 08:00-21:00; Sa-Su 09:00-17:00', 'operator': 'РУП ""Белфармация""', 'phone': '+375 17 3157469;+375 17 3139297;+375 17 3134785', 'ref': '113', 'website': 'https://pharma.by'}}"
"{'type': 'node', 'id': 305674775, 'lat': 53.905146, 'lon': 27.454954, 'tags': {'addr:street': 'вуліца Бурдзейнага', 'amenity': 'pharmacy', 'healthcare': 'pharmacy', 'name': 'Самбэст №2', 'name:be': 'Самбэст №2', 'name:ru': 'Самбест №2'}}"
"{'type': 'node', 'id': 305674782, 'lat': 53.8974065, 'lon': 27.4522222, 'tags': {'amenity': 'pharmacy', 'dispensing': 'yes', 'healthcare': 'pharmacy', 'int_name': '№101', 'name': 'Аптэка №101', 'name:be': 'Аптэка №101', 'name:ru': 'Аптека №101', 'opening_hours': '24/7', 'operator': 'Белфармация', 'phone': '375 17 3655370'}}"
"{'type': 'node', 'id': 305674788, 'lat': 53.9035885, 'lon': 27.4553759, 'tags': {'amenity': 'pharmacy', 'contact:phone': '+375 17 2474150;+375 17 2474154', 'contact:website': 'https://alfaapteka.by', 'healthcare': 'pharmacy', 'name': 'Фитобел №1', 'name:be': 'Фітабел №1', 'name:ru': 'Фитобел №1', 'name:uk': 'Фітобел №1', 'opening_hours': 'Mo-Sa 08:00-21:00; Su 09:00-19:00'}}"
"{'type': 'node', 'id': 305675172, 'lat': 53.8585, 'lon': 27.4632, 'tags': {'amenity': 'pharmacy', 'healthcare': 'pharmacy', 'int_name': 'Junifarm', 'name': 'Юніфарм', 'name:be': 'Юніфарм', 'name:ru': 'Юнифарм'}}"
"{'type': 'node', 'id': 305675173, 'lat': 53.8495, 'lon': 27.4648513, 'tags': {'addr:city': 'Мінск', 'addr:city:ru': 'Минск', 'addr:country': 'BY', 'addr:housenumber': '10', 'addr:postcode': '220025', 'addr:street': 'вуліца Сяргея Ясеніна', 'amenity': 'pharmacy', 'healthcare': 'pharmacy', 'name': 'Белфармация №109', 'name:be': 'Белфармацыя №109', 'name:ru': 'Белфармация №109', 'opening_hours': 'Mo-Fr 08:00-21:00; Sa 08:00-20:00; Su 10:00-18:00', 'operator': 'РУП ""Белфармация""', 'phone': '+375 17 2740168; +375 17 2740123', 'ref': '109', 'website': 'https://pharma.by'}}"
"{'type': 'node', 'id': 305675226, 'lat': 53.8712, 'lon': 27.47387, 'tags': {'amenity': 'pharmacy', 'healthcare': 'pharmacy', 'name': 'Доктор Таир', 'name:be': 'Доктар Таір', 'name:ru': 'Доктор Таир'}}"
"{'type': 'node', 'id': 305675230, 'lat': 53.8677163, 'lon': 27.4841143, 'tags': {'addr:city': 'Мінск', 'addr:city:ru': 'Минск', 'addr:country': 'BY', 'addr:housenumber': '20А к1', 'addr:street': 'праспект Газеты Праўда', 'amenity': 'pharmacy', 'healthcare': 'pharmacy', 'name': 'Белфармацыя №81', 'name:be': 'Белфармацыя №81', 'name:ru': 'Белфармация №81', 'opening_hours': 'Mo-Fr 08:00-21:00; Sa,Su 09:00-17:00', 'operator': 'РУП ""Белфармация""', 'phone': '+375 17 2074627;+375 17 2079919;+375 17 2723291;+375 172772971', 'ref': '81', 'website': 'https://pharma.by'}}"
"{'type': 'node', 'id': 305675304, 'lat': 53.908872, 'lon': 27.4733207, 'tags': {'amenity': 'pharmacy', 'description': 'Санитарный день: последнее воскресенье месяца', 'healthcare': 'pharmacy', 'name': 'Аптэка № 1', 'name:be': 'Аптэка № 1', 'name:en': 'Pharmacy № 1', 'name:ru': 'Аптека № 1', 'opening_hours': 'Mo-Fr 08:00-21:00; Sa,Su 10:00-19:00', 'operator': 'Фарммедпрепараты'}}"
"{'type': 'node', 'id': 305675439, 'lat': 53.9276154, 'lon': 27.4816765, 'tags': {'addr:city': 'Мінск', 'addr:city:ru': 'Минск', 'addr:country': 'BY', 'addr:housenumber': '118', 'addr:street': 'вуліца Пятра Глебкі', 'amenity': 'pharmacy', 'check_date': '2024-02-21', 'contact:phone': '+375 17 3741574', 'contact:website': 'http://ostrovzdorovya.by/', 'drive_through': 'no', 'healthcare': 'pharmacy', 'level': '0', 'name': 'Остров здоровья', 'name:be': 'Востраў здароўя', 'name:ru': 'Остров здоровья', 'opening_hours': '24/7', 'operator': 'Белфарм', 'payment:mastercard': 'yes', 'payment:visa': 'yes'}}"
"{'type': 'node', 'id': 305675441, 'lat': 53.9290778, 'lon': 27.4737167, 'tags': {'amenity': 'pharmacy', 'healthcare': 'pharmacy', 'name': 'Іскамед №16', 'name:be': 'Іскамед №16', 'name:ru': 'Искамед №16'}}"
"{'type': 'node', 'id': 305675483, 'lat': 53.8627608, 'lon': 27.4648442, 'tags': {'addr:city': 'Мінск', 'addr:city:ru': 'Минск', 'addr:country': 'BY', 'addr:housenumber': '28 к1', 'addr:street': 'праспект Газеты Звязда', 'amenity': 'pharmacy', 'description': 'В праздничные дни работает с 10:00 до 18:00', 'drive_through': 'no', 'healthcare': 'pharmacy', 'name': 'Аптэка №\u202f78', 'name:be': 'Аптэка №\u202f78', 'name:ru': 'Аптека №\u202f78', 'opening_hours': 'Mo-Fr 08:00-21:00; Sa 09:00-20:00; Su 10:00-18:00', 'operator': 'Белфармация', 'phone': '375 17 2074300'}}"
"{'type': 'node', 'id': 305675643, 'lat': 53.9221476, 'lon': 27.4892137, 'tags': {'amenity': 'pharmacy', 'healthcare': 'pharmacy', 'int_name': '№79', 'name': '№79', 'name:be': '№79', 'name:ru': '№79'}}"
"{'type': 'node', 'id': 305675693, 'lat': 53.9308741, 'lon': 27.4909252, 'tags': {'addr:city': 'Мінск', 'addr:city:ru': 'Минск', 'addr:country': 'BY', 'addr:housenumber': '22', 'addr:postcode': '220020', 'addr:street': 'вуліца Лесі Украінкі', 'amenity': 'pharmacy', 'healthcare': 'pharmacy', 'name': 'Аленфарм-Плюс, аптэка №13', 'name:be': 'Аленфарм-Плюс, аптэка №13', 'name:ru': 'Аленфарм-Плюс, аптека №13', 'opening_hours': '09:00-21:00', 'phone': '+37517 2908976'}}"
"{'type': 'node', 'id': 305675773, 'lat': 53.9118959, 'lon': 27.4889963, 'tags': {'amenity': 'pharmacy', 'healthcare': 'pharmacy', 'name': 'Светатэк', 'name:be': 'Светатэк', 'name:ru': 'Светатек'}}"
"{'type': 'node', 'id': 305675777, 'lat': 53.9167423, 'lon': 27.49625, 'tags': {'amenity': 'pharmacy', 'healthcare': 'pharmacy', 'name': 'Фарммаркет-плюс', 'name:be': 'Фарммаркет-плюс', 'name:ru': 'Фарммаркет-плюс', 'opening_hours': 'Mo-Fr 08:00-22:00; Sa-Su 10:00-18:00'}}"
"{'type': 'node', 'id': 305675782, 'lat': 53.9120915, 'lon': 27.4868065, 'tags': {'addr:city': 'Мінск', 'addr:city:ru': 'Минск', 'addr:country': 'BY', 'addr:housenumber': '5', 'addr:street': 'вуліца Данілы Сердзіча', 'amenity': 'pharmacy', 'healthcare': 'pharmacy', 'int_name': 'Apteka №48', 'name': 'Аптэка №48', 'name:be': 'Аптэка №48', 'name:ru': 'Аптека №48', 'opening_hours': 'Mo-Fr 08:00-21:00; Sa-Su 09:00-17:00'}}"
"{'type': 'node', 'id': 305676052, 'lat': 53.8964337, 'lon': 27.4904805, 'tags': {'amenity': 'pharmacy', 'healthcare': 'pharmacy', 'int_name': '№14', 'name': '№14', 'name:be': 'Аптэка №14', 'name:ru': '№14'}}"
"{'type': 'node', 'id': 305676053, 'lat': 53.8944408, 'lon': 27.48194, 'tags': {'amenity': 'pharmacy', 'healthcare': 'pharmacy', 'name': 'Баязэт', 'name:be': 'Баязэт', 'name:ru': 'Баязет', 'opening_hours': 'Mo-Fr 09:00-21:00; Sa,Su 09:00-20:00'}}"
"{'type': 'node', 'id': 305676071, 'lat': 53.9337468, 'lon': 27.5005676, 'tags': {'amenity': 'clinic', 'healthcare': 'clinic', 'name': 'Дзіцячая паліклініка №4', 'name:be': 'Дзіцячая паліклініка №4', 'name:ru': 'Детская поликлиника №4'}}"
"{'type': 'node', 'id': 305676081, 'lat': 53.8476545, 'lon': 27.5013854, 'tags': {'amenity': 'pharmacy', 'contact:email': 'info@d-leki.by', 'contact:instagram': 'https://www.instagram.com/apteka_adel', 'contact:phone': '+375 25 5355757;+375 29 5355757;+375 44 5355757', 'contact:vk': 'https://vk.com/apteka_adel', 'contact:website': 'https://d-leki.by/', 'description': 'Аптека №6 пятой категории', 'healthcare': 'pharmacy', 'name': 'Добрыя леки', 'name:be': 'Добрыя лекі', 'name:ru': 'Добрыя леки', 'opening_hours': 'Mo-Fr 09:00-20:00; Sa 10:00-19:00; Su 10:00-19:00', 'operator': '""Фарммаркет-плюс""'}}"
"{'type': 'node', 'id': 305676083, 'lat': 53.8463619, 'lon': 27.5008296, 'tags': {'amenity': 'pharmacy', 'healthcare': 'pharmacy', 'name': 'Аптека №58', 'name:be': 'Аптэка №58', 'name:ru': 'Аптека №58', 'opening_hours': 'Mo-Fr 08:00-22:00; Sa 09:00-22:00; Su 10:00-22:00', 'operator': 'Белфармация', 'phone': '+375-17-2125942'}}"
"{'type': 'node', 'id': 305676433, 'lat': 53.9072136, 'lon': 27.4848774, 'tags': {'addr:city': 'Мінск', 'addr:city:ru': 'Минск', 'addr:country': 'BY', 'addr:housenumber': '29', 'addr:street': 'вуліца Прытыцкага', 'amenity': 'clinic', 'healthcare': 'clinic', 'name': 'Salve', 'name:be': 'Салвэ', 'name:en': 'Salve', 'name:ru': 'Салвэ', 'opening_hours': 'Mo-Fr 09:00-21:00; Sa,Su 09:00-15:00'}}"
"{'type': 'node', 'id': 305676828, 'lat': 53.8420465, 'lon': 27.5036614, 'tags': {'amenity': 'pharmacy', 'check_date:opening_hours': '2022-11-09', 'healthcare': 'pharmacy', 'name': '№74', 'name:ru': '№74', 'opening_hours': 'Mo-Fr 08:00-21:00; Sa,Su 09:00-18:00', 'operator': 'Белфармация'}}"
"{'type': 'node', 'id': 305677441, 'lat': 53.8916017, 'lon': 27.519886, 'tags': {'addr:city': 'Мінск', 'addr:city:ru': 'Минск', 'addr:country': 'BY', 'addr:housenumber': '108', 'addr:street': 'вуліца Розы Люксембург', 'amenity': 'pharmacy', 'healthcare': 'pharmacy', 'int_name': '№4', 'name': 'Аптека №4', 'name:be': 'Аптэка №4', 'name:ru': 'Аптека №4', 'opening_hours': 'Mo-Fr 08:00-21:00; Sa,Su 09:00-16:00', 'operator': 'ООО ""Провизор""', 'wheelchair': 'limited'}}"
"{'type': 'node', 'id': 305677756, 'lat': 53.9159429, 'lon': 27.5279941, 'tags': {'addr:city': 'Мінск', 'addr:city:ru': 'Минск', 'addr:country': 'BY', 'addr:housenumber': '16', 'addr:postcode': '220035', 'addr:street': 'вуліца Гастэлы', 'amenity': 'hospital', 'description': 'Минский городской наркологический диспансер', 'healthcare': 'hospital', 'name': 'Наркалагічны дыспансер', 'name:be': 'Наркалагічны дыспансер', 'name:ru': 'Наркодиспансер', 'opening_hours': 'Mo-Fr 08:00-20:00; Sa 08:00-14:30', 'operator': 'УЗ «Городской клинический наркологический диспансер»', 'operator:type': 'government', 'phone': '+375 17 2373701', 'website': 'http://www.narcolog.by'}}"
"{'type': 'node', 'id': 305678045, 'lat': 53.9144076, 'lon': 27.5061161, 'tags': {'amenity': 'pharmacy', 'healthcare': 'pharmacy', 'name': 'Біа', 'name:be': 'Біа', 'name:ru': 'Биа'}}"
"{'type': 'node', 'id': 305678078, 'lat': 53.9011816, 'lon': 27.5046374, 'tags': {'amenity': 'pharmacy', 'check_date': '2022-05-12', 'description': '2-й категории', 'drive_through': 'no', 'healthcare': 'pharmacy', 'name': 'Аптэка №40', 'name:be': 'Аптэка №40', 'name:ru': 'Аптека №40', 'opening_hours': 'Mo-Fr 08:00-21:00; Sa 09:00-20:00; Tu[3] off', 'operator': 'Белфармацыя', 'payment:mastercard': 'yes', 'payment:visa': 'yes', 'ref': '40', 'wheelchair': 'yes'}}"
"{'type': 'node', 'id': 305678469, 'lat': 53.9064872, 'lon': 27.5215518, 'tags': {'amenity': 'pharmacy', 'contact:email': 'info@apteka-adel.by', 'contact:instagram': 'https://www.instagram.com/apteka_adel', 'contact:phone': '+375 25 6838787;+375 29 6838787;+375 33 6838787', 'contact:vk': 'https://vk.com/apteka_adel', 'contact:website': 'https://apteka-adel.by/', 'healthcare': 'pharmacy', 'layer': '-1', 'location': 'underground', 'name': 'ADEL', 'name:be': 'Адэль', 'name:ru': 'Адель', 'opening_hours': 'Mo-Fr 07:00-20:00', 'operator': '""Фарммаркет-плюс""'}}"
"{'type': 'node', 'id': 306065703, 'lat': 54.2968243, 'lon': 26.8769265, 'tags': {'healthcare': 'centre', 'name': 'Мед Цэнтр Салюс', 'name:be': 'Мед Цэнтр Салюс', 'name:en': 'Salus', 'name:ru': 'Мед Центр Салюс', 'opening_hours': 'Mo-Fr 08:00-20:00; Sa 08:00-16:00'}}"
"{'type': 'node', 'id': 306066193, 'lat': 54.2983745, 'lon': 26.8481697, 'tags': {'amenity': 'dentist', 'healthcare': 'dentist', 'name': 'Чэлсена-Дэнт', 'name:be': 'Чэлсена-Дэнт', 'name:ru': 'Челсена-Дент', 'opening_hours': 'Mo-Fr 08:00-19:00; Sa 09:00-13:00'}}"
"{'type': 'node', 'id': 432519038, 'lat': 53.9096929, 'lon': 27.4985972, 'tags': {'amenity': 'pharmacy', 'drive_through': 'no', 'healthcare': 'pharmacy', 'level': '-1'}}"
"{'type': 'node', 'id': 444694791, 'lat': 54.4751403, 'lon': 26.4175281, 'tags': {'amenity': 'pharmacy', 'dispensing': 'no', 'healthcare': 'pharmacy'}}"
"{'type': 'node', 'id': 546293028, 'lat': 53.9164704, 'lon': 27.4377801, 'tags': {'amenity': 'pharmacy', 'contact:email': 'info@d-leki.by', 'contact:instagram': 'https://www.instagram.com/apteka_adel', 'contact:phone': '+375 25 5355757;+375 29 5355757;+375 44 5355757', 'contact:vk': 'https://vk.com/apteka_adel', 'contact:website': 'https://d-leki.by/', 'healthcare': 'pharmacy', 'name': 'Добрыя лекі', 'name:be': 'Добрыя лекі', 'name:ru': 'Добрыя леки', 'opening_hours': 'Mo-Fr 08:00-22:00;Sa,Su 09:00-21:00', 'operator': '""Фарммаркет-плюс""', 'wheelchair': 'no'}}"
"{'type': 'node', 'id': 653161627, 'lat': 54.0051477, 'lon': 27.2933179, 'tags': {'amenity': 'pharmacy', 'dispensing': 'yes', 'drive_through': 'no', 'healthcare': 'pharmacy', 'name': 'Аптека №154', 'opening_hours': 'Mo-Fr 09:00-19:00; Sa, Su 09:00-17:30', 'operator': 'РУП ""Минская Фармация""'}}"
"{'type': 'node', 'id': 767806388, 'lat': 54.2247989, 'lon': 27.1797872, 'tags': {'amenity': 'doctors', 'healthcare': 'doctor', 'name': 'ФАП Гранічы', 'name:be': 'ФАП Гранічы', 'name:ru': 'ФАП Граничи'}}"
"{'type': 'node', 'id': 837941722, 'lat': 53.9761244, 'lon': 27.3402728, 'tags': {'amenity': 'pharmacy', 'healthcare': 'pharmacy'}}"
"{'type': 'node', 'id': 848523874, 'lat': 53.8648445, 'lon': 27.4876937, 'tags': {'amenity': 'dentist', 'healthcare': 'dentist', 'name': 'Дэнтлайн Люкс', 'name:be': 'Дэнтлайн Люкс', 'name:ru': 'Дентлайн Люкс'}}"
"{'type': 'node', 'id': 892627126, 'lat': 53.9114801, 'lon': 27.427856, 'tags': {'amenity': 'dentist', 'healthcare': 'dentist', 'name': 'Стаматалогія', 'name:be': 'Стаматалогія', 'name:ru': 'Стоматология'}}"
"{'type': 'node', 'id': 929264865, 'lat': 54.0116791, 'lon': 27.2655025, 'tags': {'amenity': 'pharmacy', 'healthcare': 'pharmacy'}}"
"{'type': 'node', 'id': 932577108, 'lat': 54.0099318, 'lon': 27.2633063, 'tags': {'amenity': 'clinic', 'name': 'Дзіцячая паліклініка', 'name:be': 'Дзіцячая паліклініка', 'name:en': ""Children's policlinic"", 'name:ru': 'Детская поликлиника', 'name:uk': 'Дитяча поліклініка'}}"
"{'type': 'node', 'id': 969277435, 'lat': 53.9077444, 'lon': 27.4772967, 'tags': {'addr:city': 'Мінск', 'addr:city:ru': 'Минск', 'addr:country': 'BY', 'addr:housenumber': '39-10H', 'addr:street': 'вуліца Прытыцкага', 'amenity': 'pharmacy', 'dispensing': 'yes', 'healthcare': 'pharmacy', 'name': 'Аптэка', 'name:be': 'Аптэка', 'name:ru': 'Аптека #1 БСТФАРМ', 'opening_hours': 'Mo-Fr 09:00-20:00; Sa 09:00-18:00; Su 09:00-17:00', 'operator': 'ООО ""БСТФАРМ""'}}"
"{'type': 'node', 'id': 990814034, 'lat': 53.8440848, 'lon': 27.5269125, 'tags': {'addr:city': 'Мінск', 'addr:city:ru': 'Минск', 'addr:country': 'BY', 'addr:housenumber': '2А', 'addr:street': 'завулак Каржанеўскага', 'amenity': 'pharmacy', 'healthcare': 'pharmacy', 'int_name': 'Apteka', 'name': 'Аптэка №4', 'name:be': 'Аптэка №4', 'name:ru': 'Аптека №4', 'opening_hours': 'Mo-Fr 09:00-21:00; Sa,Su 10:00-18:00', 'operator': 'Экомаркет ООО'}}"
"{'type': 'node', 'id': 1028015131, 'lat': 53.9469882, 'lon': 27.4242671, 'tags': {'addr:postcode': '2203028', 'addr:street': 'Лінейная вуліца', 'amenity': 'clinic', 'building:levels': '2', 'name': 'Ждановіцкая амбулаторыя', 'name:be': 'Ждановіцкая амбулаторыя', 'name:ru': 'Ждановичская Амбулатория', 'name:uk': 'Ждановичська Амбулаторія', 'opening_hours': 'Mo-Fr 07:00-20:00; Sa 08:00-15:00', 'source': 'http://zha.103.by/'}}"
"{'type': 'node', 'id': 1040532761, 'lat': 54.091018, 'lon': 26.5211901, 'tags': {'amenity': 'pharmacy', 'healthcare': 'pharmacy', 'name': 'Аптека №123', 'name:be': 'Аптэка №123', 'name:ru': 'Аптека №123'}}"
"{'type': 'node', 'id': 1041648255, 'lat': 53.9022462, 'lon': 27.4892374, 'tags': {'addr:city': 'Мінск', 'addr:city:ru': 'Минск', 'addr:country': 'BY', 'addr:housenumber': '20', 'addr:street': 'вуліца Янкі Маўра', 'amenity': 'pharmacy', 'healthcare': 'pharmacy', 'name': 'Аптека № 1', 'name:be': 'Аптэка № 1', 'name:en': 'Pharmacy № 1', 'name:ru': 'Аптека № 1', 'opening_hours': 'Mo-Fr 09:00-21:00; Sa-Su 10:00-19:00', 'operator': 'ООО «Плесид»', 'phone': '+375 44 5074501'}}"
"{'type': 'node', 'id': 1094976047, 'lat': 54.4899604, 'lon': 26.9173619, 'tags': {'addr:housenumber': '10', 'addr:street': 'вуліца 1 Мая', 'amenity': 'pharmacy', 'drive_through': 'no', 'healthcare': 'pharmacy', 'opening_hours': '8:00-20:00', 'operator': 'ОДО ""Квэрк""'}}"
"{'type': 'node', 'id': 1104621763, 'lat': 53.8999944, 'lon': 27.4342159, 'tags': {'amenity': 'pharmacy', 'contact:phone': '+375 17 3772570', 'contact:website': 'https://alfaapteka.by', 'healthcare': 'pharmacy', 'name': 'Альфа Аптека №3', 'name:be': 'Альфа Аптэка №3', 'name:ru': 'Альфа Аптека №3', 'name:uk': 'Альфа Аптека №3', 'opening_hours': 'Mo-Su 09:00-21:00', 'wheelchair': 'no'}}"
"{'type': 'node', 'id': 1109119695, 'lat': 53.9014321, 'lon': 27.4342646, 'tags': {'amenity': 'dentist', 'contact:instagram': '_dental_m', 'email': 'helpdentalm@gmail.com', 'healthcare': 'dentist', 'name': 'Уладзімір', 'name:be': 'Уладзімір', 'name:ru': 'Dental-M', 'opening_hours': 'Mo-Fr 08:00-20:00', 'phone': '+375 29 673-15-45', 'website': 'http://www.dental-m.by'}}"
"{'type': 'node', 'id': 1119772802, 'lat': 53.9012117, 'lon': 27.4335379, 'tags': {'amenity': 'pharmacy', 'healthcare': 'pharmacy', 'name': '№1 ООО «Моя аптека»', 'name:be': '№1 ТАА «Мая аптэка»', 'name:ru': '№1 ООО «Моя аптека»', 'name:uk': '№1 ТОВ «Моя аптека»', 'opening_hours': '9:00-21:00'}}"
"{'type': 'node', 'id': 1166502639, 'lat': 53.8952741, 'lon': 27.528437, 'tags': {'amenity': 'pharmacy', 'healthcare': 'pharmacy', 'name': 'Іскамед', 'name:be': 'Іскамед', 'name:ru': 'Искамед', 'opening_hours': 'Mo-Fr 09:00-20:00; Sa,Su 09:00-19:00'}}"
"{'type': 'node', 'id': 1175497812, 'lat': 53.9108424, 'lon': 27.5081947, 'tags': {'amenity': 'pharmacy', 'contact:phone': '+375 17 2151015', 'contact:website': 'http://medway.by', 'description': '5-ой категории', 'healthcare': 'pharmacy', 'int_name': 'Apteka', 'name': 'Медвай №1', 'name:be': 'Медвай №1', 'name:ru': 'Медвай №1', 'name:uk': 'Медвай №1', 'opening_hours': 'Mo-Fr 08:30-20:30; Sa 09:00-20:00; Su 10:00-18:00; Su[1] off'}}"
"{'type': 'node', 'id': 1203558884, 'lat': 53.9057636, 'lon': 27.446779, 'tags': {'amenity': 'dentist', 'healthcare': 'dentist', 'name': 'Дзівітус', 'name:be': 'Дзівітус', 'name:ru': 'Дивитус', 'opening_hours': 'Mo-Fr 09:00-21:00'}}"
"{'type': 'node', 'id': 1203563441, 'lat': 53.905826, 'lon': 27.446709, 'tags': {'amenity': 'pharmacy', 'healthcare': 'pharmacy', 'name': 'Аптека 1 Доминатфарм', 'name:be': 'Аптэка 1 Дамінатфарм', 'name:ru': 'Аптека 1 Доминатфарм', 'opening_hours': 'Mo-Fr 09:00-20:00; Su 10:00-20:00; Sa 10:00-20:00; Tu[2] 14:00-21:00', 'operator': 'Доминантафарм'}}"
"{'type': 'node', 'id': 1203563549, 'lat': 53.907054, 'lon': 27.4456027, 'tags': {'amenity': 'pharmacy', 'healthcare': 'pharmacy', 'name': 'Аптека №106', 'name:be': 'Аптэка №106', 'name:ru': 'Аптека №106', 'opening_hours': 'Mo-Fr 08:00-21:00; Sa,Su 09:00-17:00', 'operator': 'Белфармация'}}"
"{'type': 'node', 'id': 1323453750, 'lat': 54.2214205, 'lon': 26.6147121, 'tags': {'amenity': 'pharmacy', 'contact:email': 'inf@minfarm.by', 'contact:phone': '+375 176 590978', 'contact:website': 'http://minfarm.by/', 'healthcare': 'pharmacy', 'name': 'Минская Фармация', 'name:be': 'Мінская Фармацыя', 'name:en': 'Minskaya Pharmacia', 'name:ru': 'Минская Фармация', 'opening_hours': 'Mo-Fr 08:00-12:00,12:20-16:20', 'operator': 'Торгово-производственное республиканское унитарное предприятие ""Минская Фармация""'}}"
"{'type': 'node', 'id': 1351236567, 'lat': 54.0408182, 'lon': 27.3010147, 'tags': {'amenity': 'hospital', 'name': 'Лашанскі фельчарска-акушэрскі пункт', 'name:be': 'Лашанскі фельчарска-акушэрскі пункт', 'name:ru': 'Лошанский фельдшерско-акушерский пункт'}}"
"{'type': 'node', 'id': 1394524342, 'lat': 53.8753597, 'lon': 27.4979412, 'tags': {'amenity': 'pharmacy', 'healthcare': 'pharmacy', 'name': 'Доктар Вет', 'name:be': 'Доктар Вет', 'name:ru': 'Доктор Вет'}}"
"{'type': 'node', 'id': 1394524352, 'lat': 53.8747019, 'lon': 27.4989283, 'tags': {'amenity': 'pharmacy', 'contact:phone': '+375 17 3922132', 'contact:website': 'http://medway.by', 'healthcare': 'pharmacy', 'name': 'Медвай №9', 'name:be': 'Медвай №9', 'name:ru': 'Медвай №9', 'opening_hours': 'Mo-Sa 09:00-21:00; Su 10:00-20:00'}}"
"{'type': 'node', 'id': 1402513542, 'lat': 53.8230539, 'lon': 27.5229309, 'tags': {'amenity': 'pharmacy', 'healthcare': 'pharmacy', 'int_name': 'Bielfarmacyja', 'name': 'Белфармация', 'name:be': 'Белфармацыя', 'name:ru': 'Белфармация'}}"
"{'type': 'node', 'id': 1426978353, 'lat': 54.3118031, 'lon': 26.8395787, 'tags': {'amenity': 'pharmacy', 'healthcare': 'pharmacy', 'int_name': 'Apteka №110', 'name': 'Аптека №110', 'name:be': 'Аптэка №110', 'name:ru': 'Аптека №110'}}"
"{'type': 'node', 'id': 1427159599, 'lat': 54.3001404, 'lon': 26.847473, 'tags': {'amenity': 'pharmacy', 'brand': 'Минская Фармация', 'brand:be': 'Мінская Фармацыя', 'brand:en': 'Minskaya Pharmacia', 'brand:ru': 'Минская Фармация', 'brand:wikidata': 'Q108553370', 'contact:email': 'inf@minfarm.by', 'contact:phone': '+375 176 525081', 'contact:website': 'http://minfarm.by/', 'healthcare': 'pharmacy', 'int_name': 'Apteka №180', 'name': 'Минская Фармация', 'name:be': 'Мінская Фармацыя', 'name:en': 'Minskaya Pharmacia', 'name:ru': 'Минская Фармация', 'opening_hours': 'Mo-Fr 08:00-22:00; Sa 10:00-22:00; Su 10:00-14:30,15:00-22:00', 'operator': 'Торгово-производственное республиканское унитарное предприятие ""Минская Фармация""'}}"
"{'type': 'node', 'id': 1427159602, 'lat': 54.3037864, 'lon': 26.8477436, 'tags': {'amenity': 'pharmacy', 'healthcare': 'pharmacy', 'int_name': 'Apteka №3 TDA ""Šarlota""', 'name': 'Аптека №3 ОДО «Шарлота»', 'name:be': 'Аптэка №3 ТДА «Шарлота»', 'name:ru': 'Аптека №3 ОДО «Шарлота»', 'name:uk': 'Аптека №3 ТДВ «Шарлотта»', 'opening_hours': 'Mo-Su 08:00-20:00; PH 09:00-17:00'}}"
"{'type': 'node', 'id': 1427163609, 'lat': 54.3097791, 'lon': 26.8439527, 'tags': {'addr:housenumber': '9', 'addr:street': 'Віленская вуліца', 'amenity': 'pharmacy', 'healthcare': 'pharmacy', 'int_name': 'Apteka №1', 'name': 'Аптека №1', 'name:be': 'Аптэка №1', 'name:ru': 'Аптека №1', 'opening_hours': 'Mo-Su 08:00-20:00', 'operator': 'ОДО ""Шарлота""'}}"
"{'type': 'node', 'id': 1427163612, 'lat': 54.2969122, 'lon': 26.8765183, 'tags': {'amenity': 'pharmacy', 'healthcare': 'pharmacy', 'name': 'Аптэка № 6', 'name:be': 'Аптэка № 6', 'name:ru': 'Аптека № 6', 'operator': 'ООО ""Аптечное дело""'}}"
"{'type': 'node', 'id': 1427165572, 'lat': 54.3072086, 'lon': 26.8273504, 'tags': {'amenity': 'pharmacy', 'healthcare': 'pharmacy', 'int_name': 'Apteka №7 TDA ""Šarlota""', 'name': 'Аптэка «Юніфарм»', 'name:be': 'Аптэка «Юніфарм»', 'name:ru': 'Аптека «Юнифарм »', 'name:uk': 'Аптека «Юніфарм»', 'opening_hours': 'Mo-Fr 08:00-20:00; Sa,Su 09:00-18:00'}}"
"{'type': 'node', 'id': 1430154471, 'lat': 54.301772, 'lon': 26.8573165, 'tags': {'addr:housenumber': '88', 'addr:street': 'вуліца Вялікі Гасцінец', 'amenity': 'dentist', 'healthcare': 'dentist', 'name': 'Стаматалогія гарадская', 'name:be': 'Стаматалогія гарадская', 'name:ru': 'Стоматология городская'}}"
"{'type': 'node', 'id': 1570668140, 'lat': 53.8954231, 'lon': 27.5237302, 'tags': {'addr:city': 'Мінск', 'addr:city:ru': 'Минск', 'addr:country': 'BY', 'addr:housenumber': '84 к1', 'addr:street': 'вуліца Карла Лібкнехта', 'amenity': 'pharmacy', 'healthcare': 'pharmacy', 'name': 'ООО «Экомаркет» Аптека N1', 'name:be': 'ТАА «Экамаркет» Аптэка №1', 'name:ru': 'ООО «Экомаркет» Аптека N1', 'name:uk': 'ТОВ «Екомаркет» Аптека N1', 'opening_hours': 'Mo-Fr 09:00-21:00; Sa-Su 10:00-18:00'}}"
"{'type': 'node', 'id': 1592422947, 'lat': 53.9310465, 'lon': 27.5091455, 'tags': {'amenity': 'pharmacy', 'healthcare': 'pharmacy'}}"
"{'type': 'node', 'id': 1594886939, 'lat': 53.932918, 'lon': 27.5037137, 'tags': {'amenity': 'pharmacy', 'healthcare': 'pharmacy', 'int_name': 'Apteka', 'name': 'Аптэка', 'name:be': 'Аптэка', 'name:ru': 'Аптека'}}"
"{'type': 'node', 'id': 1618116279, 'lat': 53.9076986, 'lon': 27.527686, 'tags': {'addr:city': 'Мінск', 'addr:city:ru': 'Минск', 'addr:country': 'BY', 'addr:housenumber': '24', 'addr:street': 'Кальварыйская вуліца', 'amenity': 'pharmacy', 'healthcare': 'pharmacy', 'level': '0'}}"
"{'type': 'node', 'id': 1652609630, 'lat': 54.2988493, 'lon': 26.8497189, 'tags': {'amenity': 'dentist', 'healthcare': 'dentist', 'name': 'АСА Дент', 'name:be': 'АСА Дент', 'name:ru': 'АСА Дент', 'phone': '+375 1773 6 93 00'}}"
"{'type': 'node', 'id': 1664042784, 'lat': 53.9144933, 'lon': 27.424861, 'tags': {'amenity': 'dentist', 'healthcare': 'dentist', 'name': 'Стаматалогія', 'name:be': 'Стаматалогія', 'name:ru': 'Стоматология', 'opening_hours': 'Mo-Fr 09:00-21:00; Sa,Su 10:00-15:00'}}"
"{'type': 'node', 'id': 1710657756, 'lat': 53.8470776, 'lon': 27.4717105, 'tags': {'addr:city': 'Мінск', 'addr:city:ru': 'Минск', 'addr:country': 'BY', 'addr:housenumber': '126', 'addr:street': 'праспект Дзяржынскага', 'amenity': 'pharmacy', 'healthcare': 'pharmacy', 'name': 'Медвакс №5', 'name:be': 'Медвакс №5', 'name:ru': 'Медвакс №5', 'opening_hours': 'Mo-Su 08:00-23:00', 'operator': 'СЗАО ""Медвакс""', 'phone': '+375 17 3928503;+375 17 3928507', 'ref': '5', 'website': 'https://medvax.by/', 'wheelchair': 'yes'}}"
"{'type': 'node', 'id': 1719179798, 'lat': 53.6701227, 'lon': 27.0081914, 'tags': {'amenity': 'hospital'}}"
"{'type': 'node', 'id': 1737523961, 'lat': 53.8555147, 'lon': 27.5200903, 'tags': {'amenity': 'pharmacy', 'healthcare': 'pharmacy', 'name': 'Белфармация, №74', 'name:be': 'Белфармацыя, №74', 'name:ru': 'Белфармация, №74', 'opening_hours': 'Mo-Fr 08:00-20:00'}}"
"{'type': 'node', 'id': 1739313130, 'lat': 53.9070476, 'lon': 27.4806832, 'tags': {'amenity': 'pharmacy', 'contact:phone': '+375 17 2501357', 'contact:website': 'https://alfaapteka.by', 'dispensing': 'no', 'healthcare': 'pharmacy', 'name': 'Альфа Аптека №6', 'name:be': 'Альфа Аптэка №6', 'name:en': 'Pharmacy № 3', 'name:ru': 'Альфа Аптека №6', 'note': 'Уточнить название - альфа, Бризфарм, Беллерофон?', 'opening_hours': 'Mo-Su 08:00-22:00', 'operator': 'Беллерофон'}}"
"{'type': 'node', 'id': 1806160947, 'lat': 54.0094538, 'lon': 27.2663348, 'tags': {'amenity': 'dentist', 'healthcare': 'dentist'}}"
"{'type': 'node', 'id': 1869532323, 'lat': 54.3045448, 'lon': 26.8432201, 'tags': {'addr:housenumber': '64', 'addr:street': 'вуліца Вялікі Гасцінец', 'amenity': 'pharmacy', 'healthcare': 'pharmacy', 'int_name': 'Iskamied № 45', 'name': 'Искамед № 45', 'name:be': 'скамед № 45', 'name:ru': 'Искамед № 45', 'opening_hours': 'Mo-Fr 08:00-20:00; Sa,Su 09:00-18:00'}}"
"{'type': 'node', 'id': 1870264630, 'lat': 54.2985785, 'lon': 26.8668402, 'tags': {'addr:housenumber': '143Б', 'addr:street': 'вуліца Вялікі Гасцінец', 'amenity': 'pharmacy', 'contact:phone': '+375 176 559231', 'contact:website': 'https://alfaapteka.by', 'description': '2-й категории', 'healthcare': 'pharmacy', 'name': 'Альфа Аптека №11', 'name:be': 'Альфа Аптэка №11', 'name:ru': 'Альфа Аптека №11', 'name:uk': 'Альфа Аптека №11', 'opening_hours': 'Mo-Fr 08:00-20:00; Sa-Su 09:00-18:00', 'operator': 'ООО «Машери-Инвест»', 'pharmacy:category': '2'}}"
"{'type': 'node', 'id': 1938585686, 'lat': 54.0715627, 'lon': 27.2203029, 'tags': {'amenity': 'pharmacy', 'healthcare': 'pharmacy'}}"
"{'type': 'node', 'id': 1947404491, 'lat': 53.8872783, 'lon': 27.4294842, 'tags': {'amenity': 'dentist', 'emergency': 'yes', 'healthcare': 'dentist', 'name': 'Стаматалогія, ЭленСмайл', 'name:be': 'Стаматалогія, ЭленСмайл', 'name:ru': 'Стоматология, ЭленСмайл'}}"
"{'type': 'node', 'id': 1979128583, 'lat': 53.9090831, 'lon': 27.4266346, 'tags': {'amenity': 'dentist', 'email': 'info@magicart.by', 'healthcare': 'dentist', 'internet_access': 'wlan', 'name': 'Стаматалогія', 'name:be': 'Стаматалогія', 'name:en': 'Stomatology', 'name:ru': 'Стоматология MagicArt', 'opening_hours': 'Mo-Fr 08:00-21:00; Sa 08:00-15:00', 'phone': '+375 (29) 391-40-48', 'website': 'https://www.magicart.by/'}}"
"{'type': 'node', 'id': 2014684349, 'lat': 53.9255249, 'lon': 27.4323496, 'tags': {'amenity': 'dentist', 'healthcare': 'dentist', 'name': 'Еўрашолах', 'name:be': 'Еўрашолах', 'name:ru': 'Еврошелест', 'opening_hours': 'Mo-Fr 09:00-21:00; Sa 10:00-16:00'}}"
"{'type': 'node', 'id': 2068960676, 'lat': 54.0863899, 'lon': 26.5213276, 'tags': {'amenity': 'pharmacy', 'healthcare': 'pharmacy'}}"
"{'type': 'node', 'id': 2068960692, 'lat': 54.0893457, 'lon': 26.5480537, 'tags': {'amenity': 'pharmacy', 'healthcare': 'pharmacy'}}"
"{'type': 'node', 'id': 2074187348, 'lat': 54.3108451, 'lon': 26.8965402, 'tags': {'amenity': 'pharmacy', 'brand': 'Минская Фармация', 'brand:be': 'Мінская Фармацыя', 'brand:en': 'Minskaya Pharmacia', 'brand:ru': 'Минская Фармация', 'brand:wikidata': 'Q108553370', 'contact:email': 'inf@minfarm.by', 'contact:phone': '+375 176 739011', 'contact:website': 'http://minfarm.by/', 'healthcare': 'pharmacy', 'int_name': 'Apteka №216 RUP ""Minskaja farmacиja""', 'name': 'Минская Фармация', 'name:be': 'Мінская Фармацыя', 'name:en': 'Minskaya Pharmacia', 'name:ru': 'Минская Фармация', 'opening_hours': 'Mo-Fr 08:00-20:00; Sa-Su 08:40-13:40,14:00-17:00', 'operator': 'Торгово-производственное республиканское унитарное предприятие ""Минская Фармация""'}}"
"{'type': 'node', 'id': 2117400668, 'lat': 53.893505, 'lon': 27.51452, 'tags': {'addr:city': 'Мінск', 'addr:city:ru': 'Минск', 'addr:country': 'BY', 'addr:housenumber': '108', 'addr:street': 'вуліца Карла Лібкнехта', 'amenity': 'pharmacy', 'contact:phone': '+375 17 3234215', 'contact:website': 'https://alfaapteka.by', 'healthcare': 'pharmacy', 'name': 'Альфа Аптека №18', 'name:be': 'Альфа Аптэка №18', 'name:en': 'Pharmacy №18', 'name:ru': 'Альфа Аптека №18', 'opening_hours': 'Mo-Su 09:00-21:00'}}"
"{'type': 'node', 'id': 2162340626, 'lat': 53.8910804, 'lon': 27.4208253, 'tags': {'addr:city': 'Мінск', 'addr:city:ru': 'Минск', 'addr:country': 'BY', 'addr:housenumber': '11Б', 'addr:street': 'вуліца Скрыпнікава', 'amenity': 'clinic', 'email': 'kravira@kravira.by', 'healthcare': 'clinic', 'name': 'Медыцынскi цэнтр «Кравiра»', 'name:be': 'Медыцынскi цэнтр «Кравiра»', 'name:ru': 'Кравира', 'opening_hours': 'Mo-Sa 08:00-21:00; Su 09:00-16:00', 'phone': '+375 17 224-25-43, 403, +375 29 100-00-03, +375 33 900-00-03', 'website': 'https://kravira.by/'}}"
"{'type': 'node', 'id': 2162340627, 'lat': 53.8909657, 'lon': 27.4208163, 'tags': {'amenity': 'pharmacy', 'dispensing': 'no', 'healthcare': 'pharmacy', 'name': 'Юніфарм, Аптэка № 6', 'name:be': 'Юніфарм, Аптэка № 6', 'name:ru': 'Юнифарм, Аптека № 6', 'opening_hours': 'Mo-Fr 09:00-21:00; Sa 10:00-20:00; Su 10:00-18:00'}}"
"{'type': 'node', 'id': 2186990129, 'lat': 53.6815489, 'lon': 27.1185008, 'tags': {'amenity': 'pharmacy', 'healthcare': 'pharmacy'}}"
"{'type': 'node', 'id': 2321011404, 'lat': 53.9062462, 'lon': 27.4544638, 'tags': {'amenity': 'pharmacy', 'dispensing': 'no', 'healthcare': 'pharmacy', 'int_name': 'Apteka', 'layer': '-1', 'name': 'Аптека', 'name:be': 'Аптэка', 'name:ru': 'Аптека', 'opening_hours': 'Mo-Fr 08:00-22:00; Sa,Su 09:00-19:00', 'operator': 'ООО ""Фарммаркет-плюс""', 'phone': '375172542883', 'website': 'http://vfm.by/'}}"
"{'type': 'node', 'id': 2331582972, 'lat': 53.8942938, 'lon': 27.5285324, 'tags': {'amenity': 'dentist', 'healthcare': 'dentist', 'internet_access': 'wlan', 'name': 'Стаматалагічны цэнтр ТрыяМед', 'name:be': 'Стаматалагічны цэнтр ТрыяМед', 'name:ru': 'Стоматологический центр ТриоМед', 'opening_hours': 'Mo-Sa 09:00-21:00', 'phone': '+375173003001', 'website': 'http://Triomed.by'}}"
"{'type': 'node', 'id': 2334766682, 'lat': 53.908157, 'lon': 27.4283862, 'tags': {'addr:city': 'Мінск', 'addr:city:ru': 'Минск', 'addr:country': 'BY', 'addr:housenumber': '158', 'addr:street': 'вуліца Прытыцкага', 'alt_name': 'Медицинская лаборатория Синлаб', 'amenity': 'doctors', 'brand': 'Synlab', 'brand:wikidata': 'Q2376015', 'contact:email': 'lab.info@synlab-eml.by', 'contact:facebook': 'https://www.facebook.com/synlab.by/?ref=bookmarks', 'contact:instagram': 'https://www.instagram.com/synlab_belarus', 'contact:ok': 'https://ok.ru/feed', 'contact:phone': '+375173933064;+375173933065;+375336647752;+375445351941', 'contact:vk': 'http://vk.com/synlab_belarus', 'contact:website': 'https://synlab.by/', 'description': 'Лаборатория', 'healthcare': 'laboratory', 'healthcare:speciality': 'biology', 'name': 'Synlab', 'name:be': 'Synlab', 'name:en': 'Synlab', 'name:ru': 'Синлаб', 'opening_hours': 'Mo-Fr 07:30-20:00;Sa-Su 07:30-15:00', 'operator': 'Синлаб-ЕМЛ'}}"
"{'type': 'node', 'id': 2335092217, 'lat': 53.9299816, 'lon': 27.4260897, 'tags': {'healthcare': 'laboratory', 'healthcare:speciality': 'general', 'name': 'Перадрэйсавы агляд вадзіцеляў', 'name:be': 'Перадрэйсавы агляд вадзіцеляў', 'name:ru': 'Предрейсовый осмотр водителей'}}"
"{'type': 'node', 'id': 2335097080, 'lat': 53.887653, 'lon': 27.4205253, 'tags': {'addr:city': 'Мінск', 'addr:city:ru': 'Минск', 'addr:country': 'BY', 'addr:housenumber': '1', 'addr:street': 'вуліца Скрыпнікава', 'amenity': 'clinic', 'contact:email': 'info@helix.by', 'contact:phone': '+375 17 3388888;+375 29 6285428', 'contact:website': 'https://helix.by', 'healthcare': 'clinic', 'name': 'Helix', 'name:be': 'Хелікс', 'name:en': 'Helix', 'name:ru': 'Хеликс', 'name:uk': 'Хелікс', 'opening_hours': 'Mo-Fr 07:00-17:00; Sa 07:30-14:00; Su 08:00-14:00'}}"
"{'type': 'node', 'id': 2335289611, 'lat': 53.9108107, 'lon': 27.4296995, 'tags': {'amenity': 'pharmacy', 'healthcare': 'pharmacy', 'int_name': 'Apteka', 'name': 'Аптека', 'name:be': 'Аптэка', 'name:ru': 'Аптека', 'opening_hours': 'Mo-Fr 08:00-21:00; Sa-Su 09:00-18:00', 'operator': 'Новамедика УП', 'phone': '+375 17 3132690', 'ref': '10', 'wheelchair': 'no'}}"
"{'type': 'node', 'id': 2379967641, 'lat': 53.859734, 'lon': 27.4366078, 'tags': {'addr:city': 'Мінск', 'addr:city:ru': 'Минск', 'addr:country': 'BY', 'addr:housenumber': '88А', 'addr:postcode': '220051', 'addr:street': 'вуліца Рафіева', 'amenity': 'pharmacy', 'healthcare': 'pharmacy', 'name': 'Искамед №3', 'name:be': 'Іскамед №3', 'name:ru': 'Искамед №3', 'opening_hours': 'Mo-Fr 09:00-22:00; Sa 09:00-21:00; Su 10:00-19:00', 'operator': 'ООО ""Искамед""', 'phone': '+375 17 2743594', 'ref': '3', 'website': 'https://iskamed.by/', 'wheelchair': 'yes'}}"
"{'type': 'node', 'id': 2383935388, 'lat': 53.7432856, 'lon': 27.3274262, 'tags': {'addr:housenumber': '6', 'addr:postcode': '222750', 'addr:street': 'вуліца Якуба Коласа', 'amenity': 'pharmacy', 'healthcare': 'pharmacy', 'int_name': 'Apteka', 'name': 'Аптека № 10 «Планета Здоровья»', 'name:be': 'Аптэка № 10 «Планета Здароўя»', 'name:ru': 'Аптека № 10 «Планета Здоровья»', 'opening_hours': 'Mo-Sa 09:00-20:00, Su 9:00-18:00', 'operator': 'Аптечная сеть ""Планета Здоровья""', 'phone': '+375171675504', 'website': 'https://www.healthplanet.by/'}}"
"{'type': 'node', 'id': 2526998090, 'lat': 54.1546248, 'lon': 27.2448371, 'tags': {'amenity': 'hospital', 'emergency': 'no', 'name': 'Прыватная стаматалогія', 'name:be': 'Прыватная стаматалогія', 'name:ru': 'Частная стоматология'}}"
"{'type': 'node', 'id': 2549569967, 'lat': 53.9183065, 'lon': 27.44878, 'tags': {'addr:housenumber': '1', 'addr:street': 'вуліца Іосіфа Жыновіча', 'amenity': 'pharmacy', 'check_date': '2024-04-24', 'healthcare': 'pharmacy', 'level': '0', 'name': 'Аптека №25', 'name:be': 'Аптэка №25', 'name:ru': 'Аптека №25', 'opening_hours': 'Mo-Fr 09:00-22:00; Sa 10:00-20:00; Su 10:00-19:00', 'operator': 'ООО ""Искамед""', 'phone': '+375173905163', 'website': 'https://iskamed.by/'}}"
"{'type': 'node', 'id': 2567200798, 'lat': 53.9055524, 'lon': 27.4510353, 'tags': {'addr:city': 'Мінск', 'addr:city:ru': 'Минск', 'addr:country': 'BY', 'addr:housenumber': '83', 'addr:street': 'вуліца Прытыцкага', 'amenity': 'pharmacy', 'contact:phone': '+375 17 3424376', 'contact:website': 'https://alfaapteka.by', 'healthcare': 'pharmacy', 'name': 'Альфа Аптека №14', 'name:be': 'Альфа Аптэка №14', 'name:ru': 'Альфа Аптека №14', 'opening_hours': 'Mo-Fr 09:00-21:00; Sa-Su 09:00-20:00', 'operator': 'Аленфарм-плюс'}}"
"{'type': 'node', 'id': 2567200799, 'lat': 53.9056892, 'lon': 27.4501362, 'tags': {'amenity': 'dentist', 'healthcare': 'dentist', 'name': 'Стаматалогія доктара Зялінскага', 'name:be': 'Стаматалогія доктара Зялінскага', 'name:ru': 'Стоматология доктора Зелинского', 'phone': '+375 17 202 7178'}}"
"{'type': 'node', 'id': 2567200800, 'lat': 53.9056643, 'lon': 27.4506742, 'tags': {'amenity': 'dentist', 'healthcare': 'dentist', 'name': 'Дысамед', 'name:be': 'Дысамед', 'name:ru': 'Дисамед', 'phone': '+375 17 313 2929'}}"
"{'type': 'node', 'id': 2575618615, 'lat': 53.8961596, 'lon': 27.4329112, 'tags': {'amenity': 'pharmacy', 'healthcare': 'pharmacy', 'int_name': 'Apteka', 'level': '1', 'name': 'Аптека', 'name:be': 'Аптэка', 'name:ru': 'Аптека'}}"
"{'type': 'node', 'id': 2599747642, 'lat': 53.8526639, 'lon': 27.4430687, 'tags': {'addr:city': 'Мінск', 'addr:city:ru': 'Минск', 'addr:country': 'BY', 'addr:housenumber': '28', 'addr:postcode': '220051', 'addr:street': 'вуліца Громава', 'amenity': 'pharmacy', 'healthcare': 'pharmacy', 'name': 'Доктор Время №3', 'name:be': 'Доктар Час №3', 'name:ru': 'Доктор Время №3', 'opening_hours': 'Mo-Fr 9:00-21:00; Sa 10:00-19:00; Sa 10:00-17:00', 'operator': 'ООО ""Доктор время""', 'phone': '+375 17 2742394;+375 44 5018903', 'ref': '3', 'website': 'http://dtime.by/'}}"
"{'type': 'node', 'id': 2602926799, 'lat': 53.9048671, 'lon': 27.4547389, 'tags': {'addr:city': 'Мінск', 'addr:city:ru': 'Минск', 'addr:country': 'BY', 'addr:housenumber': '6', 'addr:street': 'вуліца Бурдзейнага', 'amenity': 'pharmacy', 'healthcare': 'pharmacy', 'name': 'Аптэка № 45', 'name:be': 'Аптэка № 45', 'name:ru': 'Аптека № 45', 'operator': 'Белмединфарм'}}"
"{'type': 'node', 'id': 2602935708, 'lat': 53.904351, 'lon': 27.4575862, 'tags': {'amenity': 'pharmacy', 'healthcare': 'pharmacy', 'opening_hours': 'Mo-Fr 08:00-21:00;Sa-Su 10:00-18:00'}}"
"{'type': 'node', 'id': 2602935709, 'lat': 53.9044458, 'lon': 27.4585327, 'tags': {'addr:city': 'Мінск', 'addr:city:ru': 'Минск', 'addr:country': 'BY', 'addr:housenumber': '4', 'addr:street': 'вуліца Бурдзейнага', 'amenity': 'pharmacy', 'healthcare': 'pharmacy', 'int_name': 'Bielfarmacyja A TDA Apteka №106', 'name': 'Белфармацыя А ТДА Аптэка №106', 'name:be': 'Белфармацыя А ТДА Аптэка №106', 'name:ru': 'Белфармация А РУП Аптека №106', 'opening_hours': 'Mo-Fr 08:00-20:00', 'phone': '+37517 2594898'}}"
"{'type': 'node', 'id': 2607487453, 'lat': 53.9169984, 'lon': 27.4166334, 'tags': {'addr:housenumber': '35', 'addr:street': 'Казіміраўская вуліца', 'amenity': 'pharmacy', 'check_date': '2024-02-15', 'contact:phone': '+375 17 3791319', 'contact:website': 'https://alfaapteka.by', 'healthcare': 'pharmacy', 'int_name': 'Apteka', 'name': 'Альфа Аптека №2', 'name:be': 'Альфа Аптэка №2', 'name:ru': 'Альфа Аптека №2', 'opening_hours': 'Mo-Su 09:00-21:00'}}"
"{'type': 'node', 'id': 2614505266, 'lat': 53.9073919, 'lon': 27.4737198, 'tags': {'amenity': 'clinic', 'contact:email': 'info@helix.by', 'contact:phone': '+375 17 3388888;+375 29 6285428', 'contact:website': 'https://helix.by', 'healthcare': 'clinic', 'name': 'Helix', 'name:be': 'Хелікс', 'name:en': 'Helix', 'name:ru': 'Хеликс', 'name:uk': 'Хелікс', 'official_name': 'Медицинская лаборатория ""Helix & Synevo""', 'opening_hours': 'Mo-Fr 07:00-19:00; Sa 07:30-14:00; Su 08:00-14:00'}}"
"{'type': 'node', 'id': 2618472426, 'lat': 53.8646695, 'lon': 27.469745, 'tags': {'addr:postcode': '220116', 'amenity': 'clinic', 'contact:email': 'info@helix.by', 'contact:phone': '+375 17 3388888;+375 29 6285428', 'contact:website': 'https://helix.by', 'healthcare': 'clinic', 'name': 'Helix', 'name:be': 'Хелікс', 'name:en': 'Helix', 'name:ru': 'Хеликс', 'name:uk': 'Хелікс', 'official_name': 'Медицинская лаборатория ""Helix & Synevo""', 'opening_hours': 'Mo-Fr 07:00-17:00; Sa 07:30-14:00; Su 08:00-14:00'}}"
"{'type': 'node', 'id': 2623718280, 'lat': 53.8536294, 'lon': 27.4444142, 'tags': {'addr:city': 'Мінск', 'addr:city:ru': 'Минск', 'addr:country': 'BY', 'addr:housenumber': '20', 'addr:street': 'вуліца Громава', 'amenity': 'pharmacy', 'brand': 'Заботливая аптека', 'healthcare': 'pharmacy', 'name': 'Заботливая аптека №2', 'name:be': 'Клапатлівая аптэка №2', 'name:ru': 'Заботливая аптека №2', 'opening_hours': 'Mo-Su 08:00-22:00', 'operator': 'ООО ""Фарматея""', 'phone': '+375 17 3928341', 'ref': '2', 'website': 'http://zabotlivaya.by'}}"
"{'type': 'node', 'id': 2626916898, 'lat': 53.8445634, 'lon': 27.5034675, 'tags': {'amenity': 'pharmacy', 'healthcare': 'pharmacy', 'name': 'Соцфарма', 'name:be': 'Сацфарма', 'name:ru': 'Соцфарма', 'opening_hours': '08:00-23:00', 'operator': 'ООО ""Соцфарма""'}}"
"{'type': 'node', 'id': 2626924476, 'lat': 53.8456835, 'lon': 27.5079375, 'tags': {'addr:city': 'Мінск', 'addr:city:ru': 'Минск', 'addr:country': 'BY', 'addr:housenumber': '121', 'addr:street': 'вуліца Казінца', 'amenity': 'pharmacy', 'healthcare': 'pharmacy', 'name': 'Аптека №2 Радикс', 'name:be': 'Аптэка №2 Радзікс', 'name:ru': 'Аптека №2 Радикс', 'opening_hours': 'Mo-Fr 09:00-21:00; Sa 10:00-18:00; PH,Su off', 'operator': 'ООО Радикс', 'phone': '+375 17 278-00-06', 'website': 'https://www.radiks.by/'}}"
"{'type': 'node', 'id': 2628171921, 'lat': 53.9382241, 'lon': 27.4863851, 'tags': {'amenity': 'pharmacy', 'healthcare': 'pharmacy', 'name': 'Gode', 'note': 'требуется уточнение типов магазинов'}}"
"{'type': 'node', 'id': 2628199699, 'lat': 53.9379905, 'lon': 27.4863213, 'tags': {'amenity': 'pharmacy', 'healthcare': 'pharmacy', 'name': 'Аптэка +', 'name:be': 'Аптэка +', 'name:ru': 'Аптека +'}}"
"{'type': 'node', 'id': 2629127644, 'lat': 53.9068475, 'lon': 27.492531, 'tags': {'amenity': 'pharmacy', 'brand': 'Планета Здоровья', 'brand:be': 'Планета Здароўя', 'brand:be-tarask': 'Плянэта Здароўя', 'brand:en': 'Health Planet', 'brand:ru': 'Планета Здоровья', 'brand:wikidata': 'Q107231230', 'description': 'ООО ""Доктор Таир"" Аптека N5', 'healthcare': 'pharmacy', 'name': 'Планета здароўʼя', 'name:be': 'Планета здароўʼя', 'name:be-tarask': 'Плянэта Здароўя', 'name:en': 'Health Planet', 'name:ru': 'Планета здоровья', 'opening_hours': 'Mo-Su 09:00-22:00'}}"
"{'type': 'node', 'id': 2631051551, 'lat': 53.8859297, 'lon': 27.4385525, 'tags': {'addr:city': 'Мінск', 'addr:city:ru': 'Минск', 'addr:country': 'BY', 'addr:housenumber': '16', 'addr:street': 'Сухараўская вуліца', 'amenity': 'pharmacy', 'dispensing': 'yes', 'drive_through': 'no', 'email': 'apteka9@vitvar.by', 'healthcare': 'pharmacy', 'name': 'ВітВар № 9', 'name:be': 'ВітВар № 9', 'name:ru': 'ВитВар № 9', 'opening_hours': 'Mo-Su 09:00-22:00', 'operator': 'ООО «ВитВар»', 'phone': '+375 17 202 90 68', 'website': 'https://www.vitvar.by/'}}"
"{'type': 'node', 'id': 2631062150, 'lat': 53.8649604, 'lon': 27.4674382, 'tags': {'addr:city': 'Мінск', 'addr:city:ru': 'Минск', 'addr:country': 'BY', 'addr:housenumber': '16', 'addr:street': 'праспект Газеты Звязда', 'amenity': 'pharmacy', 'email': 'apteka3@vitvar.by', 'healthcare': 'pharmacy', 'int_name': 'Apteka', 'name': 'ВітВар № 3', 'name:be': 'ВітВар № 3', 'name:ru': 'ВитВар № 3', 'opening_hours': 'Mo-Su 09:00-21:00', 'operator': 'ООО «ВитВар»', 'phone': '+375 17 277 01 21', 'website': 'https://www.vitvar.by/'}}"
"{'type': 'node', 'id': 2672658251, 'lat': 53.9075432, 'lon': 27.4389668, 'tags': {'addr:city': 'Мінск', 'addr:city:ru': 'Минск', 'addr:country': 'BY', 'addr:housenumber': '140', 'addr:street': 'вуліца Прытыцкага', 'amenity': 'clinic', 'contact:facebook': 'https://www.facebook.com/lodemed.by', 'contact:instagram': 'https://www.instagram.com/lode.med/', 'contact:ok': 'https://ok.ru/lode.med', 'contact:phone': '+375 17 2939800;+375 29 2701003;+375 29 6383003;111', 'contact:vk': 'https://vk.com/lode_by', 'contact:website': 'https://www.lode.by/', 'contact:youtube': 'https://www.youtube.com/channel/UCnkOvH6tmP9Qa0I2cOeQT8Q', 'emergency': 'no', 'healthcare': 'hospital', 'name': 'Ладэ', 'name:be': 'Ладэ', 'name:ru': 'Лодэ', 'opening_hours': 'Mo-Fr 07:30-21:00; Sa 08:00-21:00; Su 09:00-16:00', 'operator': 'ООО «ЛОДЭ»', 'shop': 'medical_supply', 'wheelchair': 'no'}}"
"{'type': 'node', 'id': 2672658740, 'lat': 53.9078444, 'lon': 27.4368001, 'tags': {'amenity': 'pharmacy', 'healthcare': 'pharmacy', 'name': 'Любімая аптэка', 'name:be': 'Любімая аптэка', 'name:ru': 'Любимая аптека'}}"
"{'type': 'node', 'id': 2705229409, 'lat': 53.9074757, 'lon': 27.4742147, 'tags': {'addr:street': 'вуліца Еўфрасінні Полацкай', 'amenity': 'doctors', 'brand': 'Инвитро', 'brand:wikidata': 'Q4200546', 'contact:email': 'info@invitro.by', 'contact:phone': '+375 17 2787807', 'contact:website': 'https://invitro.by/', 'health_facility:type': 'laboratory', 'healthcare': 'laboratory', 'healthcare:speciality': 'biology', 'name': 'Invitro', 'name:be': 'Інвітра', 'name:en': 'Invitro', 'name:ru': 'Инвитро', 'opening_hours': 'Mo-Fr 07:00-19:00; Sa 07:00-16:00; Su 08:00-14:00'}}"
"{'type': 'node', 'id': 2712556013, 'lat': 53.9262899, 'lon': 27.4440488, 'tags': {'amenity': 'pharmacy', 'contact:phone': '+375 17 3968581', 'contact:website': 'https://alfaapteka.by', 'healthcare': 'pharmacy', 'name': 'Альфа Аптека №19', 'name:be': 'Альфа Аптэка №19', 'name:ru': 'Альфа Аптека №19', 'name:uk': 'Альфа Аптека №19', 'opening_hours': 'Mo-Su 09:00-21:00'}}"
"{'type': 'node', 'id': 2717807201, 'lat': 54.2981515, 'lon': 26.827651, 'tags': {'addr:housenumber': '3', 'addr:street': 'вуліца Маўчанскага', 'amenity': 'pharmacy', 'contact:email': 'inf@minfarm.by', 'contact:phone': '+375 176 559622', 'contact:website': 'http://minfarm.by/', 'healthcare': 'pharmacy', 'int_name': 'Apteka', 'name': 'Минская Фармация', 'name:be': 'Мінская Фармацыя', 'name:en': 'Minskaya Pharmacia', 'name:ru': 'Минская Фармация', 'opening_hours': 'Mo-Fr 08:00-19:00; Sa-Su 09:00-17:00', 'operator': 'Торгово-производственное республиканское унитарное предприятие ""Минская Фармация""'}}"
"{'type': 'node', 'id': 2717807205, 'lat': 54.3074207, 'lon': 26.8261493, 'tags': {'amenity': 'pharmacy', 'description': 'Аптека Шарлота 7 5ой категории', 'healthcare': 'pharmacy', 'int_name': 'Apteka', 'name': 'Аптэка «Шарлота-7»', 'name:be': 'Аптэка «Шарлота-7»', 'name:ru': 'Аптека «Шарлота-7»', 'name:uk': 'Аптека «Шарлотта-7»', 'opening_hours': 'Mo-Su 08:00-21:00'}}"
"{'type': 'node', 'id': 2717807211, 'lat': 54.306952, 'lon': 26.8312559, 'tags': {'amenity': 'dentist', 'healthcare': 'dentist', 'name': 'Дзіцячая стаматалогія', 'name:be': 'Дзіцячая стаматалогія', 'name:ru': 'Детская стоматология', 'opening_hours': 'Mo-Fr 08:00-20:00; Sa 09:00-15:00'}}"
"{'type': 'node', 'id': 2717807226, 'lat': 54.3112907, 'lon': 26.8254079, 'tags': {'amenity': 'dentist', 'healthcare': 'dentist', 'name': 'Стаматалогія', 'name:be': 'Стаматалогія', 'name:ru': 'Стоматология'}}"
"{'type': 'node', 'id': 2748154253, 'lat': 53.8510049, 'lon': 27.4799643, 'tags': {'addr:city': 'Мінск', 'addr:city:ru': 'Минск', 'addr:country': 'BY', 'addr:housenumber': '12', 'addr:street': 'вуліца Ежы Гедройца', 'amenity': 'pharmacy', 'drive_through': 'no', 'healthcare': 'pharmacy', 'level': '0', 'name': 'Экомаркет №1', 'name:be': 'Экамаркет №1', 'name:ru': 'Экомаркет №1', 'opening_hours': 'Mo-Fr 9:00-21:00, Sa-Su 10:00-18:00', 'operator': 'ООО ""Экомаркет""', 'phone': '+375 17 3721884;+375 44 5072201', 'ref': '1'}}"
"{'type': 'node', 'id': 2793138779, 'lat': 53.8511394, 'lon': 27.4789195, 'tags': {'addr:city': 'Мінск', 'addr:city:ru': 'Минск', 'addr:country': 'BY', 'addr:housenumber': '10', 'addr:street': 'вуліца Ежы Гедройца', 'amenity': 'dentist', 'healthcare': 'dentist', 'name': 'Леанідыя', 'name:be': 'Леанідыя', 'name:ru': 'Леонидия', 'opening_hours': 'Mo-Su 09:00-21:00', 'operator': 'ЧМУП «Леонидия»', 'phone': '+375 29 6483488', 'website': 'https://leonidia.by/'}}"
"{'type': 'node', 'id': 2807067135, 'lat': 53.8495852, 'lon': 27.466241, 'tags': {'addr:city': 'Мінск', 'addr:city:ru': 'Минск', 'addr:country': 'BY', 'addr:housenumber': '6 к1', 'addr:postcode': '220025', 'addr:street': 'вуліца Сяргея Ясеніна', 'amenity': 'dentist', 'contact:website': 'https://akcentstom.by', 'healthcare': 'dentist', 'name': 'Акцэнт', 'name:be': 'Акцэнт', 'name:ru': 'Акцент', 'opening_hours': 'Mo-Fr 08:00-21:00; Sa 08:00-20:00; Su 10:00-17:00', 'operator': 'ОДО «Усяж»'}}"
"{'type': 'node', 'id': 2824867840, 'lat': 53.9205708, 'lon': 27.4482688, 'tags': {'addr:housenumber': '7', 'addr:street': 'вуліца Іосіфа Жыновіча', 'amenity': 'pharmacy', 'check_date': '2024-04-24', 'contact:phone': '+375 17 2505781', 'contact:website': 'https://alfaapteka.by', 'dispensing': 'no', 'healthcare': 'pharmacy', 'level': '2', 'name': 'Альфа Аптека №6', 'name:be': 'Альфа Аптэка', 'name:ru': 'Альфа Аптека', 'name:uk': 'Альфа Аптека №6', 'opening_hours': '09:00-21:00'}}"
"{'type': 'node', 'id': 2889085546, 'lat': 53.9289302, 'lon': 27.4254886, 'tags': {'amenity': 'pharmacy', 'check_date:opening_hours': '2023-07-27', 'contact:phone': '+375 17 3635675', 'contact:website': 'https://alfaapteka.by', 'healthcare': 'pharmacy', 'name': 'Альфа Аптека №23', 'name:be': 'Альфа Аптэка №23', 'name:ru': 'Альфа Аптека №23', 'name:uk': 'Альфа Аптека №23', 'opening_hours': 'Mo-Su 09:00-21:00', 'wheelchair': 'yes'}}"
"{'type': 'node', 'id': 2894526326, 'lat': 53.9470578, 'lon': 27.4240792, 'tags': {'addr:housenumber': '1', 'addr:postcode': '2203028', 'addr:street': 'Лінейная вуліца', 'amenity': 'pharmacy', 'contact:email': 'inf@minfarm.by', 'contact:phone': '+375 17 5095501', 'contact:website': 'http://minfarm.by/', 'healthcare': 'pharmacy', 'int_name': 'Apteka №162', 'name': 'Минская Фармация', 'name:be': 'Мінская Фармацыя', 'name:en': 'Minskaya Pharmacia', 'name:ru': 'Минская Фармация', 'opening_hours': 'Mo-Fr 09:00-19:00', 'operator': 'Торгово-производственное республиканское унитарное предприятие ""Минская Фармация""', 'source': 'http://apteka.103.by/apteki/zhdanovichi/'}}"
"{'type': 'node', 'id': 3018557209, 'lat': 54.936628, 'lon': 26.6904971, 'tags': {'amenity': 'pharmacy', 'healthcare': 'pharmacy'}}"
"{'type': 'node', 'id': 3020587708, 'lat': 53.9171234, 'lon': 27.4611158, 'tags': {'amenity': 'pharmacy', 'dispensing': 'yes', 'healthcare': 'pharmacy', 'int_name': 'Apteka', 'name': 'Аптэка', 'name:be': 'Аптэка', 'name:ru': 'Аптека', 'opening_hours': 'Mo-Fr 09:00-21:00; Sa 10:00-18:00'}}"
"{'type': 'node', 'id': 3024841848, 'lat': 53.907708, 'lon': 27.4767541, 'tags': {'amenity': 'dentist', 'healthcare': 'dentist', 'name': 'Профі-Дэнт', 'name:be': 'Профі-Дэнт', 'name:ru': 'Профи-Дент', 'opening_hours': 'Mo-Sa 08:30-21:00', 'phone': '+375 29 602 62 62', 'website': 'https://profident.by/'}}"
"{'type': 'node', 'id': 3024872555, 'lat': 53.9077453, 'lon': 27.4775095, 'tags': {'addr:city': 'Мінск', 'addr:city:ru': 'Минск', 'addr:country': 'BY', 'addr:housenumber': '39', 'addr:street': 'вуліца Прытыцкага', 'amenity': 'dentist', 'healthcare': 'dentist', 'name': 'Любімы стаматолаг', 'name:be': 'Любімы стаматолаг', 'name:ru': 'Любимый стоматолог', 'opening_hours': 'Mo-Su 09:00-21:00', 'phone': '+375(17)2025900', 'website': 'http://belodent.by/'}}"
"{'type': 'node', 'id': 3024878644, 'lat': 53.9076541, 'lon': 27.4777624, 'tags': {'addr:city': 'Мінск', 'addr:city:ru': 'Минск', 'addr:country': 'BY', 'addr:housenumber': '39', 'addr:street': 'вуліца Прытыцкага', 'amenity': 'clinic', 'healthcare': 'clinic', 'name': 'Медычны цэнтр «Канфідэнс»', 'name:be': 'Медычны цэнтр «Канфідэнс»', 'name:en': 'Medical center ""Confidence»', 'name:ru': 'Медицинский центр «Конфиденс»', 'name:uk': 'Медичний центр «Конфіденс»', 'opening_hours': 'Mo-Fr 08:00-21:00; Sa,Su 09:00-18:00', 'operator': 'ООО «Конфиденс Сервис»', 'phone': '+375 017 363 70 73', 'website': 'https://confidence.by/'}}"
"{'type': 'node', 'id': 3024953481, 'lat': 53.905073, 'lon': 27.4808584, 'tags': {'amenity': 'dentist', 'healthcare': 'dentist', 'name': 'Весоль', 'name:be': 'Весоль', 'name:ru': 'Весоль', 'opening_hours': 'Mo-Sa 08:00-21:00'}}"
"{'type': 'node', 'id': 3029004147, 'lat': 53.9059856, 'lon': 27.4819207, 'tags': {'amenity': 'pharmacy', 'healthcare': 'pharmacy', 'name': 'Аптэка №13', 'name:be': 'Аптэка №13', 'name:ru': 'Аптека №13', 'opening_hours': '24/7', 'operator': 'Заботливая аптека Ивем и К', 'phone': '375 17 3900534'}}"
"{'type': 'node', 'id': 3040941327, 'lat': 53.8595408, 'lon': 27.4957384, 'tags': {'amenity': 'pharmacy', 'healthcare': 'pharmacy', 'name': 'Белфармация №81', 'name:be': 'Белфармацыя №81', 'name:ru': 'Белфармация №81', 'opening_hours': 'Mo-Fr 08:00-14:00,14:30-19:30; Fr[4] off; Sa 09:00-15:00', 'operator': 'РУП ""Белфармация""', 'phone': '+375 17 2772971', 'ref': '81', 'website': 'https://pharma.by'}}"
"{'type': 'node', 'id': 3074076656, 'lat': 53.9087408, 'lon': 27.4737436, 'tags': {'amenity': 'pharmacy', 'dispensing': 'no', 'healthcare': 'pharmacy', 'name': 'Аптэка № 14', 'name:be': 'Аптэка № 14', 'name:en': 'Pharmacy № 14', 'name:ru': 'Аптека № 14 Планета Здоровья', 'opening_hours': 'Mo-Su 09:00-21:00', 'operator': 'АБФармация', 'phone': '+375 (17) 216-90-06'}}"
"{'type': 'node', 'id': 3080098247, 'lat': 53.9394592, 'lon': 27.4410163, 'tags': {'addr:city': 'Мінск', 'addr:city:ru': 'Минск', 'addr:country': 'BY', 'addr:housenumber': '129 к1', 'addr:street': 'вуліца Ціміразева', 'amenity': 'pharmacy', 'healthcare': 'pharmacy', 'name': 'АктыўМед ТАА Аптэка №6', 'name:be': 'АктыўМед ТАА Аптэка №6', 'name:ru': 'АктивМед ООО Аптека №6', 'opening_hours': 'Tu-Su 10:00-17:00', 'phone': '+37525 6910570'}}"
"{'type': 'node', 'id': 3080541353, 'lat': 53.9129131, 'lon': 27.5137691, 'tags': {'addr:city': 'Мінск', 'addr:city:ru': 'Минск', 'addr:country': 'BY', 'addr:housenumber': '10А', 'addr:street': 'вуліца Бірузова', 'amenity': 'pharmacy', 'healthcare': 'pharmacy', 'name': 'Бьютифарм', 'name:be': 'Бʼюціфарм', 'name:ru': 'Бьютифарм', 'opening_hours': 'Mo-Fr 10:00-20:00, Sa 10:00-18:00', 'phone': '+37517 2046912'}}"
"{'type': 'node', 'id': 3082335108, 'lat': 53.8614724, 'lon': 27.4444308, 'tags': {'addr:city': 'Мінск', 'addr:city:ru': 'Минск', 'addr:country': 'BY', 'addr:housenumber': '76', 'addr:street': 'вуліца Сяргея Ясеніна', 'amenity': 'pharmacy', 'brand': 'Аптекарь', 'healthcare': 'pharmacy', 'name': 'Аптэкар №2', 'name:be': 'Аптэкар №2', 'name:ru': 'Аптекарь №2', 'opening_hours': 'Mo-Su 09:00-21:00', 'operator': 'ОДО ""Аптека №53""', 'phone': '+375 17 3765772;+375 44 5018333', 'ref': '2', 'website': 'https://аптекарь.бел'}}"
"{'type': 'node', 'id': 3082401183, 'lat': 53.8493519, 'lon': 27.4814511, 'tags': {'addr:city': 'Мінск', 'addr:city:ru': 'Минск', 'addr:country': 'BY', 'addr:housenumber': '11', 'addr:street': 'вуліца Яна Чачота', 'amenity': 'pharmacy', 'healthcare': 'pharmacy', 'name': 'Аптэчная Справа №4', 'name:be': 'Аптэчная Справа №4', 'name:ru': 'Аптечное Дело №4', 'opening_hours': 'Mo-Sa 09:00-21:00, Su 11:00-20:00', 'operator': 'ООО\xa0«Аптечное Дело»', 'phone': '+375 17 3723186', 'ref': '4'}}"
"{'type': 'node', 'id': 3085908775, 'lat': 53.8978539, 'lon': 27.4538954, 'tags': {'addr:city': 'Мінск', 'addr:city:ru': 'Минск', 'addr:country': 'BY', 'addr:housenumber': '33', 'addr:street': 'вуліца Якубоўскага', 'amenity': 'pharmacy', 'healthcare': 'pharmacy', 'int_name': 'Bielfarmacyja A TDA Apteka №101', 'name': 'Белфармация №101', 'name:be': 'Белфармацыя №101', 'name:ru': 'Белфармация №101', 'opening_hours': 'Mo-Fr 08:00-20:00', 'phone': '+37517 2027079'}}"
"{'type': 'node', 'id': 3086080249, 'lat': 53.932579, 'lon': 27.4803382, 'tags': {'addr:city': 'Мінск', 'addr:city:ru': 'Минск', 'addr:country': 'BY', 'addr:housenumber': '17', 'addr:street': 'Нарачанская вуліца', 'amenity': 'pharmacy', 'healthcare': 'pharmacy', 'int_name': 'Bielfarmacyja A TDA Apteka №104', 'name': 'Белфармация А РУП Аптека №104', 'name:be': 'Белфармацыя А ТДА Аптэка №104', 'name:ru': 'Белфармация А РУП Аптека №104', 'opening_hours': 'Mo-Fr 09:00-17:00', 'phone': '+37517 2908159'}}"
"{'type': 'node', 'id': 3086094885, 'lat': 53.857085, 'lon': 27.444482, 'tags': {'addr:city': 'Мінск', 'addr:city:ru': 'Минск', 'addr:country': 'BY', 'addr:housenumber': '66', 'addr:street': 'вуліца Сяргея Ясеніна', 'amenity': 'pharmacy', 'healthcare': 'pharmacy', 'name': 'Белфармация А №109', 'name:be': 'Белфармацыя А №109', 'name:ru': 'Белфармация А №109', 'opening_hours': 'Mo-Fr 08:00-20:00', 'operator': 'РУП ""Белфармация""', 'phone': '+375 17 2770949', 'ref': '109', 'website': 'https://pharma.by'}}"
"{'type': 'node', 'id': 3086102748, 'lat': 53.861817, 'lon': 27.4846974, 'tags': {'addr:city': 'Мінск', 'addr:city:ru': 'Минск', 'addr:country': 'BY', 'addr:housenumber': '83', 'addr:street': 'праспект Дзяржынскага', 'amenity': 'pharmacy', 'healthcare': 'pharmacy', 'name': 'Белфармация №109', 'name:be': 'Белфармацыя №109', 'name:ru': 'Белфармация №109', 'opening_hours': 'Mo-Fr 09:00-17:00', 'operator': 'РУП ""Белфармация""', 'phone': '+375 17 2770966', 'ref': '109', 'website': 'https://pharma.by'}}"
"{'type': 'node', 'id': 3086109779, 'lat': 53.8498146, 'lon': 27.457744, 'tags': {'addr:city': 'Мінск', 'addr:city:ru': 'Минск', 'addr:country': 'BY', 'addr:housenumber': '21', 'addr:street': 'вуліца Сяргея Ясеніна', 'amenity': 'pharmacy', 'healthcare': 'pharmacy', 'name': 'Белфармация №109', 'name:be': 'Белфармацыя №109', 'name:ru': 'Белфармация №109', 'opening_hours': 'Mo-Fr 08:00-20:00', 'operator': 'РУП ""Белфармация""', 'phone': '+375 17 3761984', 'ref': '109', 'website': 'https://pharma.by'}}"
"{'type': 'node', 'id': 3092873451, 'lat': 53.8630328, 'lon': 27.4437466, 'tags': {'addr:city': 'Мінск', 'addr:city:ru': 'Минск', 'addr:country': 'BY', 'addr:housenumber': '60', 'addr:street': 'вуліца Рафіева', 'amenity': 'pharmacy', 'healthcare': 'pharmacy', 'name': 'Белфармация А №20', 'name:be': 'Белфармацыя А №20', 'name:ru': 'Белфармация А №20', 'opening_hours': 'Mo-Fr 08:00-20:00', 'operator': 'РУП ""Белфармация""', 'phone': '+375 17 3859712', 'ref': '20', 'website': 'https://pharma.by'}}"
"{'type': 'node', 'id': 3095560824, 'lat': 53.9003001, 'lon': 27.4980928, 'tags': {'addr:city': 'Мінск', 'addr:city:ru': 'Минск', 'addr:country': 'BY', 'addr:housenumber': '16', 'addr:street': 'праспект Пушкіна', 'amenity': 'pharmacy', 'healthcare': 'pharmacy', 'name': 'Белфармацыя РУП Аптэка №40', 'name:be': 'Белфармацыя РУП Аптэка №40', 'name:en': 'Belfarmatsiya RUP Pharmacy №40', 'name:ru': 'Белфармация РУП Аптека №40', 'opening_hours': 'Mo-Fr 08:00-20:00', 'phone': '+37517 2523162'}}"
"{'type': 'node', 'id': 3095566191, 'lat': 53.8967261, 'lon': 27.4790318, 'tags': {'addr:city': 'Мінск', 'addr:city:ru': 'Минск', 'addr:country': 'BY', 'addr:housenumber': '60', 'addr:street': 'вуліца Бельскага', 'amenity': 'pharmacy', 'healthcare': 'pharmacy', 'name': 'Белфармация А РУП Аптека №40', 'name:be': 'Белфармацыя РУП Аптэка №40', 'name:ru': 'Белфармация А РУП Аптека №40', 'opening_hours': 'Mo-Fr 08:00-20:00', 'phone': '+37517 3800642'}}"
"{'type': 'node', 'id': 3098540643, 'lat': 53.8494079, 'lon': 27.4573273, 'tags': {'addr:housenumber': '29', 'addr:street': 'вуліца Касманаўтаў', 'amenity': 'pharmacy', 'brand': 'Планета Здоровья', 'brand:be': 'Планета Здароўя', 'brand:be-tarask': 'Плянэта Здароўя', 'brand:en': 'Health Planet', 'brand:ru': 'Планета Здоровья', 'brand:wikidata': 'Q107231230', 'drive_through': 'no', 'healthcare': 'pharmacy', 'name': 'Планета Здоровья №\u202f6', 'name:be': 'Планета Здароўя №\u202f6', 'name:be-tarask': 'Плянэта Здароўя', 'name:en': 'Health Planet', 'name:ru': 'Планета Здоровья №\u202f6', 'opening_hours': 'Mo-Fr 09:00-22:00; Sa-Su 09:00-21:00', 'operator': 'ООО\xa0«Доктор Таир»', 'phone': '+375 17 3760065', 'ref': '6', 'website': 'https://healthplanet.by'}}"
"{'type': 'node', 'id': 3106566026, 'lat': 53.9051369, 'lon': 27.4418167, 'tags': {'addr:city': 'Мінск', 'addr:city:ru': 'Минск', 'addr:country': 'BY', 'addr:housenumber': '91', 'addr:street': 'вуліца Прытыцкага', 'amenity': 'clinic', 'healthcare': 'clinic', 'healthcare:speciality': 'laser_therapy', 'name': 'Медлаз', 'name:be': 'Медлаз', 'opening_hours': 'Mo-Fr 09:00-20:00; Sa 10:00-15:00', 'website': 'https://medlaz.com/'}}"
"{'type': 'node', 'id': 3148746153, 'lat': 53.8657548, 'lon': 27.4763188, 'tags': {'addr:city': 'Мінск', 'addr:city:ru': 'Минск', 'addr:country': 'BY', 'addr:housenumber': '14Б', 'addr:postcode': '220116', 'addr:street': 'вуліца Голубева', 'amenity': 'pharmacy', 'brand': 'Заботливая аптека', 'healthcare': 'pharmacy', 'name': 'Клапатлiвая аптэка №8', 'name:be': 'Клапатлiвая аптэка №8', 'name:ru': 'Заботливая аптека №8', 'opening_hours': 'Mo-Su 08:00-22:00', 'operator': 'ООО ""Ивем и К""', 'phone': '+375 17 2772769', 'ref': '8', 'website': 'http://zabotlivaya.by'}}"
"{'type': 'node', 'id': 3170248419, 'lat': 53.9133573, 'lon': 27.5268202, 'tags': {'amenity': 'clinic', 'contact:email': 'astartamed@gmail.com', 'healthcare': 'clinic', 'healthcare:speciality': 'plastic_surgery', 'name': 'ASTARTA', 'name:be': 'Клініка пластычнай хірургіі «Астарта Плюс»', 'phone': '+375 (17) 209-48-20;+375 (44) 749-60-60', 'website': 'http://astartamed.by/'}}"
"{'type': 'node', 'id': 3170250773, 'lat': 53.9135138, 'lon': 27.5274348, 'tags': {'amenity': 'dentist', 'contact:email': 'skydent@tut.by', 'healthcare': 'dentist', 'name': 'SkyDent', 'name:be': 'SkyDent', 'name:ru': 'Скайдент', 'opening_hours': 'Mo-Fr 9:00 - 21:00; Sa 9:00 - 18:00; Su off', 'phone': '+375 (44) 790-22-22;+375 (33) 390-22-22', 'website': 'https://skydent.by/'}}"
"{'type': 'node', 'id': 3195500561, 'lat': 53.8527337, 'lon': 27.4431462, 'tags': {'addr:city': 'Мінск', 'addr:city:ru': 'Минск', 'addr:country': 'BY', 'addr:housenumber': '28', 'addr:street': 'вуліца Громава', 'amenity': 'dentist', 'healthcare': 'dentist', 'healthcare:speciality': 'stomatology', 'name': 'ЛТ Дэнт', 'name:be': 'ЛТ Дэнт', 'name:ru': 'ЛТ Дент', 'opening_hours': 'Mo-Fr 08:00-20:00', 'operator': 'ООО ""ЛТ Дент""'}}"
"{'type': 'node', 'id': 3206003001, 'lat': 53.9110174, 'lon': 27.5010035, 'tags': {'addr:city': 'Мінск', 'addr:housenumber': '10', 'addr:street': 'вуліца Прытыцкага', 'amenity': 'dentist', 'healthcare': 'dentist', 'name': 'МедСэрвісІнвест', 'name:be': 'МедСэрвісІнвест', 'name:ru': 'МедСервисИнвест', 'opening_hours': 'Mo-Fr 09:00-21:00; Sa 09:00-18:00'}}"
"{'type': 'node', 'id': 3206003021, 'lat': 53.9226511, 'lon': 27.4900193, 'tags': {'amenity': 'pharmacy', 'healthcare': 'pharmacy', 'name': 'Зялёная аптэка', 'name:be': 'Зялёная аптэка', 'name:ru': 'Зелёная аптека'}}"
"{'type': 'node', 'id': 3206003051, 'lat': 53.911306, 'lon': 27.4379651, 'tags': {'amenity': 'pharmacy', 'check_date:opening_hours': '2024-09-16', 'drive_through': 'no', 'healthcare': 'pharmacy', 'name': 'Аптека Белфармация №68', 'name:be': 'Аптэка Белфармацыя №68', 'name:ru': 'Аптека Белфармация №68', 'opening_hours': 'Mo-Fr 08:00-19:30'}}"
"{'type': 'node', 'id': 3206003058, 'lat': 53.9116171, 'lon': 27.4343867, 'tags': {'amenity': 'pharmacy', 'check_date:opening_hours': '2023-11-02', 'drive_through': 'no', 'healthcare': 'pharmacy', 'name': 'Искамед №31', 'name:be': 'Іскамед №31', 'name:ru': 'Искамед №31', 'opening_hours': 'Mo-Fr 08:00-21:00; Sa 10:00-20:00; Su 10:00-19:00', 'wheelchair': 'yes'}}"
"{'type': 'node', 'id': 3208870013, 'lat': 54.4804051, 'lon': 26.8966394, 'tags': {'amenity': 'pharmacy', 'healthcare': 'pharmacy', 'int_name': 'Apteka', 'name': 'Аптека', 'name:be': 'Аптэка', 'name:ru': 'Аптека'}}"
"{'type': 'node', 'id': 3208870830, 'lat': 54.4816921, 'lon': 26.891288, 'tags': {'amenity': 'pharmacy', 'healthcare': 'pharmacy', 'int_name': 'Apteka', 'name': 'Аптека', 'name:be': 'Аптэка', 'name:ru': 'Аптека'}}"
"{'type': 'node', 'id': 3240836601, 'lat': 53.8498096, 'lon': 27.4760386, 'tags': {'addr:city': 'Мінск', 'addr:city:ru': 'Минск', 'addr:country': 'BY', 'addr:housenumber': '119', 'addr:street': 'праспект Дзяржынскага', 'amenity': 'pharmacy', 'contact:phone': '+375 17 2401800', 'contact:website': 'https://alfaapteka.by', 'drive_through': 'no', 'healthcare': 'pharmacy', 'level': '0', 'name': 'Альфа Аптека №1', 'name:be': 'Альфа Аптэка №1', 'name:ru': 'Альфа Аптека №1', 'name:uk': 'Альфа Аптека №1', 'opening_hours': 'Mo-Su 09:00-21:00; Tu[1] off', 'operator': 'ООО\xa0«ФИТОБЕЛ»', 'ref': '1', 'source': 'local knowledge', 'wheelchair': 'yes'}}"
"{'type': 'node', 'id': 3240836634, 'lat': 53.8514903, 'lon': 27.4745265, 'tags': {'addr:city': 'Мінск', 'addr:city:ru': 'Минск', 'addr:country': 'BY', 'addr:housenumber': '122', 'addr:street': 'праспект Дзяржынскага', 'amenity': 'pharmacy', 'drive_through': 'no', 'healthcare': 'pharmacy', 'level': '0', 'name': 'Белфармация А №11', 'name:be': 'Белфармацыя А №11', 'name:ru': 'Белфармация А №11', 'opening_hours': 'Mo-Fr 08:00-22:00; Sa-Su 10:00-20:00; We[3] 08:00-10:00', 'operator': 'РУП «Белфармация»', 'payment:cash': 'yes', 'payment:credit_cards': 'yes', 'payment:debit_cards': 'yes', 'payment:maestro': 'yes', 'payment:mastercard': 'yes', 'payment:visa': 'yes', 'payment:visa_debit': 'yes', 'phone': '+375 17 2365801', 'ref': '11', 'start_date': '2014', 'website': 'https://pharma.by', 'wheelchair': 'yes'}}"
"{'type': 'node', 'id': 3283677311, 'lat': 53.738928, 'lon': 27.501749, 'tags': {'amenity': 'clinic', 'healthcare': 'clinic', 'name': 'Паліклініка', 'name:be': 'Паліклініка', 'name:ru': 'Поликлиника'}}"
"{'type': 'node', 'id': 3284310198, 'lat': 53.8597846, 'lon': 27.4366507, 'tags': {'addr:city': 'Мінск', 'addr:city:ru': 'Минск', 'addr:country': 'BY', 'addr:housenumber': '88А', 'addr:postcode': '220051', 'addr:street': 'вуліца Рафіева', 'amenity': 'dentist', 'healthcare': 'dentist', 'name': 'Стоміка', 'name:be': 'Стоміка', 'name:ru': 'Стомика', 'note': 'детская терапия, ортодонтия, имплантология', 'opening_hours': 'Mo-Fr 09:00-21:00; Sa,Su 10:00-16:00', 'phone': '+375 (17) 376-16-16', 'website': 'https://stomika.by/', 'wheelchair': 'yes'}}"
"{'type': 'node', 'id': 3400540131, 'lat': 53.8507778, 'lon': 27.4764689, 'tags': {'addr:city': 'Мінск', 'addr:city:ru': 'Минск', 'addr:country': 'BY', 'addr:housenumber': '119', 'addr:street': 'праспект Дзяржынскага', 'amenity': 'clinic', 'contact:email': 'info@helix.by', 'contact:phone': '+375 17 3388888;+375 29 6285428', 'contact:website': 'https://helix.by', 'healthcare': 'clinic', 'level': '0', 'name': 'Helix', 'name:be': 'Хелікс', 'name:en': 'Helix', 'name:ru': 'Хеликс', 'name:uk': 'Хелікс', 'official_name': 'Медицинская лаборатория ""Helix & Synevo""', 'opening_hours': 'Mo-Fr 07:00-19:00; Sa 07:30-16:00; Su 08:00-14:00', 'operator': 'ИООО «Синэво»'}}"
"{'type': 'node', 'id': 3400617494, 'lat': 53.8519662, 'lon': 27.4790934, 'tags': {'addr:city': 'Мінск', 'addr:city:ru': 'Минск', 'addr:country': 'BY', 'addr:housenumber': '2', 'addr:postcode': '220045', 'addr:street': 'вуліца Ежы Гедройца', 'amenity': 'dentist', 'healthcare': 'dentist', 'name': 'Дэнтал Фэнтэзі', 'name:be': 'Дэнтал Фэнтэзі', 'name:ru': 'Дэнтал Фэнтези', 'opening_hours': 'Mo-Fr 09:00-20:00', 'phone': '+3758 17 362-82-71', 'source': 'http://dental-fantasy.relax.by;local knowledge'}}"
"{'type': 'node', 'id': 3472660946, 'lat': 53.9278823, 'lon': 27.4332949, 'tags': {'amenity': 'pharmacy', 'drive_through': 'no', 'healthcare': 'pharmacy', 'name': 'Доктар Час', 'name:be': 'Доктар Час', 'name:ru': 'Доктор Время', 'opening_hours': 'Mo-Su 09:00-22:00', 'wheelchair': 'yes'}}"
"{'type': 'node', 'id': 3486870676, 'lat': 54.909277, 'lon': 26.7061336, 'tags': {'amenity': 'pharmacy', 'healthcare': 'pharmacy', 'name': 'Аптека', 'name:be': 'Аптэка', 'name:ru': 'Аптека'}}"
"{'type': 'node', 'id': 3524112885, 'lat': 53.8502585, 'lon': 27.4740376, 'tags': {'addr:city': 'Мінск', 'addr:city:ru': 'Минск', 'addr:country': 'BY', 'addr:housenumber': '122', 'addr:street': 'праспект Дзяржынскага', 'amenity': 'pharmacy', 'drive_through': 'no', 'healthcare': 'pharmacy', 'level': '0', 'name': 'Іскамед №\xa048', 'name:be': 'Іскамед №\xa048', 'name:ru': 'Искамед №\xa048', 'opening_hours': 'Mo-Fr 09:00-22:00; Sa-Su 10:00-20:00', 'operator': 'ООО\xa0«Искамед»', 'payment:cash': 'yes', 'payment:maestro': 'yes', 'payment:visa': 'yes', 'phone': '+375 17 2270280', 'ref': '48', 'source': 'survey;streetlevel imagery', 'start_date': '2014', 'website': 'https://iskamed.by', 'wheelchair': 'yes'}}"
"{'type': 'node', 'id': 3579292619, 'lat': 53.9241576, 'lon': 27.4291217, 'tags': {'amenity': 'pharmacy', 'contact:phone': '+375 17 3001919', 'contact:website': 'http://medway.by', 'healthcare': 'pharmacy', 'name': 'Медвай №5', 'name:be': 'Медвай №5', 'name:ru': 'Медвай №5', 'opening_hours': 'Mo-Sa 09:00-22:00; Su 10:00-18:00', 'operator': 'УП ""Медвай""'}}"
"{'type': 'node', 'id': 3581370297, 'lat': 53.9155154, 'lon': 27.4265754, 'tags': {'addr:postcode': '220063', 'amenity': 'pharmacy', 'drive_through': 'no', 'healthcare': 'pharmacy', 'name': 'Мая Аптэка №49', 'name:be': 'Мая Аптэка №49', 'name:en': 'Pharmacy', 'name:ru': 'Моя Аптека №49', 'opening_hours': 'Mo-Fr 09:00-21:00; Sa-Su 09:00-19:00', 'phone': '+375172385244', 'website': 'https://komfarm.by/', 'wheelchair': 'limited'}}"
"{'type': 'node', 'id': 3651393470, 'lat': 53.9309451, 'lon': 27.5092607, 'tags': {'amenity': 'dentist', 'healthcare': 'dentist', 'name': 'Стаматалагічны цэнтр', 'name:be': 'Стаматалагічны цэнтр', 'name:ru': 'Стоматологический центр'}}"
"{'type': 'node', 'id': 3664638429, 'lat': 53.8968795, 'lon': 27.527747, 'tags': {'amenity': 'dentist', 'healthcare': 'dentist', 'name': 'Стаматалогія', 'name:be': 'Стаматалогія', 'name:ru': 'Стоматология', 'opening_hours': 'Mo-Fr 09:00-22:00'}}"
"{'type': 'node', 'id': 3665463470, 'lat': 53.9244049, 'lon': 27.5019392, 'tags': {'addr:housenumber': '87А', 'addr:street': 'праспект Пушкіна', 'amenity': 'pharmacy', 'check_date': '2024-09-09', 'contact:email': 'info@d-leki.by', 'contact:instagram': 'https://www.instagram.com/apteka_adel', 'contact:phone': '+375 25 5355757;+375 29 5355757;+375 44 5355757', 'contact:vk': 'https://vk.com/apteka_adel', 'contact:website': 'https://d-leki.by/', 'healthcare': 'pharmacy', 'name': 'Добрыя лекі', 'name:be': 'Добрыя лекі', 'name:ru': 'Добрыя леки', 'opening_hours': 'Mo-Fr 10:00-20:00', 'operator': '""Фарммаркет-плюс""'}}"
"{'type': 'node', 'id': 3713226517, 'lat': 54.3130337, 'lon': 26.2714646, 'tags': {'amenity': 'pharmacy', 'healthcare': 'pharmacy'}}"
"{'type': 'node', 'id': 3723645364, 'lat': 53.8498202, 'lon': 27.4864721, 'tags': {'amenity': 'pharmacy', 'healthcare': 'pharmacy'}}"
"{'type': 'node', 'id': 3773407348, 'lat': 54.0352058, 'lon': 26.683479, 'tags': {'amenity': 'pharmacy', 'healthcare': 'pharmacy', 'name': 'Аптека', 'name:be': 'Аптэка', 'name:ru': 'Аптека'}}"
"{'type': 'node', 'id': 3806332020, 'lat': 53.8512464, 'lon': 27.4547184, 'tags': {'amenity': 'doctors', 'brand': 'Инвитро', 'brand:wikidata': 'Q4200546', 'contact:email': 'info@invitro.by', 'contact:phone': '+375 17 2787807', 'contact:website': 'https://invitro.by/', 'healthcare': 'laboratory', 'healthcare:speciality': 'laboratory', 'name': 'Invitro', 'name:be': 'Інвітра', 'name:en': 'Invitro', 'name:ru': 'Инвитро', 'opening_hours': 'Mo-Fr 07:00-19:00; Sa 07:00-16:00; Su 08:00-14:00'}}"
"{'type': 'node', 'id': 3806333626, 'lat': 53.8517618, 'lon': 27.4532166, 'tags': {'amenity': 'pharmacy', 'brand': 'Доктор До', 'contact:phone': '+375 17 3171892', 'contact:website': 'https://www.instagram.com/alfaapteka_by/', 'healthcare': 'pharmacy', 'name': 'Альфа аптека', 'name:be': 'Альфа аптэка', 'name:ru': 'Альфа аптека', 'opening_hours': 'Mo-Sa 09:00-21:00; Su 10:00-18:00', 'operator': 'ООО ""Табина""', 'ref': '19'}}"
"{'type': 'node', 'id': 3806336687, 'lat': 53.8511918, 'lon': 27.4524616, 'tags': {'amenity': 'pharmacy', 'healthcare': 'pharmacy', 'name': 'Любимая аптека', 'name:be': 'Любімая аптэка', 'name:ru': 'Любимая аптека', 'opening_hours': 'Mo-Su 10:00-22:00', 'wheelchair': 'yes'}}"
"{'type': 'node', 'id': 3809197354, 'lat': 54.4840375, 'lon': 26.8967529, 'tags': {'addr:housenumber': '60', 'addr:street': 'вуліца Чапаева', 'amenity': 'pharmacy', 'healthcare': 'pharmacy', 'name': 'Планта здароўя', 'name:be': 'Планта здароўя', 'name:ru': 'Планта здоровья', 'opening_hours': 'Mo-Su 09:00-21:00'}}"
"{'type': 'node', 'id': 3817794833, 'lat': 53.8889881, 'lon': 27.4288525, 'tags': {'addr:city': 'Мінск', 'addr:city:ru': 'Минск', 'addr:country': 'BY', 'addr:housenumber': '79', 'addr:postcode': '220059', 'addr:street': 'вуліца Лабанка', 'amenity': 'dentist', 'healthcare': 'dentist', 'name': 'Мадэнціс - цэнтр эстэтычнай стаматалогіі', 'name:be': 'Мадэнціс - цэнтр эстэтычнай стаматалогіі', 'name:ru': 'Модентис - центр эстетической стоматологии', 'opening_hours': '08:00-20:00', 'phone': '+375 17 313-14-49', 'website': 'https://modentis.by/'}}"
"{'type': 'node', 'id': 3851690772, 'lat': 53.8856107, 'lon': 27.5145098, 'tags': {'addr:city': 'Мінск', 'addr:city:ru': 'Минск', 'addr:country': 'BY', 'addr:housenumber': '11', 'addr:street': 'вуліца Шчорса', 'amenity': 'pharmacy', 'entrance': 'yes', 'healthcare': 'pharmacy', 'name': 'Аптека № 44', 'name:be': 'Аптэка № 44', 'name:ru': 'Аптека № 44', 'opening_hours': 'Mo-Fr 09:00-20:00; Sa,Su 10:00-18:00', 'operator': 'Искамед', 'phone': '8 017 2204340'}}"
"{'type': 'node', 'id': 3894583955, 'lat': 53.9009914, 'lon': 27.427197, 'tags': {'amenity': 'pharmacy', 'healthcare': 'pharmacy', 'name': 'Аптека Искамед', 'name:be': 'Аптэка Іскамед', 'name:ru': 'Аптека Искамед', 'opening_hours': 'Mo-Fr 09:00-21:00; Sa 09:00-19:00; Su 10:00-18:00', 'operator': 'iskamed.by'}}"
"{'type': 'node', 'id': 3898927478, 'lat': 54.7134261, 'lon': 26.63891, 'tags': {'amenity': 'hospital', 'name': 'ФАП', 'name:be': 'ФАП', 'name:ru': 'ФАП'}}"
"{'type': 'node', 'id': 3946153325, 'lat': 53.8583122, 'lon': 27.4765053, 'tags': {'addr:housenumber': '106', 'addr:street': 'праспект Дзяржынскага', 'amenity': 'pharmacy', 'brand': 'Зеленая аптека', 'check_date': '2023-08-30', 'healthcare': 'pharmacy', 'name': 'Зялёная аптэка', 'name:be': 'Зялёная аптэка', 'name:ru': 'Зелёная аптека', 'opening_hours': 'Mo-Su 09:00-22:00', 'operator': 'ООО ""Здоровое решение""', 'phone': '7822;+375 17 2348295;+375 17 2150222', 'website': 'https://www.fito.by'}}"
"{'type': 'node', 'id': 3946254640, 'lat': 53.86124, 'lon': 27.4656669, 'tags': {'amenity': 'dentist', 'healthcare': 'dentist', 'name': 'Стаматалогія', 'name:be': 'Стаматалогія', 'name:ru': 'Стоматология'}}"
"{'type': 'node', 'id': 3946304449, 'lat': 53.8593488, 'lon': 27.4626011, 'tags': {'amenity': 'pharmacy', 'healthcare': 'pharmacy', 'name': 'Аптэка', 'name:be': 'Аптэка', 'name:ru': 'Аптека', 'opening_hours': 'Mo-Su 08:00-22:00', 'operator': 'ООО ""Самбест""'}}"
"{'type': 'node', 'id': 3946316226, 'lat': 53.8622607, 'lon': 27.4596169, 'tags': {'amenity': 'pharmacy', 'healthcare': 'pharmacy', 'operator': 'ООО ""Самбест""'}}"
"{'type': 'node', 'id': 3946326256, 'lat': 53.8665194, 'lon': 27.4650337, 'tags': {'amenity': 'pharmacy', 'healthcare': 'pharmacy', 'name': 'Зялёная аптэка', 'name:be': 'Зялёная аптэка', 'name:ru': 'Зелёная аптека'}}"
"{'type': 'node', 'id': 3946349156, 'lat': 53.8637932, 'lon': 27.4828407, 'tags': {'amenity': 'pharmacy', 'brand': 'ЛекоЦентр', 'healthcare': 'pharmacy', 'name': 'ЛекаЦэнтр №10', 'name:be': 'ЛекаЦэнтр №10', 'name:ru': 'ЛекоЦентр №10', 'opening_hours': 'Mo-Fr 09:00-20:00; Sa,Su 10:00-18:00', 'operator': 'РУП ""ЦЕНТРКУРОРТ""', 'phone': '+375 17 2772803;+375 44 5022810', 'ref': '10', 'website': 'https://www.otpusk.by/o-kompanii/filial-lekotsentr/'}}"
"{'type': 'node', 'id': 3946355266, 'lat': 53.8639807, 'lon': 27.4802141, 'tags': {'addr:city': 'Мінск', 'addr:city:ru': 'Минск', 'addr:country': 'BY', 'addr:housenumber': '26 к3', 'addr:street': 'праспект Газеты Праўда', 'amenity': 'clinic', 'healthcare': 'clinic', 'healthcare:speciality': 'gynaecology', 'name': 'Установа аховы здароўя ""Мінскі гарадскі клінічны наркалагічны цэнтр""', 'name:be': 'Установа аховы здароўя ""Мінскі гарадскі клінічны наркалагічны цэнтр""', 'name:ru': 'Учреждение здравоохранения ""Минский городской клинический наркологический центр""'}}"
"{'type': 'node', 'id': 3947394476, 'lat': 53.9378277, 'lon': 27.3329058, 'tags': {'amenity': 'pharmacy', 'healthcare': 'pharmacy'}}"
"{'type': 'node', 'id': 3949253563, 'lat': 53.8612029, 'lon': 27.4795886, 'tags': {'amenity': 'pharmacy', 'brand': 'Любимая аптека', 'healthcare': 'pharmacy', 'name': 'Любімая аптэка №4', 'name:be': 'Любімая аптэка №4', 'name:ru': 'Любимая аптека №4', 'opening_hours': 'Mo-Su 10:00-20:00', 'operator': 'ООО ""ФИТОБЕЛ""', 'phone': '+375 17 2074995;+375 44 7611648', 'ref': '4', 'website': 'https://l-a.by/'}}"
"{'type': 'node', 'id': 3951764382, 'lat': 53.8869896, 'lon': 27.423043, 'tags': {'amenity': 'pharmacy', 'brand': 'Зелёный Лист', 'healthcare': 'pharmacy', 'name': 'Зялёны Ліст №10', 'name:be': 'Зялёны Ліст №10', 'name:ru': 'Зелёный Лист №10', 'opening_hours': 'Mo-Su 09:00-22:00', 'operator': 'ООО ""Сеть аптек""', 'phone': '+375 17 3159565', 'ref': '10'}}"
"{'type': 'node', 'id': 4010969129, 'lat': 53.8738597, 'lon': 27.4991946, 'tags': {'amenity': 'doctors', 'contact:email': 'lab.info@synlab-eml.by', 'contact:facebook': 'https://www.facebook.com/synlab.by/?ref=bookmarks', 'contact:instagram': 'https://www.instagram.com/synlab_belarus', 'contact:ok': 'https://ok.ru/feed', 'contact:phone': '+375172204923;+375293900028;+375295186373', 'contact:vk': 'http://vk.com/synlab_belarus', 'contact:website': 'https://synlab.by/', 'healthcare': 'laboratory', 'level': '2', 'name': 'Synlab', 'name:be': 'Synlab', 'name:en': 'Synlab', 'name:ru': 'Синлаб', 'opening_hours': 'Mo-Fr 07:30-20:00; Sa 07:30-15:00', 'operator': 'Синлаб-ЕМЛ'}}"
"{'type': 'node', 'id': 4035541791, 'lat': 54.4888748, 'lon': 26.9141354, 'tags': {'amenity': 'dentist', 'healthcare': 'dentist', 'name': 'Стаматалогія', 'name:be': 'Стаматалогія', 'name:ru': 'Стоматология'}}"
"{'type': 'node', 'id': 4046016952, 'lat': 54.8688834, 'lon': 26.9343209, 'tags': {'amenity': 'pharmacy', 'brand': 'Минская Фармация', 'brand:be': 'Мінская Фармацыя', 'brand:en': 'Minskaya Pharmacia', 'brand:ru': 'Минская Фармация', 'brand:wikidata': 'Q108553370', 'contact:email': 'inf@minfarm.by', 'contact:phone': '+375 1797 22830', 'contact:website': 'http://minfarm.by/', 'healthcare': 'pharmacy', 'name': 'Минская Фармация', 'name:be': 'Мінская Фармацыя', 'name:en': 'Minskaya Pharmacia', 'name:ru': 'Минская Фармация', 'opening_hours': 'Mo-Su 10:30-15:30,16:00-22:00', 'operator': 'Торгово-производственное республиканское унитарное предприятие ""Минская Фармация""'}}"
"{'type': 'node', 'id': 4102281293, 'lat': 54.2486695, 'lon': 27.0773199, 'tags': {'amenity': 'dentist', 'healthcare': 'dentist', 'name': 'Стаматолаг', 'name:be': 'Стаматолаг', 'name:ru': 'Стоматология'}}"
"{'type': 'node', 'id': 4102306892, 'lat': 54.2485317, 'lon': 27.0771786, 'tags': {'amenity': 'clinic', 'name': 'Амбулаторыя', 'name:be': 'Амбулаторыя', 'name:ru': 'Амбулатория', 'name:uk': 'Амбулаторія'}}"
"{'type': 'node', 'id': 4106912890, 'lat': 53.8432637, 'lon': 27.4810854, 'tags': {'addr:housenumber': '23', 'addr:street': 'вуліца Напалеона Орды', 'amenity': 'pharmacy', 'brand': 'Любимая аптека', 'check_date': '2023-08-30', 'contact:phone': '+375 17 3612760', 'drive_through': 'no', 'healthcare': 'pharmacy', 'name': 'Любимая аптека №10', 'name:be': 'Любімая аптэка №10', 'name:ru': 'Любимая аптека №10', 'opening_hours': 'Mo-Sa 10:00-21:00; Su 10:00-20:00', 'operator': 'ООО ""ФИТОБЕЛ""', 'ref': '10'}}"
"{'type': 'node', 'id': 4117027821, 'lat': 53.6817882, 'lon': 27.1351104, 'tags': {'amenity': 'pharmacy', 'healthcare': 'pharmacy', 'name': 'Аптека', 'name:be': 'Аптэка', 'name:ru': 'Аптека'}}"
"{'type': 'node', 'id': 4130938998, 'lat': 53.9108887, 'lon': 27.4160623, 'tags': {'addr:city': 'Мінск', 'addr:city:ru': 'Минск', 'addr:country': 'BY', 'addr:housenumber': '3', 'addr:street': 'Каменнагорская вуліца', 'amenity': 'pharmacy', 'ele': '2', 'healthcare': 'pharmacy', 'name': 'Аптэка №106', 'name:be': 'Аптэка №106', 'name:ru': 'Аптека №106', 'opening_hours': 'Mo-Fr 10:00-21:00; Sa,Su 10:00-20:00', 'operator': 'Белфармация'}}"
"{'type': 'node', 'id': 4163500790, 'lat': 53.8490036, 'lon': 27.4839692, 'tags': {'addr:city': 'Мінск', 'addr:city:ru': 'Минск', 'addr:country': 'BY', 'addr:housenumber': '2', 'addr:street': 'Каралінская вуліца', 'amenity': 'pharmacy', 'healthcare': 'pharmacy', 'name': 'Белфармация А №58', 'name:be': 'Белфармацыя А №58', 'name:ru': 'Белфармация А №58', 'opening_hours': '24/7', 'operator': 'РУП ""Белфармация""', 'phone': '375 17 3664584', 'ref': '58', 'website': 'https://pharma.by'}}"
"{'type': 'node', 'id': 4163512989, 'lat': 53.8492161, 'lon': 27.4843197, 'tags': {'addr:city': 'Мінск', 'addr:city:ru': 'Минск', 'addr:country': 'BY', 'addr:housenumber': '2', 'addr:street': 'Каралінская вуліца', 'amenity': 'pharmacy', 'brand': 'Ремедика', 'healthcare': 'pharmacy', 'name': 'Ремедика Интерофицина Плюс №19', 'name:be': 'Рэмедыка Інтэрафіцына Плюс №19', 'name:ru': 'Ремедика Интерофицина Плюс №19', 'opening_hours': 'Mo-Fr 08:00-21:00; Sa-Su 10:00-19:00', 'operator': 'ООО ""Интерофицина плюс""', 'phone': '+375 17 3005011;+375 17 3005015', 'ref': '19', 'website': 'http://www.interplus.by'}}"
"{'type': 'node', 'id': 4197717192, 'lat': 53.9265467, 'lon': 27.440697, 'tags': {'amenity': 'pharmacy', 'healthcare': 'pharmacy', 'name': 'Apteka', 'name:be': 'Аптэка', 'name:ru': 'Аптека'}}"
"{'type': 'node', 'id': 4198728990, 'lat': 54.3100848, 'lon': 26.8417846, 'tags': {'addr:housenumber': '12Д', 'addr:street': 'вуліца Валынца', 'amenity': 'dentist', 'healthcare': 'dentist', 'name': 'Тэрастам', 'name:be': 'Тэрастам', 'name:ru': 'Террастом', 'opening_hours': 'Mo-Fr 09:00-18:00; Sa 09:00-15:00'}}"
"{'type': 'node', 'id': 4200199596, 'lat': 53.8886332, 'lon': 27.5124987, 'tags': {'addr:city': 'Мінск', 'addr:city:ru': 'Минск', 'addr:country': 'BY', 'addr:housenumber': '143', 'addr:postcode': '220036', 'addr:street': 'вуліца Розы Люксембург', 'amenity': 'dentist', 'craft': 'shoemaker', 'email': 'info@elegiadent.by', 'healthcare': 'dentist', 'name': '«Элегія»', 'name:be': '«Элегія»', 'name:ru': '«Элегия»', 'name:uk': '«Елегія»', 'opening_hours': 'Mo-Fr 09:00-21:00', 'phone': '+375 (44) 565-06-80', 'website': 'https://elegiadent.by/'}}"
"{'type': 'node', 'id': 4202681513, 'lat': 53.8853708, 'lon': 27.5135386, 'tags': {'amenity': 'pharmacy', 'healthcare': 'pharmacy'}}"
"{'type': 'node', 'id': 4204548407, 'lat': 54.4751453, 'lon': 26.4154461, 'tags': {'amenity': 'pharmacy', 'healthcare': 'pharmacy', 'name': 'Искамед', 'name:be': 'Іскамед', 'name:ru': 'Искамед'}}"
"{'type': 'node', 'id': 4204972471, 'lat': 54.4809383, 'lon': 26.398361, 'tags': {'amenity': 'dentist', 'healthcare': 'dentist'}}"
"{'type': 'node', 'id': 4209993290, 'lat': 54.4919748, 'lon': 26.9166738, 'tags': {'amenity': 'pharmacy', 'healthcare': 'pharmacy'}}"
"{'type': 'node', 'id': 4213639990, 'lat': 54.3106376, 'lon': 26.8393866, 'tags': {'amenity': 'dentist', 'healthcare': 'dentist', 'name': 'Стаматалагічны цэнтр', 'name:be': 'Стаматалагічны цэнтр', 'name:ru': 'Стоматологический центр'}}"
"{'type': 'node', 'id': 4213642689, 'lat': 54.3080314, 'lon': 26.8339861, 'tags': {'amenity': 'pharmacy', 'healthcare': 'pharmacy', 'name': 'Аптека', 'name:be': 'Аптэка', 'name:ru': 'Аптека'}}"
"{'type': 'node', 'id': 4256035089, 'lat': 53.8557095, 'lon': 27.5109567, 'tags': {'amenity': 'pharmacy', 'brand': 'Планета здоровья', 'brand:be': 'Планета Здароўя', 'brand:be-tarask': 'Плянэта Здароўя', 'brand:en': 'Health Planet', 'brand:ru': 'Планета здоровья', 'brand:wikidata': 'Q107231230', 'healthcare': 'pharmacy', 'name': 'Планета здоровья №17', 'name:be': 'Планета здароўя №17', 'name:be-tarask': 'Плянэта Здароўя', 'name:en': 'Health Planet', 'name:ru': 'Планета здоровья №17', 'opening_hours': 'Mo-Sa 09:00-21:00; Su 09:00-20:00'}}"
"{'type': 'node', 'id': 4258357993, 'lat': 53.8428417, 'lon': 27.5287384, 'tags': {'amenity': 'pharmacy', 'contact:email': 'apteka11@ligmaton.com', 'contact:phone': '+375 17 2341446;+375 17 2341448', 'contact:website': 'https://ligmaton.by/', 'healthcare': 'pharmacy', 'name': 'Аптека №11 Лигматон', 'name:be': 'Аптэка №11 Лігматон', 'name:ru': 'Аптека №11 Лигматон', 'opening_hours': 'Mo-Su 09:00-23:00', 'operator': 'ООО «Лигматон»', 'ref': '11'}}"
"{'type': 'node', 'id': 4258394790, 'lat': 53.8446443, 'lon': 27.5258533, 'tags': {'addr:city': 'Мінск', 'addr:city:ru': 'Минск', 'addr:country': 'BY', 'addr:housenumber': '2А', 'addr:street': 'завулак Каржанеўскага', 'amenity': 'dentist', 'healthcare': 'dentist', 'name': 'Усмешка-люкс', 'name:be': 'Усмешка-люкс', 'name:ru': 'Улыбка-люкс', 'opening_hours': 'Mo-Fr 09:00-15:00', 'phone': '80172797171'}}"
"{'type': 'node', 'id': 4271656291, 'lat': 54.9032727, 'lon': 26.6754277, 'tags': {'amenity': 'pharmacy', 'healthcare': 'pharmacy'}}"
"{'type': 'node', 'id': 4271699689, 'lat': 54.9032753, 'lon': 26.677152, 'tags': {'amenity': 'doctors', 'healthcare': 'doctor', 'name': 'корпус Лячэбны', 'name:be': 'корпус Лячэбны', 'name:ru': 'корпус Лечебный'}}"
"{'type': 'node', 'id': 4275769851, 'lat': 53.9171781, 'lon': 27.4725811, 'tags': {'addr:housenumber': '64А', 'addr:street': 'вуліца Пятра Глебкі', 'amenity': 'pharmacy', 'check_date': '2024-07-11', 'healthcare': 'pharmacy', 'level': '0', 'name': 'Навамедыка Аптэка №2', 'name:be': 'Навамедыка Аптэка №2', 'name:ru': 'Новамедика Аптека №2', 'opening_hours': 'Mo-Sa 09:00-20:00 Su 10:00-18:00', 'operator': 'УП Новамедика'}}"
"{'type': 'node', 'id': 4276275909, 'lat': 53.9296197, 'lon': 27.5105073, 'tags': {'addr:housenumber': '73 к1', 'addr:street': 'праспект Пераможцаў', 'amenity': 'clinic', 'check_date': '2024-09-09', 'contact:email': 'info@helix.by', 'contact:phone': '+375 17 3388888;+375 29 6285428', 'contact:website': 'https://helix.by', 'healthcare': 'clinic', 'name': 'Helix', 'name:be': 'Хелікс', 'name:en': 'Helix', 'name:ru': 'Хеликс', 'name:uk': 'Хелікс', 'official_name': 'Медицинская лаборатория ""Helix & Synevo""', 'opening_hours': 'Mo-Fr 07:00-19:00; Sa 07:30-16:00; Su 08:00-14:00'}}"
"{'type': 'node', 'id': 4279772432, 'lat': 53.905322, 'lon': 27.44839, 'tags': {'addr:city': 'Мінск', 'addr:city:ru': 'Минск', 'addr:country': 'BY', 'addr:housenumber': '87', 'addr:postcode': '220140', 'addr:street': 'вуліца Прытыцкага', 'amenity': 'dentist', 'healthcare': 'dentist', 'healthcare:speciality': 'dentist', 'name': 'ФТ-дэнт', 'name:be': 'ФТ-дэнт', 'name:ru': 'ФТ-дент', 'phone': '+375173140520'}}"
"{'type': 'node', 'id': 4282010599, 'lat': 53.6840599, 'lon': 27.1448518, 'tags': {'addr:housenumber': '32', 'addr:street': 'Мінская вуліца', 'amenity': 'pharmacy', 'healthcare': 'pharmacy', 'name': 'Аптека', 'name:be': 'Аптэка', 'name:ru': 'Аптека'}}"
"{'type': 'node', 'id': 4296734504, 'lat': 54.910016, 'lon': 26.7080748, 'tags': {'addr:street': 'Ленінская вуліца', 'amenity': 'pharmacy', 'healthcare': 'pharmacy', 'name': 'Аптека 308', 'name:be': 'Аптэка 308', 'name:ru': 'Аптека 308', 'opening_hours': 'Tu-Sa 10:00-14:00,15:00-18:00'}}"
"{'type': 'node', 'id': 4296795989, 'lat': 53.9095019, 'lon': 27.495667, 'tags': {'amenity': 'pharmacy', 'healthcare': 'pharmacy', 'name': 'Добрыя лекі №11', 'name:be': 'Добрыя лекі №11', 'name:ru': 'Добрыя леки №11', 'opening_hours': 'Mo-Fr 07:00-22:00; Sa-Su 08:00-22:00'}}"
"{'type': 'node', 'id': 4296931989, 'lat': 53.9328686, 'lon': 27.5031904, 'tags': {'amenity': 'pharmacy', 'healthcare': 'pharmacy', 'name': 'Заботливая аптека', 'name:be': 'Клапатлiвая аптэка', 'name:ru': 'Заботливая аптека'}}"
"{'type': 'node', 'id': 4327880891, 'lat': 54.0106604, 'lon': 27.2701739, 'tags': {'amenity': 'pharmacy', 'healthcare': 'pharmacy', 'opening_hours': 'Mo-Fr 09:00-21:00; Sa-Su 10:00-18:00'}}"
"{'type': 'node', 'id': 4333583163, 'lat': 54.2991002, 'lon': 26.8643231, 'tags': {'addr:housenumber': '143', 'addr:street': 'вуліца Вялікі Гасцінец', 'amenity': 'pharmacy', 'healthcare': 'pharmacy'}}"
"{'type': 'node', 'id': 4372487191, 'lat': 54.3157364, 'lon': 26.8376556, 'tags': {'amenity': 'pharmacy', 'healthcare': 'pharmacy'}}"
"{'type': 'node', 'id': 4374203607, 'lat': 53.8925383, 'lon': 27.5089371, 'tags': {'amenity': 'pharmacy', 'contact:phone': '+375-17-2086791; +375-17-2089565', 'contact:website': 'pharma.by', 'drive_through': 'no', 'healthcare': 'pharmacy', 'name': 'Аптека №39', 'name:be': 'Аптэка №39', 'name:ru': 'Аптека №39', 'opening_hours': 'Mo-Fr 08:00-21:00; Sa 10:00-18:00; Su 09:00-17:00; Th[2] off', 'operator': 'РУП ""Белфармация""', 'ref': '39'}}"
"{'type': 'node', 'id': 4374769890, 'lat': 53.880889, 'lon': 27.4537177, 'tags': {'addr:city': 'Мінск', 'addr:city:ru': 'Минск', 'addr:country': 'BY', 'addr:housenumber': '44', 'addr:street': 'вуліца Янкоўскага', 'amenity': 'pharmacy', 'healthcare': 'pharmacy', 'name': 'Аптека №2', 'name:be': 'Аптэка №2', 'name:ru': 'Аптека №2', 'opening_hours': 'Mo-Su 09:00-21:00', 'operator': 'Титан УЧПКП', 'phone': '(017) 3622006'}}"
"{'type': 'node', 'id': 4378824416, 'lat': 53.8987919, 'lon': 27.4977235, 'tags': {'addr:city': 'Мінск', 'addr:city:ru': 'Минск', 'addr:country': 'BY', 'addr:housenumber': '12А', 'addr:postcode': '220015', 'addr:street': 'праспект Пушкіна', 'amenity': 'pharmacy', 'description': '«Аптека № 3 Плесид» осуществляет свою деятельность в сфере «Аптеки» и находится по адресу проспект Пушкина в Минске, почтовый индекс 220015.Контактный телефон для связи не указан. Режим работы Пн-Вс 10:00–20:00.', 'healthcare': 'pharmacy', 'name': 'Аптека № 3 Плесид', 'name:be': 'Аптэка № 3 Плесід', 'name:ru': 'Аптека № 3 Плесид', 'opening_hours': 'Mo-Su 10:00-20:00', 'phone': '+375 (17) 205-08-39'}}"
"{'type': 'node', 'id': 4381975098, 'lat': 53.9388386, 'lon': 27.3489085, 'tags': {'addr:street': 'Прывакзальная вуліца', 'amenity': 'clinic', 'healthcare': 'clinic', 'name': 'Амбулаторыя', 'name:be': 'Амбулаторыя', 'name:ru': 'Амбулатория'}}"
"{'type': 'node', 'id': 4399903802, 'lat': 53.9313321, 'lon': 27.4915449, 'tags': {'addr:city': 'Мінск', 'addr:city:ru': 'Минск', 'addr:country': 'BY', 'addr:housenumber': '22', 'addr:street': 'вуліца Лесі Украінкі', 'amenity': 'dentist', 'healthcare': 'dentist', 'healthcare:speciality': 'dentist', 'name': 'Люксмедыка', 'name:be': 'Люксмедыка', 'name:en': 'Luxmedica', 'name:ru': 'Люксмедика'}}"
"{'type': 'node', 'id': 4406695994, 'lat': 53.8455322, 'lon': 27.4742681, 'tags': {'addr:housenumber': '131', 'addr:street': 'праспект Дзяржынскага', 'amenity': 'pharmacy', 'brand': 'Планета Здоровья', 'brand:be': 'Планета Здароўя', 'brand:be-tarask': 'Плянэта Здароўя', 'brand:en': 'Health Planet', 'brand:ru': 'Планета Здоровья', 'brand:wikidata': 'Q107231230', 'drive_through': 'no', 'healthcare': 'pharmacy', 'name': 'Планета здароўя №52 (Доктар Час)', 'name:be': '№\u202f52', 'name:be-tarask': 'Плянэта Здароўя', 'name:en': 'Health Planet', 'name:ru': 'Планета здоровья №\u202f52 (Доктор Время)', 'opening_hours': 'Mo-Fr 09:00-20:00; Sa,Su 10:00-18:00; We[-1] 09:00-12:00', 'operator': 'ООО\xa0«Доктор время»', 'phone': '+375 17 3722652;+375 44 5018952', 'ref': '52', 'website': 'http://dtime.by', 'wheelchair': 'yes'}}"
"{'type': 'node', 'id': 4417381594, 'lat': 54.3008945, 'lon': 26.8577864, 'tags': {'amenity': 'pharmacy', 'healthcare': 'pharmacy'}}"
"{'type': 'node', 'id': 4424808800, 'lat': 53.845732, 'lon': 27.4555087, 'tags': {'addr:city': 'Мінск', 'addr:city:ru': 'Минск', 'addr:country': 'BY', 'addr:housenumber': '131', 'addr:street': 'Слабадская вуліца', 'amenity': 'pharmacy', 'healthcare': 'pharmacy', 'name': 'Белфармация А №113', 'name:be': 'Белфармацыя А №113', 'name:ru': 'Белфармация А №113', 'opening_hours': 'Mo-Su 10:00-22:00', 'operator': 'РУП «Белфармация»', 'phone': '+375 17 2051131', 'ref': '113', 'website': 'https://pharma.by'}}"
"{'type': 'node', 'id': 4427362591, 'lat': 53.938351, 'lon': 27.4659962, 'tags': {'addr:housenumber': '27', 'addr:street': 'Мястраўская вуліца', 'amenity': 'pharmacy', 'healthcare': 'pharmacy', 'name': 'Белфармация Аптека №104 (филиал 2)', 'name:be': 'Белфармацыя Аптэка №104 (філіял 2)', 'name:ru': 'Белфармация Аптека №104 (филиал 2)', 'opening_hours': 'Mo-Su 09:00-22:00'}}"
"{'type': 'node', 'id': 4439787590, 'lat': 53.9333857, 'lon': 27.5015552, 'tags': {'amenity': 'pharmacy', 'healthcare': 'pharmacy'}}"
"{'type': 'node', 'id': 4439805390, 'lat': 53.9122996, 'lon': 27.5056029, 'tags': {'amenity': 'dentist', 'check_date:opening_hours': '2022-09-15', 'healthcare': 'dentist', 'internet_access': 'wlan', 'name': 'ДэнтХэлс', 'name:be': 'ДэнтХэлс', 'name:en': 'Dent Health', 'name:ru': 'ДэнтХэлс', 'opening_hours': 'Mo-Sa 08:00-21:00', 'phone': '80172908870', 'website': 'https://denthealth.by/'}}"
"{'type': 'node', 'id': 4456389491, 'lat': 53.8978246, 'lon': 27.4328451, 'tags': {'amenity': 'dentist', 'healthcare': 'dentist', 'name': 'Вітадэнт', 'name:be': 'Вітадэнт', 'name:ru': 'Витадент'}}"
"{'type': 'node', 'id': 4460374893, 'lat': 53.9043566, 'lon': 27.4577785, 'tags': {'amenity': 'doctors', 'healthcare': 'doctor', 'name': 'Віамед', 'name:be': 'Віамед', 'name:ru': 'Виамед', 'opening_hours': 'Mo-Sa 08:00-22:00; Su 08:00-16:00', 'phone': '+375 17 2563360', 'website': 'http://www.viamed.by'}}"
"{'type': 'node', 'id': 4461417197, 'lat': 53.939617, 'lon': 27.4688636, 'tags': {'amenity': 'doctors', 'healthcare': 'doctor', 'name': 'Дзіцячая клініка Добры доктар', 'name:be': 'Дзіцячая клініка Добры доктар', 'name:ru': 'Детская клиника Добрый доктор', 'name:uk': 'Дитяча клініка Добрий лікар', 'phone': '3188877', 'website': 'https://dodoctor.by/'}}"
"{'type': 'node', 'id': 4463223389, 'lat': 53.8975521, 'lon': 27.5202045, 'tags': {'amenity': 'pharmacy', 'healthcare': 'pharmacy', 'opening_hours': 'Mo-Fr 09:00-19:00; Sa 09:00-16:00'}}"
"{'type': 'node', 'id': 4464953359, 'lat': 54.4753342, 'lon': 26.4250387, 'tags': {'amenity': 'dentist', 'healthcare': 'dentist', 'inscription': 'Стоматология', 'name': 'Рыялетастыль', 'name:be': 'Рыялетастыль', 'name:ru': 'Риолетастиль'}}"
"{'type': 'node', 'id': 4472634989, 'lat': 54.2673454, 'lon': 27.1104719, 'tags': {'amenity': 'pharmacy', 'contact:email': 'inf@minfarm.by', 'contact:phone': '+375 17 6707327', 'contact:website': 'http://minfarm.by/', 'healthcare': 'pharmacy', 'name': 'Минская Фармация', 'name:be': 'Мінская Фармацыя', 'name:en': 'Minskaya Pharmacia', 'name:ru': 'Минская Фармация', 'opening_hours': 'Mo-Fr 08:00-13:00,13:30-18:00; Sa 09:00-13:00', 'operator': 'Торгово-производственное республиканское унитарное предприятие ""Минская Фармация""'}}"
"{'type': 'node', 'id': 4474293076, 'lat': 53.8713159, 'lon': 27.4905154, 'tags': {'healthcare': 'doctor', 'healthcare:speciality': 'plastic_surgery'}}"
"{'type': 'node', 'id': 4480896789, 'lat': 53.853515, 'lon': 27.4355759, 'tags': {'amenity': 'pharmacy', 'contact:phone': '+375 17 3631679', 'contact:website': 'https://alfaapteka.by', 'healthcare': 'pharmacy', 'name': 'Фитобел №26', 'name:be': 'Фітабел №26', 'name:ru': 'Фитобел №26', 'name:uk': 'Фітобел №26', 'opening_hours': 'Mo-Su 09:00-21:00', 'operator': 'ООО ""ФИТОБЕЛ""', 'ref': '26'}}"
"{'type': 'node', 'id': 4485215294, 'lat': 53.8854414, 'lon': 27.5153853, 'tags': {'addr:city': 'Мінск', 'addr:city:ru': 'Минск', 'addr:country': 'BY', 'addr:housenumber': '11', 'addr:street': 'вуліца Шчорса', 'amenity': 'pharmacy', 'contact:email': 'pharmacia@pharma.by', 'contact:phone': '+375 17 2760255', 'contact:website': 'http://pharma.by/', 'description': 'Санитарный день 3-я среда месяца', 'dispensing': 'yes', 'healthcare': 'pharmacy', 'name': 'Белфармацыя, аптэка №54 пятай катэгорыі', 'name:be': 'Белфармацыя, аптэка №54 пятай катэгорыі', 'name:ru': 'Белфармация, аптека №54 пятой категории', 'opening_hours': 'Mo-Fr 09:00-21:00; Sa 09:00-17:00'}}"
