OSM_Data
"{'type': 'node', 'id': 1236713370, 'lat': -38.0029378, 'lon': -57.5508595, 'tags': {'amenity': 'pharmacy', 'healthcare': 'pharmacy', 'name': 'Mitre'}}"
"{'type': 'node', 'id': 1236940205, 'lat': -38.015433, 'lon': -57.5417344, 'tags': {'amenity': 'pharmacy', 'healthcare': 'pharmacy', 'name': 'Riadigos', 'opening_hours': 'Dec-Mar: Mo-Sa 09:00-23:00; Dec-Mar: Su 10:00-13:00,18:00-22:00', 'wheelchair': 'no'}}"
"{'type': 'node', 'id': 1236940217, 'lat': -38.0017352, 'lon': -57.5486867, 'tags': {'addr:housenumber': '1998', 'addr:postcode': '7600', 'addr:street': 'Córdoba', 'amenity': 'pharmacy', 'healthcare': 'pharmacy', 'name': 'Berdasco'}}"
"{'type': 'node', 'id': 1236940223, 'lat': -37.9984824, 'lon': -57.5512715, 'tags': {'addr:housenumber': '2960', 'addr:street': 'Rivadavia', 'amenity': 'pharmacy', 'healthcare': 'pharmacy', 'name': 'Farmacia Riadigos'}}"
"{'type': 'node', 'id': 1236954451, 'lat': -38.0025243, 'lon': -57.5516277, 'tags': {'addr:housenumber': '2749', 'addr:postcode': '7600', 'addr:street': 'Avenida Colón', 'amenity': 'hospital', 'healthcare': 'hospital', 'name': '\xa0Clínica\xa0del\xa0Niño\xa0y la Madre'}}"
"{'type': 'node', 'id': 2274408613, 'lat': -38.0339876, 'lon': -57.5860101, 'tags': {'amenity': 'pharmacy', 'healthcare': 'pharmacy'}}"
"{'type': 'node', 'id': 2283571258, 'lat': -38.0041333, 'lon': -57.5707714, 'tags': {'amenity': 'pharmacy', 'healthcare': 'pharmacy', 'name': 'SUMA'}}"
"{'type': 'node', 'id': 2288445405, 'lat': -38.0227299, 'lon': -57.5658731, 'tags': {'amenity': 'pharmacy', 'dispensing': 'yes', 'healthcare': 'pharmacy', 'name': 'Riadigos'}}"
"{'type': 'node', 'id': 2288445412, 'lat': -38.0222836, 'lon': -57.5665435, 'tags': {'addr:housenumber': '2685', 'addr:postcode': '7600', 'addr:street': 'Avenida Juan B. Justo', 'amenity': 'pharmacy', 'dispensing': 'yes', 'healthcare': 'pharmacy', 'name': 'AMOF'}}"
"{'type': 'node', 'id': 2340098707, 'lat': -38.0222089, 'lon': -57.5652821, 'tags': {'addr:housename': 'Farmacia', 'addr:housenumber': '4546', 'addr:postcode': '7600', 'addr:street': 'Córdoba', 'amenity': 'pharmacy', 'healthcare': 'pharmacy', 'name': 'Nueva Córdoba'}}"
"{'type': 'node', 'id': 2340111915, 'lat': -38.0212312, 'lon': -57.5641644, 'tags': {'addr:city': 'Mar del Plata', 'addr:housename': 'Kinesiologia RPG', 'addr:housenumber': '2584', 'addr:postcode': '7600', 'addr:street': 'Larrea', 'amenity': 'doctors', 'healthcare': 'doctor', 'int_name': 'N.M.Sanchez', 'name': 'Kinesiología RPG N. M. Sanchez'}}"
"{'type': 'node', 'id': 2340974405, 'lat': -38.0218694, 'lon': -57.5652779, 'tags': {'amenity': 'hospital', 'healthcare': 'hospital', 'name': 'Entrada Urgencias HPC'}}"
"{'type': 'node', 'id': 2340975484, 'lat': -38.0217637, 'lon': -57.5659887, 'tags': {'amenity': 'hospital', 'healthcare': 'hospital', 'name': 'HPC Area San Luis'}}"
"{'type': 'node', 'id': 2735584724, 'lat': -37.8919606, 'lon': -57.600868, 'tags': {'amenity': 'pharmacy', 'healthcare': 'pharmacy'}}"
"{'type': 'node', 'id': 2973890405, 'lat': -38.0377136, 'lon': -57.64171, 'tags': {'amenity': 'hospital', 'emergency': 'no', 'healthcare': 'hospital', 'name': 'Unidad Sanitaria Parque Hermoso'}}"
"{'type': 'node', 'id': 3044612559, 'lat': -37.9617204, 'lon': -57.5606288, 'tags': {'amenity': 'pharmacy', 'healthcare': 'pharmacy', 'name': 'PLAZA'}}"
"{'type': 'node', 'id': 3044667946, 'lat': -37.9930305, 'lon': -57.5552558, 'tags': {'addr:city': 'Mar del Plata', 'addr:housenumber': '3542', 'addr:street': '25 de Mayo', 'amenity': 'clinic', 'email': 'cl25demayo@clinica25demayo.com.ar', 'healthcare': 'clinic', 'name': 'Clínica 25 de Mayo', 'phone': '+ 54 223 499-4000', 'website': 'https://www.clinica25demayo.com.ar/', 'wheelchair': 'yes'}}"
"{'type': 'node', 'id': 3044861550, 'lat': -37.9601587, 'lon': -57.5636638, 'tags': {'amenity': 'pharmacy', 'healthcare': 'pharmacy', 'name': 'Constitución'}}"
"{'type': 'node', 'id': 3117719935, 'lat': -37.9686332, 'lon': -57.5470506, 'tags': {'amenity': 'pharmacy', 'healthcare': 'pharmacy', 'name': 'Pereira'}}"
"{'type': 'node', 'id': 3149539477, 'lat': -37.9665818, 'lon': -57.5510901, 'tags': {'amenity': 'clinic', 'healthcare': 'clinic', 'name': 'COPETEL'}}"
"{'type': 'node', 'id': 3149539726, 'lat': -37.9664973, 'lon': -57.5512055, 'tags': {'amenity': 'pharmacy', 'healthcare': 'pharmacy', 'name': 'Riadigos'}}"
"{'type': 'node', 'id': 3149623254, 'lat': -37.9645189, 'lon': -57.556165, 'tags': {'amenity': 'pharmacy', 'healthcare': 'pharmacy'}}"
"{'type': 'node', 'id': 3172499971, 'lat': -37.9600868, 'lon': -57.563818, 'tags': {'amenity': 'clinic', 'healthcare': 'clinic', 'name': 'Policlinica Constitución'}}"
"{'type': 'node', 'id': 3200617166, 'lat': -37.9568846, 'lon': -57.5701567, 'tags': {'amenity': 'pharmacy', 'healthcare': 'pharmacy', 'name': 'Constitución'}}"
"{'type': 'node', 'id': 3200668092, 'lat': -37.9553179, 'lon': -57.5733016, 'tags': {'amenity': 'pharmacy', 'healthcare': 'pharmacy', 'name': 'Constitución'}}"
"{'type': 'node', 'id': 3602835827, 'lat': -37.9941531, 'lon': -57.5599189, 'tags': {'addr:housenumber': '1811', 'addr:postcode': '7600', 'addr:street': 'Manuel Dorrego', 'amenity': 'clinic', 'healthcare': 'clinic', 'name': 'Traumatólogos Asociados'}}"
"{'type': 'node', 'id': 3823685795, 'lat': -38.0479615, 'lon': -57.5712222, 'tags': {'addr:housenumber': '2200', 'addr:street': 'Alejandro Korn', 'amenity': 'hospital', 'healthcare': 'hospital', 'name': 'Sala de Primeros Auxilios ""José Coelho de Meyrelles', 'operator': 'Municipalidad de Gral. Pueyrredon'}}"
"{'type': 'node', 'id': 3882458489, 'lat': -38.0665533, 'lon': -57.545071, 'tags': {'healthcare': 'yes', 'name': 'UPA Punta Mogotes'}}"
"{'type': 'node', 'id': 3933197210, 'lat': -38.0370381, 'lon': -57.5476028, 'tags': {'amenity': 'pharmacy', 'healthcare': 'pharmacy', 'name': 'Constitución Canessa'}}"
"{'type': 'node', 'id': 3949251180, 'lat': -38.2701725, 'lon': -57.8381062, 'tags': {'addr:city': 'Miramar', 'addr:country': 'AR', 'addr:province': 'Buenos Aires', 'addr:street': 'Calle 21', 'amenity': 'pharmacy', 'healthcare': 'pharmacy', 'name': 'Miramar'}}"
"{'type': 'node', 'id': 3949251183, 'lat': -38.2704824, 'lon': -57.8302934, 'tags': {'amenity': 'pharmacy', 'healthcare': 'pharmacy'}}"
"{'type': 'node', 'id': 3949251188, 'lat': -38.2728833, 'lon': -57.8349666, 'tags': {'addr:city': 'Miramar', 'addr:country': 'AR', 'addr:province': 'Buenos Aires', 'addr:street': 'Calle 21', 'amenity': 'pharmacy', 'healthcare': 'pharmacy', 'name': 'Barengo'}}"
"{'type': 'node', 'id': 3954080940, 'lat': -38.0317269, 'lon': -57.5546348, 'tags': {'amenity': 'pharmacy', 'healthcare': 'pharmacy'}}"
"{'type': 'node', 'id': 3957484641, 'lat': -38.0293712, 'lon': -57.5571335, 'tags': {'amenity': 'pharmacy', 'healthcare': 'pharmacy', 'name': 'Martignone'}}"
"{'type': 'node', 'id': 4103895597, 'lat': -38.0342052, 'lon': -57.592212, 'tags': {'amenity': 'hospital', 'healthcare': 'hospital', 'name': 'Subcentro de Salud ""El Martillo""', 'operator': 'Municipalidad de Gral. Pueyrredon'}}"
"{'type': 'node', 'id': 4218422556, 'lat': -38.0388956, 'lon': -57.5622422, 'tags': {'addr:city': 'Mar del Plata', 'addr:housenumber': '4546', 'addr:street': 'Guanahani', 'amenity': 'hospital', 'emergency': 'no', 'healthcare': 'hospital', 'name': 'Centro de Salud N° 2'}}"
"{'type': 'node', 'id': 4232462177, 'lat': -38.0223451, 'lon': -57.5819737, 'tags': {'amenity': 'pharmacy', 'healthcare': 'pharmacy', 'name': 'Romero'}}"
"{'type': 'node', 'id': 4339381795, 'lat': -38.0195816, 'lon': -57.5447219, 'tags': {'amenity': 'pharmacy', 'healthcare': 'pharmacy'}}"
"{'type': 'node', 'id': 4340135074, 'lat': -38.0116662, 'lon': -57.5428342, 'tags': {'amenity': 'pharmacy', 'healthcare': 'pharmacy', 'name': 'Bauza', 'opening_hours': 'Mo-Su 08:00-24:00', 'wheelchair': 'yes'}}"
"{'type': 'node', 'id': 4352694731, 'lat': -38.0101836, 'lon': -57.541726, 'tags': {'amenity': 'pharmacy', 'healthcare': 'pharmacy'}}"
"{'type': 'node', 'id': 4368223198, 'lat': -37.8409564, 'lon': -57.5046937, 'tags': {'amenity': 'pharmacy', 'healthcare': 'pharmacy'}}"
"{'type': 'node', 'id': 4368229191, 'lat': -38.0054411, 'lon': -57.585797, 'tags': {'amenity': 'pharmacy', 'healthcare': 'pharmacy'}}"
"{'type': 'node', 'id': 4368230492, 'lat': -37.9998812, 'lon': -57.5811586, 'tags': {'addr:housenumber': '3290', 'addr:street': 'Avenida Juan H. Jara', 'amenity': 'pharmacy', 'healthcare': 'pharmacy', 'name': 'Farmacia del Barrio'}}"
"{'type': 'node', 'id': 4368230493, 'lat': -37.9926083, 'lon': -57.5557311, 'tags': {'addr:city': 'Mar del Plata', 'addr:housenumber': '3611', 'addr:postcode': '7600', 'addr:street': '25 de Mayo', 'amenity': 'pharmacy', 'healthcare': 'pharmacy', 'name': '25 de Mayo', 'phone': '+54 (223) 473-5624'}}"
"{'type': 'node', 'id': 4368257589, 'lat': -37.8339043, 'lon': -57.4993542, 'tags': {'amenity': 'pharmacy', 'healthcare': 'pharmacy'}}"
"{'type': 'node', 'id': 4368845591, 'lat': -37.9969778, 'lon': -57.5537275, 'tags': {'addr:housenumber': '3201', 'addr:postcode': '7600', 'addr:street': 'Rivadavia', 'amenity': 'pharmacy', 'healthcare': 'pharmacy', 'name': 'Bauza', 'name:es': 'Bauza Pharmacy'}}"
"{'type': 'node', 'id': 4368853490, 'lat': -37.9953743, 'lon': -57.5525175, 'tags': {'addr:city': 'Mar del Plata', 'addr:housenumber': '3257', 'addr:postcode': '7600', 'addr:street': 'Avenida Pedro Luro', 'amenity': 'pharmacy', 'healthcare': 'pharmacy', 'name': 'Bauza'}}"
"{'type': 'node', 'id': 4382321370, 'lat': -38.0283548, 'lon': -57.5591406, 'tags': {'amenity': 'pharmacy', 'healthcare': 'pharmacy', 'name': 'Pueyrredón'}}"
"{'type': 'node', 'id': 4382527986, 'lat': -38.0266491, 'lon': -57.5602234, 'tags': {'amenity': 'pharmacy', 'healthcare': 'pharmacy'}}"
"{'type': 'node', 'id': 4407520848, 'lat': -38.0070144, 'lon': -57.5435938, 'tags': {'addr:housenumber': '1910', 'addr:postcode': '7600', 'addr:street': 'Avenida Colón', 'amenity': 'pharmacy', 'healthcare': 'pharmacy', 'name': 'López'}}"
"{'type': 'node', 'id': 4422640490, 'lat': -37.9424036, 'lon': -57.7768493, 'tags': {'addr:city': 'Sierra de los Padres', 'addr:housenumber': '360', 'addr:postcode': '7601', 'addr:street': 'Avenida Argentina', 'amenity': 'pharmacy', 'dispensing': 'yes', 'healthcare': 'pharmacy', 'name': 'Farmacia Jardín de las Sierras'}}"
"{'type': 'node', 'id': 4444835051, 'lat': -38.025224, 'lon': -57.5632387, 'tags': {'amenity': 'pharmacy', 'healthcare': 'pharmacy'}}"
"{'type': 'node', 'id': 4477477204, 'lat': -37.9724806, 'lon': -57.6092619, 'tags': {'addr:housenumber': '9048', 'addr:street': 'Bolívar', 'amenity': 'hospital', 'emergency': 'yes', 'healthcare': 'hospital', 'name': 'sociedad de fomento Jorge Newbery'}}"
"{'type': 'node', 'id': 4480146582, 'lat': -38.2493752, 'lon': -57.8552457, 'tags': {'amenity': 'hospital', 'healthcare': 'hospital', 'name': 'sala de primeros auxilios'}}"
"{'type': 'node', 'id': 4625875932, 'lat': -38.0656862, 'lon': -57.547702, 'tags': {'amenity': 'pharmacy', 'healthcare': 'pharmacy', 'name': 'San José'}}"
"{'type': 'node', 'id': 4625897714, 'lat': -38.069396, 'lon': -57.547948, 'tags': {'amenity': 'pharmacy', 'healthcare': 'pharmacy', 'name': 'Riadigos'}}"
"{'type': 'node', 'id': 4955137461, 'lat': -38.0032612, 'lon': -57.5554357, 'tags': {'amenity': 'clinic', 'healthcare': 'clinic', 'name': 'Dar Salud - Central'}}"
"{'type': 'node', 'id': 4985630822, 'lat': -38.013158, 'lon': -57.570719, 'tags': {'addr:housenumber': '3499', 'addr:postcode': '7600', 'addr:street': 'Almafuerte', 'amenity': 'clinic', 'healthcare': 'clinic', 'name': 'Endo-MDQ', 'name:es': 'Endo-MDQ', 'website': 'https://endomdq.wordpress.com/'}}"
"{'type': 'node', 'id': 5030799824, 'lat': -38.001347, 'lon': -57.5516807, 'tags': {'addr:city': 'Mar del Plata', 'addr:housenumber': '2817', 'addr:postcode': '7600', 'addr:street': 'Bolívar', 'amenity': 'dentist', 'email': 'consultorioodontologicobolivar@gmail.com', 'healthcare': 'dentist', 'name': 'Consultorio Odontológico Bolivar', 'phone': '+54 223 493 0315'}}"
"{'type': 'node', 'id': 5073899351, 'lat': -38.0043322, 'lon': -57.5908851, 'tags': {'amenity': 'pharmacy', 'healthcare': 'pharmacy'}}"
"{'type': 'node', 'id': 5259674722, 'lat': -38.0132753, 'lon': -57.5572296, 'tags': {'addr:housenumber': '2535', 'addr:postcode': '7600', 'addr:street': 'Rodríguez Peña', 'amenity': 'pharmacy', 'healthcare': 'pharmacy', 'name': 'López'}}"
"{'type': 'node', 'id': 5259743321, 'lat': -38.0095532, 'lon': -57.553834, 'tags': {'addr:housenumber': '2903', 'addr:postcode': '7600', 'addr:street': 'Santiago del Estero', 'amenity': 'pharmacy', 'healthcare': 'pharmacy', 'name': 'Santa Teresita'}}"
"{'type': 'node', 'id': 5259747121, 'lat': -38.0112762, 'lon': -57.552722, 'tags': {'addr:housenumber': '2318', 'addr:postcode': '7600', 'addr:street': 'Alvarado', 'amenity': 'pharmacy', 'healthcare': 'pharmacy', 'name': 'Gómez'}}"
"{'type': 'node', 'id': 5259755221, 'lat': -38.0054434, 'lon': -57.5505345, 'tags': {'addr:housenumber': '2399', 'addr:postcode': '7600', 'addr:street': 'Santiago del Estero', 'amenity': 'pharmacy', 'healthcare': 'pharmacy', 'name': 'Rateriy'}}"
"{'type': 'node', 'id': 5261030921, 'lat': -38.0088568, 'lon': -57.5574529, 'tags': {'addr:housenumber': '2798', 'addr:postcode': '7600', 'addr:street': 'Alvarado', 'amenity': 'pharmacy', 'healthcare': 'pharmacy', 'name': 'Riadigos'}}"
"{'type': 'node', 'id': 5261030922, 'lat': -38.0107699, 'lon': -57.5647975, 'tags': {'addr:housenumber': '3501', 'addr:postcode': '7600', 'addr:street': 'Avenida Independencia', 'amenity': 'pharmacy', 'healthcare': 'pharmacy', 'name': 'Palkin'}}"
"{'type': 'node', 'id': 5261856822, 'lat': -38.0132231, 'lon': -57.5664832, 'tags': {'addr:housenumber': '3202', 'addr:postcode': '7600', 'addr:street': 'Matheu', 'amenity': 'pharmacy', 'healthcare': 'pharmacy', 'name': 'Del Puerto'}}"
"{'type': 'node', 'id': 5262582921, 'lat': -38.0156641, 'lon': -57.56872, 'tags': {'addr:housenumber': '4117', 'addr:postcode': '7600', 'addr:street': 'Avenida Independencia', 'amenity': 'pharmacy', 'healthcare': 'pharmacy', 'name': 'Farmalyf'}}"
"{'type': 'node', 'id': 5272023221, 'lat': -38.0280779, 'lon': -57.5363768, 'tags': {'addr:housenumber': '3777', 'addr:postcode': '7600', 'addr:street': 'Leandro N. Alem', 'amenity': 'pharmacy', 'healthcare': 'pharmacy', 'name': 'Riadigos', 'opening_hours': 'Mo-Sa 08:00-21:30, Su 09:30-13:30,17:00-21:00'}}"
"{'type': 'node', 'id': 5273274122, 'lat': -37.9935212, 'lon': -57.5523488, 'tags': {'addr:city': 'Mar del Plata', 'addr:housenumber': '1415', 'addr:postcode': '7600', 'addr:street': 'Salta', 'amenity': 'clinic', 'healthcare': 'clinic', 'name': 'Clínica Privada de Ojos""Dr. Cánepa""'}}"
"{'type': 'node', 'id': 5273288523, 'lat': -37.9933697, 'lon': -57.5533163, 'tags': {'addr:city': 'Mar del Plata', 'addr:housenumber': '1466', 'addr:postcode': '7600', 'addr:street': 'Jujuy', 'amenity': 'clinic', 'healthcare': 'clinic', 'name': 'Clínica de Ojos ""Santa Lucía""'}}"
"{'type': 'node', 'id': 5273306921, 'lat': -37.9920995, 'lon': -57.5655339, 'tags': {'addr:housenumber': '4329', 'addr:postcode': '7600', 'addr:street': 'Belgrano', 'amenity': 'clinic', 'healthcare': 'clinic', 'name': 'Sanatorio Belgrano'}}"
"{'type': 'node', 'id': 5273312821, 'lat': -38.0141279, 'lon': -57.5474299, 'tags': {'addr:housenumber': '1770', 'addr:postcode': '7600', 'addr:street': 'Alvarado', 'amenity': 'clinic', 'healthcare': 'clinic', 'name': 'Sanatorio Avenida'}}"
"{'type': 'node', 'id': 5347608422, 'lat': -37.9931771, 'lon': -57.5591271, 'tags': {'amenity': 'dentist', 'healthcare': 'dentist'}}"
"{'type': 'node', 'id': 5347608426, 'lat': -37.9925507, 'lon': -57.5586309, 'tags': {'amenity': 'pharmacy', 'healthcare': 'pharmacy', 'name': 'Previley'}}"
"{'type': 'node', 'id': 5384104121, 'lat': -38.016652, 'lon': -57.5442129, 'tags': {'amenity': 'doctors', 'healthcare': 'doctor', 'name': 'Centro de Medicina Materno Fetal'}}"
"{'type': 'node', 'id': 5905470685, 'lat': -37.7414787, 'lon': -57.433539, 'tags': {'amenity': 'hospital', 'healthcare': 'hospital'}}"
"{'type': 'node', 'id': 6008551250, 'lat': -37.9893403, 'lon': -57.5784351, 'tags': {'addr:housenumber': '5398', 'addr:street': 'Avenida Colón', 'amenity': 'pharmacy', 'dispensing': 'yes', 'healthcare': 'pharmacy', 'name': 'Farmacia Sur'}}"
"{'type': 'node', 'id': 6230819401, 'lat': -37.8365487, 'lon': -57.5061336, 'tags': {'addr:city': 'Santa Clara del Mar', 'addr:housenumber': '408', 'addr:postcode': '7609', 'addr:street': 'Punta Lara', 'amenity': 'doctors', 'healthcare': 'doctor', 'name': 'Centro de Atención Primaria de la Salud', 'short_name': 'CAPS'}}"
"{'type': 'node', 'id': 6893186184, 'lat': -37.9926719, 'lon': -57.5526803, 'tags': {'check_date': '2023-07-11', 'healthcare': 'rehabilitation', 'name': 'Servicio de Rehabilitación - Clínica 25 de Mayo'}}"
"{'type': 'node', 'id': 6893218785, 'lat': -37.9944024, 'lon': -57.5519241, 'tags': {'amenity': 'clinic', 'healthcare': 'clinic', 'name': 'Consultorios Externos - Clínica 25 de Mayo'}}"
"{'type': 'node', 'id': 6893692188, 'lat': -38.0816408, 'lon': -57.6364613, 'tags': {'healthcare': 'yes', 'name': 'CAPS barrio Antártida Argentina', 'operator': 'Municipalidad de Gral. Pueyrredon'}}"
"{'type': 'node', 'id': 6893692194, 'lat': -38.0889963, 'lon': -57.6307606, 'tags': {'healthcare': 'psychotherapist', 'name': 'Posada del Inti - Antu Ruka'}}"
"{'type': 'node', 'id': 7154529277, 'lat': -37.9764697, 'lon': -57.5894441, 'tags': {'addr:housenumber': '6901', 'addr:street': 'Avenida Pedro Luro', 'amenity': 'pharmacy', 'dispensing': 'yes', 'healthcare': 'pharmacy', 'name': 'Famacia Riadigos', 'operator': 'Riadigos', 'phone': '0223 478-6900'}}"
"{'type': 'node', 'id': 7168334489, 'lat': -37.9823676, 'lon': -57.578826, 'tags': {'addr:housenumber': '5802', 'addr:street': 'Avenida Pedro Luro', 'amenity': 'pharmacy', 'dispensing': 'yes', 'healthcare': 'pharmacy', 'name': 'Perfumería del Puerto', 'phone': '0223 478-3056'}}"
"{'type': 'node', 'id': 7169528245, 'lat': -37.9977345, 'lon': -57.5996262, 'tags': {'addr:housenumber': '6402', 'addr:street': 'Avenida Juan B. Justo', 'amenity': 'pharmacy', 'dispensing': 'yes', 'healthcare': 'pharmacy', 'name': 'Farmacia del Interzonal', 'phone': '0223 465-1323'}}"
"{'type': 'node', 'id': 7169684037, 'lat': -37.9955401, 'lon': -57.6025178, 'tags': {'addr:housenumber': '6740', 'addr:street': 'Avenida Juan B. Justo', 'amenity': 'pharmacy', 'dispensing': 'yes', 'healthcare': 'pharmacy', 'name': 'Farmacia Pirola'}}"
"{'type': 'node', 'id': 7203302285, 'lat': -38.0245336, 'lon': -57.5782555, 'tags': {'amenity': 'pharmacy', 'healthcare': 'pharmacy'}}"
"{'type': 'node', 'id': 7203378548, 'lat': -38.022007, 'lon': -57.5746454, 'tags': {'amenity': 'pharmacy', 'healthcare': 'pharmacy'}}"
"{'type': 'node', 'id': 7208698382, 'lat': -37.9792726, 'lon': -57.5839184, 'tags': {'addr:housenumber': '6371', 'addr:street': 'Avenida Pedro Luro', 'amenity': 'dentist', 'healthcare': 'dentist', 'name': 'ODONTOLOGIA LURO', 'phone': '0223 470-3758'}}"
"{'type': 'node', 'id': 7270923703, 'lat': -37.9110465, 'lon': -57.5865343, 'tags': {'healthcare': 'hospice', 'name': 'CAPS 2 de abril-'}}"
"{'type': 'node', 'id': 7282827021, 'lat': -38.0333372, 'lon': -57.5888534, 'tags': {'amenity': 'pharmacy', 'dispensing': 'yes', 'healthcare': 'pharmacy', 'name': 'Soich'}}"
"{'type': 'node', 'id': 7782030015, 'lat': -37.993619, 'lon': -57.5586828, 'tags': {'amenity': 'clinic', 'healthcare': 'clinic', 'name': 'I.R.E.M.I'}}"
"{'type': 'node', 'id': 8001904256, 'lat': -38.0203712, 'lon': -57.6169158, 'tags': {'addr:street': 'Intendente Domingo Heguilor', 'amenity': 'doctors', 'healthcare': 'doctor', 'name': 'CAPS Las Heras', 'official_name': 'Centro de Atención Primaria de la Salud las Heras'}}"
"{'type': 'node', 'id': 8235155550, 'lat': -38.270713, 'lon': -57.8440926, 'tags': {'addr:city': 'Miramar', 'addr:postcode': '7607', 'addr:street': 'Diagonal José María Dupuy', 'amenity': 'hospital', 'healthcare': 'hospital', 'healthcare:speciality': 'emergency', 'name': 'Hospital Municipal', 'operator': 'Municipio de General Alvarado', 'operator:type': 'public'}}"
"{'type': 'node', 'id': 8826075544, 'lat': -38.0015428, 'lon': -57.5530589, 'tags': {'addr:city': 'Mar del Plata', 'addr:housenumber': '2167', 'addr:street': 'Hipólito Yrigoyen', 'amenity': 'hospital', 'contact:facebook': 'https://www.facebook.com/CILAPobesidad/', 'contact:instagram': 'https://www.instagram.com/cilapobesidad/', 'email': 'cilapobesidad@gmail.com', 'healthcare': 'hospital', 'name': 'CI.LAP Obesidad', 'phone': '+54 223 4938620', 'website': 'http://cilap.com.ar'}}"
"{'type': 'node', 'id': 9247079485, 'lat': -37.3485892, 'lon': -57.0389655, 'tags': {'amenity': 'clinic', 'healthcare': 'clinic', 'name': 'Centro de salud Mar Azul'}}"
"{'type': 'node', 'id': 9261945212, 'lat': -38.211088, 'lon': -57.7007284, 'tags': {'amenity': 'clinic', 'healthcare': 'clinic', 'name': 'Servicio Médico'}}"
"{'type': 'node', 'id': 9499079579, 'lat': -38.2672513, 'lon': -57.8422451, 'tags': {'addr:housenumber': '1598', 'addr:street': 'Calle 21', 'amenity': 'pharmacy', 'healthcare': 'pharmacy', 'name': 'Farmacia Del Pueblo', 'phone': '02291 42-0673'}}"
"{'type': 'node', 'id': 9499079586, 'lat': -38.2731455, 'lon': -57.843428, 'tags': {'addr:city': 'Miramar', 'addr:housenumber': '1308', 'addr:postcode': '7607', 'addr:street': 'Calle 31', 'amenity': 'pharmacy', 'healthcare': 'pharmacy', 'name': 'Farmacia Malvestiti', 'phone': '02291 42-2969'}}"
"{'type': 'node', 'id': 9499100717, 'lat': -38.266409, 'lon': -57.8453136, 'tags': {'addr:housenumber': '1918', 'addr:street': 'Avenida 23', 'amenity': 'pharmacy', 'healthcare': 'pharmacy', 'name': 'Farmacia Espinosa', 'phone': '2291 420204'}}"
"{'type': 'node', 'id': 9585339581, 'lat': -38.0114542, 'lon': -57.5595922, 'tags': {'addr:city': 'Mar del Plata', 'addr:housenumber': '3333', 'addr:postcode': '7600', 'addr:street': 'Bartolomé Mitre', 'amenity': 'hospital', 'email': 'info@hemocentromdp.org.ar', 'healthcare': 'hospital', 'healthcare:speciality': 'donación_de_sangre', 'name': 'Fundación Médica Hemocentro Mar del Plata', 'website': 'https://www.hemocentromdp.org.ar', 'wheelchair': 'yes'}}"
"{'type': 'node', 'id': 10007602881, 'lat': -38.0605669, 'lon': -57.5717935, 'tags': {'amenity': 'pharmacy', 'dispensing': 'yes', 'healthcare': 'pharmacy', 'name': 'Bauza Farmacias'}}"
"{'type': 'node', 'id': 10169886906, 'lat': -37.9676341, 'lon': -57.5934032, 'tags': {'addr:city': 'mar del plata', 'addr:housenumber': '7693', 'addr:postcode': '7600', 'addr:street': 'Avenida Libertad', 'amenity': 'pharmacy', 'check_date:currency:XBT': '2024-10-20', 'currency:XBT': 'yes', 'dispensing': 'yes', 'healthcare': 'pharmacy', 'healthcare:speciality': 'vaccination', 'name': 'Farmacia Zingale', 'payment:lightning': 'yes', 'payment:lightning_contactless': 'no', 'payment:onchain': 'yes', 'phone': '+542235399462', 'survey:date': '2022-11-08', 'website': 'https://farmaciazingale.negocio.site/'}}"
"{'type': 'node', 'id': 10642395705, 'lat': -38.0127107, 'lon': -57.5587705, 'tags': {'addr:housenumber': '2698', 'addr:street': 'Rodríguez Peña', 'amenity': 'dentist', 'email': 'odontologiamdp@gmail.com', 'healthcare': 'dentist', 'name': 'Dentista Odontologia', 'name:en': 'Dentist', 'operator': 'Maria Soledad Berberián'}}"
"{'type': 'node', 'id': 11062722092, 'lat': -37.9936461, 'lon': -57.5510119, 'tags': {'amenity': 'pharmacy', 'healthcare': 'pharmacy', 'name': 'Farmacia Rocha'}}"
"{'type': 'node', 'id': 11146959983, 'lat': -38.1466148, 'lon': -58.2233629, 'tags': {'amenity': 'pharmacy', 'healthcare': 'pharmacy', 'name': 'Mechongué'}}"
"{'type': 'node', 'id': 11497405454, 'lat': -38.0867581, 'lon': -57.5435911, 'tags': {'amenity': 'clinic', 'healthcare': 'clinic', 'healthcare:speciality': 'neuropsychiatry', 'name': 'Clínica Clara del Mar'}}"
"{'type': 'node', 'id': 11500869556, 'lat': -38.0879227, 'lon': -57.5453803, 'tags': {'amenity': 'clinic', 'healthcare': 'clinic', 'healthcare:speciality': 'neuropsychiatry', 'name': 'Clínica de Psicopatología del Mar'}}"
"{'type': 'node', 'id': 11500903794, 'lat': -38.0828103, 'lon': -57.5461531, 'tags': {'healthcare': 'yes', 'healthcare:speciality': 'atencióm_primaria_de_la_salud', 'name': 'CAPS Faro Norte', 'operator': 'Municipalidad de Gral. Pueyrredon', 'operator:type': 'public'}}"
"{'type': 'node', 'id': 11503357457, 'lat': -37.9702517, 'lon': -57.5978518, 'tags': {'healthcare': 'centro_de_atención_primaria_de_la_salud', 'name': 'CAPS 9 de Julio', 'operator': 'Municipalidad de Gral. Puayrredon'}}"
"{'type': 'node', 'id': 11503363238, 'lat': -37.9466573, 'lon': -57.5736232, 'tags': {'healthcare': 'yes', 'name': 'CAPS Aeroparque', 'operator': 'Municipalidad de Gral. Pueyrredon'}}"
"{'type': 'node', 'id': 11503395517, 'lat': -37.9291275, 'lon': -57.5573261, 'tags': {'healthcare': 'yes', 'name': 'CAPS Alto Camet', 'operator': 'Municipalidad de Gral. Pueyrredon'}}"
"{'type': 'node', 'id': 11503445007, 'lat': -37.9607813, 'lon': -57.6213532, 'tags': {'healthcare': 'yes', 'name': 'CAPS Ameghino', 'operator': 'Municipalidad de Gral. Pueyrredon'}}"
"{'type': 'node', 'id': 11503501250, 'lat': -37.9656525, 'lon': -57.5781771, 'tags': {'healthcare': 'yes', 'name': 'CAPS APAND', 'operator': 'Municipalidad de Gral. Pueyrredon'}}"
"{'type': 'node', 'id': 11503507979, 'lat': -38.0049713, 'lon': -57.705039, 'tags': {'healthcare': 'yes', 'name': 'CAPS Batán', 'operator': 'Municipalidad de Gral. Pueyrredon'}}"
"{'type': 'node', 'id': 11503925613, 'lat': -38.0050523, 'lon': -57.6177546, 'tags': {'healthcare': 'yes', 'name': 'CAPS Don Emilio', 'operator': 'Municipalidad de Gral. Pueyrredon'}}"
"{'type': 'node', 'id': 11503925636, 'lat': -38.0299024, 'lon': -57.8063548, 'tags': {'healthcare': 'yes', 'name': 'CAPS El Boquerón', 'operator': 'Municipalidad de Gral. Pueyrredon'}}"
"{'type': 'node', 'id': 11503979123, 'lat': -37.8901494, 'lon': -57.6024407, 'tags': {'healthcare': 'yes', 'name': 'CAPS Estación Camet', 'operator': 'Municipalidad de Gral. Pueyrredon'}}"
"{'type': 'node', 'id': 11503989035, 'lat': -38.0000742, 'lon': -57.6259258, 'tags': {'healthcare': 'yes', 'name': 'CAPS Belgrano', 'operator': 'Municipalidad de Gral. Pueyrredon'}}"
"{'type': 'node', 'id': 11504036643, 'lat': -38.0000978, 'lon': -57.5571884, 'tags': {'amenity': 'clinic', 'healthcare': 'yes', 'name': 'Centro de Salud Nº 1', 'operator': 'Municipalidad de Gral. Pueyrredon'}}"
"{'type': 'node', 'id': 11504047755, 'lat': -38.0352146, 'lon': -57.5563916, 'tags': {'healthcare': 'yes', 'name': 'Centro de Salud Nº 2', 'operator': 'Municipalidad de Gral. Pueyrredon'}}"
"{'type': 'node', 'id': 11514528158, 'lat': -38.0159801, 'lon': -57.5516646, 'tags': {'amenity': 'pharmacy', 'healthcare': 'pharmacy', 'name': 'Farmacia Montti'}}"
"{'type': 'node', 'id': 11522509100, 'lat': -37.9957065, 'lon': -57.5492851, 'tags': {'amenity': 'pharmacy', 'healthcare': 'pharmacy', 'name': 'Farmacia López'}}"
"{'type': 'node', 'id': 11579551448, 'lat': -37.9967438, 'lon': -57.5591433, 'tags': {'addr:city': 'Mar del Plata', 'addr:housenumber': '3602', 'addr:postcode': '7600', 'addr:street': 'Moreno', 'amenity': 'pharmacy', 'check_date': '2024-02-02', 'currency:XBT': 'yes', 'healthcare': 'pharmacy', 'name': 'Farmacia Dante', 'opening_hours': 'Mo-Fr 09:00-13:00 16:00-20:00', 'operator': 'Farmacia Dante', 'payment:lightning': 'yes', 'payment:onchain': 'yes'}}"
"{'type': 'node', 'id': 11688908255, 'lat': -38.1076703, 'lon': -57.5764886, 'tags': {'amenity': 'pharmacy', 'healthcare': 'pharmacy'}}"
"{'type': 'node', 'id': 11749263369, 'lat': -38.0016146, 'lon': -57.5421947, 'tags': {'addr:city': 'Mar del Plata', 'addr:housenumber': '2149', 'addr:postcode': '7600', 'addr:street': 'Peatonal San Martín', 'alt_name': 'Siempre Farmacias', 'amenity': 'pharmacy', 'contact:facebook': 'https://www.facebook.com/SiempreFarmacias/', 'contact:instagram': 'https://www.instagram.com/siemprefarmacias', 'email': 'info@siemprefarmacias.com.ar', 'healthcare': 'pharmacy', 'name': 'Siempre Farmacias - Badanez', 'phone': '+54 2235 510731', 'website': 'https://www.siemprefarmacias.com.ar/'}}"
"{'type': 'node', 'id': 11810528244, 'lat': -38.089781, 'lon': -57.5430017, 'tags': {'healthcare': 'yes', 'name': 'Primeros Auxilos'}}"
"{'type': 'node', 'id': 12398796274, 'lat': -38.0181523, 'lon': -57.5438368, 'tags': {'healthcare': 'alternative', 'name': 'Medifé'}}"
"{'type': 'node', 'id': 12398796276, 'lat': -38.0178741, 'lon': -57.5436604, 'tags': {'amenity': 'pharmacy', 'healthcare': 'pharmacy', 'name': 'Farmacias Bauza'}}"
"{'type': 'node', 'id': 12400350059, 'lat': -38.0192237, 'lon': -57.5436439, 'tags': {'healthcare': 'alternative', 'name': 'Medicus'}}"
