OSM_Data
"{'type': 'node', 'id': 3806548482, 'lat': -13.2903907, 'lon': -39.8177882, 'tags': {'amenity': 'hospital'}}"
"{'type': 'node', 'id': 3806548681, 'lat': -13.2847288, 'lon': -39.820575, 'tags': {'amenity': 'hospital'}}"
"{'type': 'node', 'id': 3806566797, 'lat': -13.3541466, 'lon': -39.8123667, 'tags': {'amenity': 'hospital'}}"
"{'type': 'node', 'id': 3806697003, 'lat': -13.1051823, 'lon': -39.7932589, 'tags': {'amenity': 'hospital'}}"
"{'type': 'node', 'id': 3818512815, 'lat': -13.2513293, 'lon': -40.0834833, 'tags': {'amenity': 'hospital'}}"
"{'type': 'node', 'id': 3858602592, 'lat': -13.2620116, 'lon': -40.3692791, 'tags': {'amenity': 'hospital'}}"
"{'type': 'node', 'id': 3858602613, 'lat': -13.2591505, 'lon': -40.370985, 'tags': {'amenity': 'hospital'}}"
"{'type': 'node', 'id': 4119099158, 'lat': -13.5335466, 'lon': -40.1583989, 'tags': {'amenity': 'hospital'}}"
"{'type': 'node', 'id': 4119099174, 'lat': -13.5314124, 'lon': -40.1419404, 'tags': {'addr:city': 'Itiriçu', 'amenity': 'clinic', 'healthcare': 'clinic', 'name': 'Unidade de Saúde da Família João Batista Cerqueira', 'operator': 'Prefeitura de Itiruçu', 'operator:type': 'community'}}"
"{'type': 'node', 'id': 4240980851, 'lat': -13.006387, 'lon': -40.5316709, 'tags': {'amenity': 'hospital'}}"
"{'type': 'node', 'id': 4240980883, 'lat': -13.0012749, 'lon': -40.531231, 'tags': {'amenity': 'hospital'}}"
"{'type': 'node', 'id': 4240980888, 'lat': -13.0032245, 'lon': -40.5334143, 'tags': {'amenity': 'hospital'}}"
"{'type': 'node', 'id': 4549198373, 'lat': -13.44598, 'lon': -39.9406368, 'tags': {'amenity': 'hospital'}}"
"{'type': 'node', 'id': 5311802334, 'lat': -13.5325138, 'lon': -40.6103274, 'tags': {'amenity': 'clinic', 'name': 'Unidade de Saúde da Família'}}"
"{'type': 'node', 'id': 5311855821, 'lat': -13.4389727, 'lon': -40.4332902, 'tags': {'amenity': 'pharmacy', 'check_date': '2023-01-02', 'name': 'Farmácia Maracás'}}"
"{'type': 'node', 'id': 5311987730, 'lat': -12.8717202, 'lon': -39.8566954, 'tags': {'amenity': 'pharmacy', 'name': 'Drogaria São Cristóvão'}}"
"{'type': 'node', 'id': 8511791362, 'lat': -13.0340765, 'lon': -40.8173839, 'tags': {'amenity': 'clinic', 'healthcare': 'clinic'}}"
"{'type': 'node', 'id': 8712754193, 'lat': -12.820008, 'lon': -41.0744829, 'tags': {'amenity': 'hospital', 'healthcare': 'hospital', 'healthcare:speciality': 'general', 'name': 'Posto de Saúde Retaguarda', 'operator': 'Prefeitura Municipal de Nova Redenção', 'operator:type': 'public'}}"
"{'type': 'node', 'id': 9656462431, 'lat': -13.5308707, 'lon': -39.9738652, 'tags': {'amenity': 'hospital', 'healthcare': 'hospital', 'healthcare:speciality': 'vaccination;general', 'name': 'Posto de Saúde'}}"
"{'type': 'node', 'id': 10232821345, 'lat': -13.5134833, 'lon': -40.0561763, 'tags': {'addr:city': 'Stela Dubois', 'addr:postcode': '45345-000', 'addr:street': 'Av. Presidente Médici', 'addr:suburb': 'BR-116', 'amenity': 'dentist', 'email': 'clinicasorrici@gmail.com', 'healthcare': 'dentist', 'name': 'Clínica Sorrici', 'nohousenumber': 'yes', 'opening_hours': 'Mo-Sa 08:00-17:00', 'phone': '+55 73 99812 2121'}}"
"{'type': 'node', 'id': 11592307233, 'lat': -13.5248262, 'lon': -39.9652944, 'tags': {'addr:city': 'Jaguaquara', 'addr:housenumber': '321C', 'addr:postcode': '45345000', 'addr:street': 'Rua Pedro Tavares Cafezeiro', 'addr:suburb': 'Palmeira', 'amenity': 'dentist', 'healthcare': 'dentist', 'healthcare:speciality': 'dental_oral_maxillo_facial_surgery', 'name': 'Oroklin', 'operator': 'Karen Lais Farias Reis Rodrigues'}}"
"{'type': 'node', 'id': 11891225647, 'lat': -13.8602684, 'lon': -40.1045507, 'tags': {'amenity': 'hospital', 'emergency': 'yes', 'healthcare': 'hospital', 'healthcare:speciality': 'general;community', 'name': 'UPA (Unidade de Pronto Atendimento)'}}"
