OSM_Data
"{'type': 'node', 'id': 1005547499, 'lat': -28.9269748, 'lon': -51.548573, 'tags': {'addr:city': 'Veranópolis', 'addr:housenumber': '160', 'addr:postcode': '95330-000', 'addr:street': 'Rua Saul Irineu Farina', 'addr:suburb': 'Sao Peregrino', 'amenity': 'hospital', 'email': 'hcspl@hcspl.com.br', 'healthcare': 'hospital', 'name': 'Hospital Comunitário São Peregrino Lazziozi', 'operator:ref:vatin': 'BR87873279000104', 'phone': '+55 54 3441 3700', 'ref:CNES': '2707977', 'ref:vatin': 'BR87873279000368', 'website': 'https://hcspl.com.br'}}"
"{'type': 'node', 'id': 1526228667, 'lat': -28.2731586, 'lon': -52.4127159, 'tags': {'addr:housenumber': '303', 'alt_name': 'CAIS Gervásió', 'amenity': 'hospital', 'name': 'CAIS-Centro de Atendimento Integrado à Saúde Luiza'}}"
"{'type': 'node', 'id': 1694982889, 'lat': -28.4481269, 'lon': -52.1941367, 'tags': {'amenity': 'hospital', 'emergency': 'yes', 'healthcare': 'hospital', 'name': 'Hospital Cristo Redentor'}}"
"{'type': 'node', 'id': 1721362648, 'lat': -28.7846619, 'lon': -51.6100573, 'tags': {'amenity': 'pharmacy', 'name': 'Farmácia Vivafarma'}}"
"{'type': 'node', 'id': 1721362656, 'lat': -28.7846959, 'lon': -51.6087882, 'tags': {'amenity': 'pharmacy', 'name': 'Farmácia São João'}}"
"{'type': 'node', 'id': 1780338973, 'lat': -28.2269117, 'lon': -52.4374168, 'tags': {'amenity': 'clinic', 'healthcare': 'clinic', 'name': 'Cais Záchia'}}"
"{'type': 'node', 'id': 2601121821, 'lat': -28.788656, 'lon': -51.607847, 'tags': {'healthcare': 'physiotherapist', 'name': 'Revitali Clinica de Fisioterapia e Estudio de Pilates', 'phone': '+55 54 3242-1208', 'wheelchair': 'yes'}}"
"{'type': 'node', 'id': 2916658668, 'lat': -28.59357, 'lon': -51.7868564, 'tags': {'addr:city': 'Paraí', 'addr:housenumber': '15', 'addr:postcode': '95360-000', 'addr:street': 'Rua Henrique Lenzi', 'addr:suburb': 'Centro', 'amenity': 'hospital', 'emergency': 'yes', 'healthcare': 'hospital', 'name': 'Hospital Beneficente Nossa Senhora Aparecida', 'operator': 'HOSPITAL BENEFICENTE NOSSA SENHORA APARECIDA', 'operator:type': 'community', 'ref:CNES': '2241218', 'ref:vatin': 'BR91617407000118'}}"
"{'type': 'node', 'id': 3649621234, 'lat': -28.8815005, 'lon': -51.6977402, 'tags': {'amenity': 'hospital', 'name': 'Hospital Santo Antônio'}}"
"{'type': 'node', 'id': 3649750258, 'lat': -29.1106221, 'lon': -52.0697181, 'tags': {'addr:city': 'Relvado', 'amenity': 'hospital', 'name': 'Hospital Beneficiente Santo Antônio de Relvado', 'source': 'Bing;IBGE'}}"
"{'type': 'node', 'id': 3655101736, 'lat': -29.04536, 'lon': -52.2928685, 'tags': {'addr:city': 'São José do Herval', 'amenity': 'clinic', 'emergency': 'no', 'name': 'Posto de Saúde', 'source': 'Bing;IBGE'}}"
"{'type': 'node', 'id': 3905343294, 'lat': -28.2833353, 'lon': -52.795632, 'tags': {'addr:housenumber': '831', 'addr:postcode': '99500-000', 'addr:street': 'Avenida Pátria', 'addr:suburb': 'Centro', 'amenity': 'clinic', 'email': 'prontocarazinho@annex.com.br', 'healthcare': 'clinic', 'name': 'Prontoclinica Carazinho', 'ref:CNES': '7292945', 'ref:vatin': 'BR03044492000296'}}"
"{'type': 'node', 'id': 3905343295, 'lat': -28.2849937, 'lon': -52.7946848, 'tags': {'amenity': 'clinic', 'healthcare': 'clinic', 'healthcare:speciality': 'orthopaedics', 'name': 'Clinica Ortopédica', 'opening_hours': '08:00-17:00'}}"
"{'type': 'node', 'id': 4286192692, 'lat': -27.7843418, 'lon': -52.8042793, 'tags': {'amenity': 'hospital', 'name': 'Atra'}}"
"{'type': 'node', 'id': 4376443498, 'lat': -28.3095772, 'lon': -52.790849, 'tags': {'amenity': 'pharmacy', 'name': 'Farmácia Glória'}}"
"{'type': 'node', 'id': 4376443499, 'lat': -28.3062901, 'lon': -52.7931772, 'tags': {'amenity': 'pharmacy', 'name': 'Farmácia Saudefar'}}"
"{'type': 'node', 'id': 4516486326, 'lat': -28.621632, 'lon': -52.8716061, 'tags': {'addr:street': 'Avenida 15 de Novembro', 'amenity': 'hospital', 'name': 'Hospital Nossa Senhora do Rosário'}}"
"{'type': 'node', 'id': 4655059281, 'lat': -28.754643, 'lon': -52.0143221, 'tags': {'amenity': 'hospital', 'name': 'Posto de Saúde'}}"
"{'type': 'node', 'id': 4826167970, 'lat': -28.269783, 'lon': -51.6880342, 'tags': {'amenity': 'clinic', 'source': 'IBGE'}}"
"{'type': 'node', 'id': 4826292431, 'lat': -27.7829317, 'lon': -52.8018002, 'tags': {'addr:city': 'Ronda Alta', 'addr:housenumber': '38', 'addr:postcode': '99670-000', 'addr:street': 'Travessa São Jorge', 'addr:suburb': 'Centro', 'amenity': 'hospital', 'healthcare': 'hospital', 'name': 'Associação Hospitalar de Ronda Alta', 'phone': '+55 54 364 1077', 'ref:CNES': '2235420', 'ref:vatin': 'BR97319487000101', 'source': 'IEDE/RS'}}"
"{'type': 'node', 'id': 4873182021, 'lat': -28.3693648, 'lon': -51.635692, 'tags': {'amenity': 'pharmacy', 'name': 'Agafarma'}}"
"{'type': 'node', 'id': 5039623953, 'lat': -28.7823775, 'lon': -52.1717061, 'tags': {'amenity': 'hospital', 'name': 'Posto de Saúde'}}"
"{'type': 'node', 'id': 5058824245, 'lat': -28.5665686, 'lon': -51.9761232, 'tags': {'addr:city': 'Casca', 'addr:housenumber': '755', 'addr:postcode': '99260-000', 'addr:street': 'Rua Doutor Vitorino Monteiro', 'addr:suburb': 'Centro', 'amenity': 'hospital', 'healthcare': 'hospital', 'name': 'Hospital Santa Lúcia', 'phone': '+55 54 3347-1150', 'ref:CNES': '2246872', 'ref:vatin': 'BR88590369000142'}}"
"{'type': 'node', 'id': 5127667004, 'lat': -28.3145382, 'lon': -52.8091889, 'tags': {'amenity': 'clinic', 'healthcare': 'clinic', 'name': 'Posto de saude Passo da Areia', 'operator': 'Municipio de Carazinho', 'operator:type': 'public'}}"
"{'type': 'node', 'id': 5127667010, 'lat': -28.3087939, 'lon': -52.8011975, 'tags': {'amenity': 'clinic', 'name': 'Posto de Saúde Conceição'}}"
"{'type': 'node', 'id': 5127667012, 'lat': -28.2975562, 'lon': -52.8054752, 'tags': {'amenity': 'clinic', 'name': 'Posto de Saúde Sassi'}}"
"{'type': 'node', 'id': 5215152621, 'lat': -28.2680294, 'lon': -52.3924957, 'tags': {'amenity': 'pharmacy', 'name': 'Panvel', 'opening_hours': 'Mo-Su 08:00-21:00'}}"
"{'type': 'node', 'id': 5262441863, 'lat': -28.5732858, 'lon': -52.596556, 'tags': {'amenity': 'clinic', 'healthcare': 'clinic'}}"
"{'type': 'node', 'id': 5286600916, 'lat': -28.8801542, 'lon': -51.6994852, 'tags': {'amenity': 'clinic', 'healthcare': 'clinic'}}"
"{'type': 'node', 'id': 5304943388, 'lat': -29.1021239, 'lon': -51.5406237, 'tags': {'amenity': 'hospital', 'healthcare': 'hospital', 'name': 'Posto de saúde de São Valentim'}}"
"{'type': 'node', 'id': 5598972750, 'lat': -28.6598941, 'lon': -51.7449986, 'tags': {'amenity': 'pharmacy', 'dispensing': 'yes', 'healthcare': 'pharmacy', 'name': 'Farmácias Associadas'}}"
"{'type': 'node', 'id': 5599036449, 'lat': -28.6605719, 'lon': -51.7444975, 'tags': {'amenity': 'pharmacy', 'dispensing': 'yes', 'healthcare': 'pharmacy', 'name': 'Agafarma'}}"
"{'type': 'node', 'id': 5612147687, 'lat': -28.6629512, 'lon': -51.7519587, 'tags': {'amenity': 'hospital', 'name': 'Centro de saúde'}}"
"{'type': 'node', 'id': 5628576619, 'lat': -28.6629185, 'lon': -51.7518413, 'tags': {'amenity': 'hospital', 'healthcare': 'hospital', 'name': 'Centro de Saúde'}}"
"{'type': 'node', 'id': 5676229648, 'lat': -28.5661591, 'lon': -52.7474403, 'tags': {'amenity': 'hospital', 'healthcare': 'hospital'}}"
"{'type': 'node', 'id': 5676229649, 'lat': -28.5666791, 'lon': -52.7469687, 'tags': {'amenity': 'clinic', 'healthcare': 'clinic'}}"
"{'type': 'node', 'id': 5712536929, 'lat': -28.0617392, 'lon': -52.0148134, 'tags': {'amenity': 'clinic', 'source': 'IBGE'}}"
"{'type': 'node', 'id': 5712536930, 'lat': -28.0625688, 'lon': -51.9992016, 'tags': {'addr:city': 'Tapejara', 'addr:postcode': '99950-000', 'amenity': 'clinic', 'healthcare': 'clinic', 'name': 'Posto de Saúde - Bairro São Paulo', 'source': 'IBGE'}}"
"{'type': 'node', 'id': 5799993202, 'lat': -28.6785235, 'lon': -52.1650976, 'tags': {'amenity': 'hospital', 'healthcare': 'hospital'}}"
"{'type': 'node', 'id': 5838930794, 'lat': -28.2637386, 'lon': -52.3971518, 'tags': {'amenity': 'pharmacy', 'dispensing': 'yes', 'healthcare': 'pharmacy', 'name': 'Farmácia'}}"
"{'type': 'node', 'id': 5856351885, 'lat': -28.8719994, 'lon': -52.1803881, 'tags': {'addr:city': 'Arvorezinha', 'addr:housenumber': '321', 'addr:postcode': '95995-000', 'addr:street': 'Rua Daltro Filho', 'addr:suburb': 'Centro', 'amenity': 'hospital', 'fax': '+55 51 3772 2240', 'healthcare': 'hospital', 'name': 'Hospital São João', 'ref:CNES': '2252163', 'ref:vatin': 'BR87382867000137'}}"
"{'type': 'node', 'id': 5872533139, 'lat': -28.3691395, 'lon': -51.6366688, 'tags': {'amenity': 'pharmacy', 'dispensing': 'yes', 'healthcare': 'pharmacy'}}"
"{'type': 'node', 'id': 5872533156, 'lat': -28.3734544, 'lon': -51.635403, 'tags': {'amenity': 'clinic', 'healthcare': 'clinic'}}"
"{'type': 'node', 'id': 6004910741, 'lat': -28.8611341, 'lon': -51.5485929, 'tags': {'amenity': 'clinic', 'healthcare': 'clinic', 'name': 'Unidade Básica de Saúde'}}"
"{'type': 'node', 'id': 6099682458, 'lat': -28.8375667, 'lon': -51.8897125, 'tags': {'amenity': 'clinic', 'healthcare': 'clinic', 'name': 'Unidade Básica de Saúde São José'}}"
"{'type': 'node', 'id': 6114212084, 'lat': -29.0027755, 'lon': -52.1543795, 'tags': {'amenity': 'clinic', 'source': 'IBGE'}}"
"{'type': 'node', 'id': 6170770526, 'lat': -28.5354027, 'lon': -52.1536338, 'tags': {'addr:housenumber': '398', 'addr:postcode': '99155-000', 'addr:street': 'Rua General Flores da Cunha', 'addr:suburb': 'Centro', 'amenity': 'hospital', 'email': 'saude@pmvilamaria.com.br', 'fax': '+55 54 3359 1672', 'healthcare': 'hospital', 'name': 'Hospital Municipal Vila Maria', 'operator:ref:vatin': 'BR92406115000107', 'phone': '+55 54 3359 1122', 'ref:CNES': '2246899', 'source': 'IBGE;DATASUS'}}"
"{'type': 'node', 'id': 6219768616, 'lat': -28.3696818, 'lon': -51.6372433, 'tags': {'healthcare': 'laboratory', 'name': 'Laboratório Vazoler'}}"
"{'type': 'node', 'id': 6219768617, 'lat': -28.3712667, 'lon': -51.6379282, 'tags': {'healthcare': 'laboratory', 'name': 'BIOLAB'}}"
"{'type': 'node', 'id': 6366714323, 'lat': -28.3424562, 'lon': -51.8809391, 'tags': {'addr:city': 'Ciríaco', 'addr:housenumber': '139', 'addr:postcode': '99970-000', 'addr:street': 'Rua Osvaldo Cruz', 'addr:suburb': 'Centro', 'amenity': 'hospital', 'email': 'saude@pmciriaco.com.br', 'healthcare': 'hospital', 'name': 'Hospital Santa Teresinha', 'ref:CNES': '6179029', 'ref:vatin': 'BR08473435000165'}}"
"{'type': 'node', 'id': 6418682049, 'lat': -28.848337, 'lon': -51.8857838, 'tags': {'amenity': 'hospital', 'healthcare': 'hospital', 'name': 'Hospital Manuel Francisco Guerreiro'}}"
"{'type': 'node', 'id': 6659169332, 'lat': -28.2354401, 'lon': -52.3686806, 'tags': {'addr:housenumber': '548', 'addr:street': 'Avenida Padre Antônio Vieira', 'amenity': 'pharmacy', 'name': 'Farmácias Cesarfarma'}}"
"{'type': 'node', 'id': 6715584286, 'lat': -28.9927715, 'lon': -51.6957016, 'tags': {'addr:city': 'Cotiporã', 'addr:housenumber': '275', 'addr:postcode': '95335-000', 'addr:street': 'Rua Pedro Breda', 'addr:suburb': 'Centro', 'amenity': 'doctors', 'healthcare': 'doctor', 'healthcare:speciality': 'reeducação_alimentar;r', 'name': 'Nutricionista Aline Cenci', 'opening_hours': 'Mediante agendamento', 'operator': 'Nutricionista'}}"
"{'type': 'node', 'id': 6715699039, 'lat': -28.995922, 'lon': -51.6966607, 'tags': {'addr:city': 'Cotiporã', 'addr:housenumber': '120', 'addr:postcode': '95335-000', 'addr:street': 'Praça Maurício Cardoso', 'addr:suburb': 'Centro', 'healthcare': 'laboratory', 'name': 'Laboratório N Sra de Lourdes', 'operator': 'Associação Beneficente São José'}}"
"{'type': 'node', 'id': 6716163765, 'lat': -28.9959297, 'lon': -51.6967401, 'tags': {'addr:city': 'Cotiporã', 'addr:housenumber': '120', 'addr:postcode': '95335-000', 'addr:street': 'Praça Maurício Cardoso', 'addr:suburb': 'Centro', 'healthcare': 'psychotherapist', 'healthcare:speciality': 'psicologia', 'name': 'Bruna Farenzena', 'operator': 'Psicologa'}}"
"{'type': 'node', 'id': 6716261346, 'lat': -28.9951386, 'lon': -51.6969532, 'tags': {'addr:city': 'Cotiporã', 'addr:housenumber': '46 Sala 01', 'addr:postcode': '95335-000', 'addr:street': 'Praça Maurício Cardoso', 'addr:suburb': 'Centro', 'amenity': 'dentist', 'healthcare': 'dentist', 'healthcare:speciality': 'Ortodontia', 'name': 'Carla de Matos', 'operator': 'Carla de Matos'}}"
"{'type': 'node', 'id': 6716409732, 'lat': -28.9959631, 'lon': -51.6967767, 'tags': {'addr:city': 'Cotiporã', 'addr:housenumber': '120 Sala 01', 'addr:postcode': '95335-000', 'addr:street': 'Praça Maurício Cardoso', 'addr:suburb': 'Centro', 'amenity': 'pharmacy', 'dispensing': 'yes', 'healthcare': 'pharmacy', 'name': 'Farmácia N Sra da Saúde', 'operator': 'Cleber e Gabriel'}}"
"{'type': 'node', 'id': 6716436290, 'lat': -28.9958362, 'lon': -51.6971412, 'tags': {'addr:city': 'Cotiporã', 'addr:housenumber': '28', 'addr:postcode': '95335-000', 'addr:street': 'Rua Andrea Argenta', 'addr:suburb': 'Centro', 'amenity': 'dentist', 'healthcare': 'dentist', 'healthcare:speciality': 'Odontologia', 'name': 'Clínica Odontológica Tres Guindani', 'operator': 'Juliano e Eliza Tres Guindani'}}"
"{'type': 'node', 'id': 6723664920, 'lat': -28.9945701, 'lon': -51.696292, 'tags': {'addr:city': 'Cotiporã', 'addr:housenumber': '478 Sala 01', 'addr:postcode': '95335-000', 'addr:street': 'Avenida Independência', 'addr:suburb': 'Centro', 'amenity': 'pharmacy', 'dispensing': 'yes', 'healthcare': 'pharmacy', 'name': 'Drogaria La Flores'}}"
"{'type': 'node', 'id': 6724582693, 'lat': -28.995982, 'lon': -51.696717, 'tags': {'addr:city': 'Cotiporã', 'addr:housenumber': '120', 'addr:postcode': '95335-000', 'addr:street': 'Praça Maurício Cardoso', 'addr:suburb': 'Centro', 'amenity': 'dentist', 'healthcare': 'dentist', 'name': 'Fabrício Vettori'}}"
"{'type': 'node', 'id': 6724721018, 'lat': -28.9959282, 'lon': -51.6967011, 'tags': {'addr:city': 'Cotiporã', 'addr:housenumber': '120', 'addr:postcode': '95335-000', 'addr:street': 'Praça Maurício Cardoso', 'addr:suburb': 'Centro', 'amenity': 'dentist', 'healthcare': 'dentist', 'healthcare:speciality': 'Odontologia;psicologia;fisioterapia;laboratório_de_análises_clínicas', 'name': 'Harmonizza Clínica Odontológica'}}"
"{'type': 'node', 'id': 6724772116, 'lat': -28.9930801, 'lon': -51.6965268, 'tags': {'addr:city': 'Cotiporã', 'addr:housenumber': '141', 'addr:postcode': '95335-000', 'addr:street': 'Rua Silveira Martins', 'addr:suburb': 'Centro', 'amenity': 'dentist', 'healthcare': 'dentist', 'name': 'Helio da Silveira'}}"
"{'type': 'node', 'id': 6724909638, 'lat': -28.9934471, 'lon': -51.6962203, 'tags': {'addr:city': 'Cotiporã', 'addr:housenumber': '118 Sala 02', 'addr:postcode': '95335-000', 'addr:street': 'Rua Silveira Martins', 'addr:suburb': 'Centro', 'healthcare': 'alternative', 'healthcare:speciality': 'chiropractic', 'name': 'Jéssica Sonda'}}"
"{'type': 'node', 'id': 6731918513, 'lat': -28.9934502, 'lon': -51.6966858, 'tags': {'addr:city': 'Cotiporã', 'addr:housenumber': '123', 'addr:postcode': '95335-000', 'addr:street': 'Rua Silveira Martins', 'addr:suburb': 'Centro', 'healthcare': 'laboratory', 'name': 'Laboratório Veranense'}}"
"{'type': 'node', 'id': 6732109839, 'lat': -28.9959469, 'lon': -51.6966733, 'tags': {'addr:city': 'Cotiporã', 'addr:housenumber': '120', 'addr:postcode': '95335-000', 'addr:street': 'Praça Maurício Cardoso', 'addr:suburb': 'Centro', 'amenity': 'dentist', 'healthcare': 'dentist', 'name': 'Leticia Wyzykowski'}}"
"{'type': 'node', 'id': 6732128304, 'lat': -28.9929707, 'lon': -51.702854, 'tags': {'addr:city': 'Cotiporã', 'addr:housenumber': '926', 'addr:postcode': '95335-000', 'addr:street': 'Rua João Bergamin', 'addr:suburb': 'Centro', 'amenity': 'doctors', 'healthcare': 'doctor', 'healthcare:speciality': 'Nutricionista', 'name': 'Luana Zaffari'}}"
"{'type': 'node', 'id': 6735152454, 'lat': -28.9953341, 'lon': -51.6952696, 'tags': {'addr:city': 'Cotiporã', 'addr:housenumber': '136 Sala 02', 'addr:postcode': '95335-000', 'addr:street': 'Rua 10 de Novembro', 'addr:suburb': 'Centro', 'healthcare': 'physiotherapist', 'name': 'Fisio Vida', 'operator': 'Priscila L Simioni'}}"
"{'type': 'node', 'id': 6735275980, 'lat': -28.9957692, 'lon': -51.6971312, 'tags': {'addr:city': 'Cotiporã', 'addr:housenumber': '28', 'addr:postcode': '95335-000', 'addr:street': 'Rua Andrea Argenta', 'addr:suburb': 'Centro', 'healthcare': 'psychotherapist', 'name': 'Sania Maria Tres Guindani'}}"
"{'type': 'node', 'id': 6738780198, 'lat': -28.9943333, 'lon': -51.6954399, 'tags': {'addr:city': 'Cotiporã', 'addr:housenumber': '97', 'addr:postcode': '95335-000', 'addr:street': 'Rua Nilo Leonardo Tonial', 'addr:suburb': 'Centro', 'healthcare': 'physiotherapist', 'name': 'Tatiana Fellini'}}"
"{'type': 'node', 'id': 6738792940, 'lat': -28.9959956, 'lon': -51.6966892, 'tags': {'addr:city': 'Cotiporã', 'addr:housenumber': '120', 'addr:postcode': '95335-000', 'addr:street': 'Praça Maurício Cardoso', 'addr:suburb': 'Centro', 'healthcare': 'physiotherapist', 'name': 'Tiago Luza'}}"
"{'type': 'node', 'id': 6769516676, 'lat': -28.261387, 'lon': -52.416428, 'tags': {'addr:city': 'Passo Fundo', 'addr:housenumber': '1898', 'addr:postcode': '99025-120', 'addr:street': 'Rua Lava Pés', 'addr:suburb': 'Centro', 'amenity': 'hospital', 'emergency': 'yes', 'healthcare': 'hospital', 'healthcare:speciality': 'general', 'name': 'Unimed Planalto Médio Cooperativa de Serviços Médicos Ltda', 'operator': 'Unimed', 'operator:wikidata': 'Q7865295', 'ref:CNES': '5039029', 'ref:vatin': 'BR87607149000626'}}"
"{'type': 'node', 'id': 6856271953, 'lat': -28.7114813, 'lon': -51.9357613, 'tags': {'addr:city': 'Serafina Corrêa', 'addr:housenumber': '260', 'addr:postcode': '99250-000', 'addr:street': 'Rua Monsenhor Scalabrini', 'addr:suburb': 'Centro', 'amenity': 'hospital', 'healthcare': 'hospital', 'name': 'Hospital Nossa Senhora do Rosário', 'ref:CNES': '2260050', 'ref:vatin': 'BR90397167000120'}}"
"{'type': 'node', 'id': 6989031050, 'lat': -28.986334, 'lon': -51.8370095, 'tags': {'addr:city': 'Dois Lajeados', 'addr:housenumber': '10', 'addr:postcode': '99220-000', 'addr:street': 'Rua João Ribeiro', 'addr:suburb': 'Centro', 'amenity': 'hospital', 'email': 'hcsr@mastertek.com.br', 'fax': '+55 54 3471 1302', 'healthcare': 'hospital', 'name': 'Hospital de Caridade São Roque', 'phone': '+55 54 3471 1212', 'ref:CNES': '2241013', 'ref:vatin': 'BR90396409000161'}}"
"{'type': 'node', 'id': 7475844425, 'lat': -28.6267366, 'lon': -52.5150155, 'tags': {'amenity': 'hospital', 'healthcare': 'hospital', 'name': 'Posto Central de Saúde'}}"
"{'type': 'node', 'id': 7516026883, 'lat': -27.9498417, 'lon': -51.8097412, 'tags': {'addr:housenumber': '484', 'addr:street': 'Avenida Salzano da Cunha', 'healthcare': 'psychotherapist', 'healthcare:speciality': 'general', 'name': 'Clínica de Psicologia Juliana Miotto', 'operator': 'Juliana Miotto'}}"
"{'type': 'node', 'id': 7626180580, 'lat': -28.7354224, 'lon': -52.8419212, 'tags': {'amenity': 'clinic', 'healthcare': 'clinic', 'name': 'Unidade Básica de Saúde Central Dr. Gerardo Barbosa'}}"
"{'type': 'node', 'id': 7844126719, 'lat': -28.719763, 'lon': -51.9284101, 'tags': {'addr:city': 'Serafina Correa', 'addr:housenumber': '2617', 'addr:postcode': '99250-000', 'addr:street': 'Avenida Arthur Oscar', 'addr:suburb': 'Gramadinho', 'amenity': 'pharmacy', 'dispensing': 'yes', 'healthcare': 'pharmacy', 'name': 'Farmácias Associadas'}}"
"{'type': 'node', 'id': 9664586822, 'lat': -27.9486575, 'lon': -51.8137878, 'tags': {'amenity': 'pharmacy', 'dispensing': 'yes', 'healthcare': 'pharmacy'}}"
"{'type': 'node', 'id': 9664590979, 'lat': -27.9502538, 'lon': -51.8153562, 'tags': {'amenity': 'clinic', 'healthcare': 'clinic', 'name': 'Posto de Saúde Central'}}"
"{'type': 'node', 'id': 9957610715, 'lat': -27.946206, 'lon': -51.8196606, 'tags': {'addr:city': 'Sananduva', 'addr:housenumber': '626', 'addr:postcode': '99840000', 'addr:street': 'Avenida Rio Branco', 'addr:suburb': 'Vila Jardim', 'amenity': 'clinic', 'healthcare': 'clinic', 'name': 'Unidade Básica de Saúde Vila Jardim'}}"
"{'type': 'node', 'id': 10261531359, 'lat': -27.9501789, 'lon': -51.8124226, 'tags': {'amenity': 'pharmacy', 'healthcare': 'pharmacy'}}"
"{'type': 'node', 'id': 10261531360, 'lat': -27.9504869, 'lon': -51.8128543, 'tags': {'amenity': 'pharmacy', 'healthcare': 'pharmacy', 'name': 'Tchê Farmácia'}}"
"{'type': 'node', 'id': 10261531361, 'lat': -27.9499638, 'lon': -51.8105927, 'tags': {'amenity': 'pharmacy', 'healthcare': 'pharmacy', 'name': 'Tchê Farmácia'}}"
"{'type': 'node', 'id': 10261531362, 'lat': -27.949873, 'lon': -51.809712, 'tags': {'amenity': 'pharmacy', 'brand': 'São João', 'brand:wikidata': 'Q62663306', 'dispensing': 'yes', 'healthcare': 'pharmacy', 'name': 'São João'}}"
"{'type': 'node', 'id': 10832126705, 'lat': -28.2636911, 'lon': -52.4048547, 'tags': {'addr:housenumber': '173', 'addr:street': 'Rua Bento Gonçalves', 'amenity': 'pharmacy', 'name': 'Farmácia São João'}}"
"{'type': 'node', 'id': 10863683944, 'lat': -27.8840872, 'lon': -52.22315, 'tags': {'addr:city': 'Getúlio Vargas', 'addr:housenumber': '212', 'addr:postcode': '99900-000', 'addr:street': 'Rua Jacob Gremmelmaier', 'addr:suburb': 'Centro', 'amenity': 'hospital', 'email': 'hospitalsaoroque@itaque.com.br', 'healthcare': 'hospital', 'name': 'Hospital Sao Roque de Getulio Vargas', 'phone': '+55 54 3341 1333', 'ref:CNES': '2249510', 'ref:vatin': 'BR90156217000188', 'source:geometry': 'IEDE/RS'}}"
"{'type': 'node', 'id': 10863683945, 'lat': -27.9130726, 'lon': -52.2572301, 'tags': {'addr:city': 'Estação', 'addr:housenumber': '931', 'addr:postcode': '99930-000', 'addr:street': 'Avenida Lido Tagliari', 'addr:suburb': 'Centro', 'amenity': 'hospital', 'email': 'hantonio@est.itake.com.br', 'healthcare': 'hospital', 'name': 'Hospital Santo Antonio Ltda', 'ref:CNES': '2249626', 'ref:vatin': 'BR43407737000136', 'source:geometry': 'IEDE/RS'}}"
"{'type': 'node', 'id': 10863759275, 'lat': -28.9311453, 'lon': -52.1235806, 'tags': {'addr:city': 'Ilópolis', 'addr:housenumber': '495', 'addr:postcode': '95990-000', 'addr:street': 'Rua João Tomasini', 'addr:suburb': 'Centro', 'amenity': 'hospital', 'healthcare': 'hospital', 'name': 'Hospital Beneficente Leonilda Brunet', 'operator:ref:vatin': 'BR87263364000142', 'ref:CNES': '2252139', 'ref:vatin': 'BR87263364000223', 'source:geometry': 'IEDE/RS'}}"
"{'type': 'node', 'id': 11108807381, 'lat': -28.2548664, 'lon': -52.4030677, 'tags': {'amenity': 'pharmacy', 'contact:facebook': 'https://www.facebook.com/FarmaciasAssocidasVidaFarma/', 'name': 'Farmácias Associadas', 'website': 'https://farmaciasassociadas.com.br'}}"
"{'type': 'node', 'id': 11148835408, 'lat': -28.1839218, 'lon': -52.0152895, 'tags': {'amenity': 'clinic', 'fixme': 'Corrigir localização', 'healthcare': 'clinic', 'name': 'Casa de Saúde Indígena de Água Santa', 'ref:CNES': '7520069', 'short_name': 'Casai'}}"
"{'type': 'node', 'id': 11287113079, 'lat': -28.2617668, 'lon': -52.4061244, 'tags': {'amenity': 'pharmacy', 'brand': 'Panvel', 'brand:wikidata': 'Q10344254', 'healthcare': 'pharmacy', 'name': 'Panvel'}}"
"{'type': 'node', 'id': 11289542669, 'lat': -28.2589768, 'lon': -52.4097446, 'tags': {'amenity': 'pharmacy', 'name': 'São João'}}"
"{'type': 'node', 'id': 11327690245, 'lat': -28.2605227, 'lon': -52.3961918, 'tags': {'amenity': 'pharmacy', 'healthcare': 'pharmacy', 'name': 'São João'}}"
"{'type': 'node', 'id': 11447407357, 'lat': -28.2712976, 'lon': -52.3856113, 'tags': {'amenity': 'pharmacy', 'brand': 'Panvel', 'brand:wikidata': 'Q10344254', 'healthcare': 'pharmacy', 'name': 'Panvel'}}"
"{'type': 'node', 'id': 11788412359, 'lat': -28.8504284, 'lon': -51.8906131, 'tags': {'addr:city': 'Guaporé', 'addr:housenumber': '755', 'addr:street': 'Rua Ângelo José Bordin', 'addr:suburb': 'Centro', 'amenity': 'dentist', 'healthcare': 'dentist', 'healthcare:speciality': 'orthodontics', 'mobile': '+55 54 9639 0105', 'name': 'Oral Brasil Guaporé', 'phone': '+55  54 3443 4458', 'website': 'https://oralbrasil.com.br/guapore'}}"
"{'type': 'node', 'id': 12111431348, 'lat': -28.2626233, 'lon': -52.4074651, 'tags': {'amenity': 'pharmacy', 'brand': 'São João', 'brand:wikidata': 'Q62663306', 'healthcare': 'pharmacy', 'name': 'São João'}}"
"{'type': 'node', 'id': 12125215981, 'lat': -28.2612975, 'lon': -52.4047024, 'tags': {'healthcare': 'laboratory', 'name': 'Unidos Análises Clínicas'}}"
"{'type': 'node', 'id': 12472108310, 'lat': -28.8633262, 'lon': -51.5524706, 'tags': {'amenity': 'pharmacy', 'healthcare': 'pharmacy'}}"
