OSM_Data
"{'type': 'node', 'id': 2624724614, 'lat': -19.9913202, 'lon': 23.420816, 'tags': {'amenity': 'dentist', 'healthcare': 'dentist', 'name': 'Delta Dental Clinic'}}"
"{'type': 'node', 'id': 2624724617, 'lat': -19.9950917, 'lon': 23.4205898, 'tags': {'amenity': 'pharmacy', 'name': 'Revert Pharmacy'}}"
"{'type': 'node', 'id': 2693860515, 'lat': -19.9885968, 'lon': 23.4217536, 'tags': {'addr:city': 'Maun', 'addr:street': 'Pulane Rd', 'amenity': 'pharmacy', 'healthcare': 'pharmacy', 'name': 'Taurus Pharmacy', 'opening_hours': 'Mo-Fr 08:30-18:00; Sa 08:30-14:00; Su 09:30-13:00', 'operator': 'Taurus Enterprises', 'phone': '+267 686-3161', 'website': 'https://tauruspharmacy.com/'}}"
"{'type': 'node', 'id': 2693861776, 'lat': -19.9877095, 'lon': 23.4256159, 'tags': {'addr:city': 'Maun', 'addr:street': 'Tsheko Tsheko Rd', 'amenity': 'clinic', 'emergency': 'yes', 'healthcare': 'clinic', 'name': 'Delta Medical Centre'}}"
"{'type': 'node', 'id': 2937247117, 'lat': -20.3340615, 'lon': 23.0555523, 'tags': {'amenity': 'clinic', 'emergency': 'no'}}"
"{'type': 'node', 'id': 4324491922, 'lat': -19.9929565, 'lon': 23.4375652, 'tags': {'amenity': 'pharmacy', 'drive_through': 'no', 'healthcare': 'pharmacy', 'name': 'Pharma Maun'}}"
"{'type': 'node', 'id': 4547728870, 'lat': -19.9866164, 'lon': 23.4242287, 'tags': {'healthcare': 'alternative', 'name': 'Covenant Medical Centre'}}"
"{'type': 'node', 'id': 4547803144, 'lat': -19.9888757, 'lon': 23.425265, 'tags': {'addr:city': 'Maun', 'addr:street': 'Tsheko Tsheko Rd', 'amenity': 'pharmacy', 'healthcare': 'pharmacy', 'name': 'Taurus Pharmacy', 'opening_hours': 'Mo-Fr 08:30-18:00; Sa 08:30-14:00; Su 09:30-13:00', 'operator': 'Taurus Enterprises', 'phone': '+2676863340', 'website': 'https://tauruspharmacy.com/'}}"
"{'type': 'node', 'id': 4568320770, 'lat': -19.9868463, 'lon': 23.4247445, 'tags': {'email': 'info@doctorsinn.co.bw', 'healthcare': 'centre', 'name': 'Doctors Inn', 'opening_hours': 'Mo-Fr 08:00-17:00; Sa 09:00-13:00', 'phone': '+2676865115', 'website': 'https://www.doctorsinn.co.bw/'}}"
"{'type': 'node', 'id': 4568324262, 'lat': -19.9870995, 'lon': 23.4243781, 'tags': {'description': 'Main Surgery', 'healthcare': 'yes', 'name': 'Life Line Clinic', 'phone': '6861268'}}"
"{'type': 'node', 'id': 4569939968, 'lat': -19.9872204, 'lon': 23.424372, 'tags': {'amenity': 'dentist', 'healthcare': 'dentist', 'name': 'Maledi Dental Center', 'phone': '+2676862666'}}"
"{'type': 'node', 'id': 4569943192, 'lat': -20.0024074, 'lon': 23.4298317, 'tags': {'email': 'coupdeetouch@gmail.com', 'healthcare': 'alternative', 'name': 'Coup Dee Touch', 'phone': '+26774274242'}}"
"{'type': 'node', 'id': 4715413710, 'lat': -19.9773994, 'lon': 23.430356, 'tags': {'amenity': 'doctors', 'health_facility:type': 'office', 'healthcare': 'doctor', 'name': 'Medi-Help Clinic'}}"
"{'type': 'node', 'id': 4781222818, 'lat': -19.9880218, 'lon': 23.4251934, 'tags': {'amenity': 'pharmacy', 'email': 'melissamilburn@live.com', 'healthcare': 'pharmacy', 'name': 'Okavango Pharmacy', 'opening_hours': 'Mo-Fr 08:00-17:30; Sa 09:00-13:00', 'phone': '+26771706435'}}"
"{'type': 'node', 'id': 5313526026, 'lat': -19.985725, 'lon': 23.4626255, 'tags': {'amenity': 'hospital', 'healthcare': 'hospital', 'name': 'Letsholathebe II Memorial Hospital'}}"
"{'type': 'node', 'id': 5937938820, 'lat': -19.9876618, 'lon': 23.424692, 'tags': {'amenity': 'pharmacy', 'dispensing': 'yes', 'healthcare': 'pharmacy', 'name': 'Portsway Pharmacy'}}"
"{'type': 'node', 'id': 8679071117, 'lat': -19.9868261, 'lon': 23.4246118, 'tags': {'addr:street': 'Pulane Rd', 'amenity': 'hospital', 'healthcare': 'hospital', 'name': 'Doctors Inn'}}"
"{'type': 'node', 'id': 9250969618, 'lat': -19.9673382, 'lon': 23.4491494, 'tags': {'amenity': 'hospital', 'healthcare': 'hospital', 'name': 'Maun Private Hospital'}}"
"{'type': 'node', 'id': 12082450539, 'lat': -19.8450882, 'lon': 23.5906553, 'tags': {'amenity': 'clinic', 'name': 'Health Clinic'}}"
