OSM_Data
"{'type': 'node', 'id': 5140927052, 'lat': 33.1508306, 'lon': 107.3198805, 'tags': {'amenity': 'pharmacy'}}"
"{'type': 'node', 'id': 5140927284, 'lat': 33.1494775, 'lon': 107.3145521, 'tags': {'amenity': 'hospital'}}"
"{'type': 'node', 'id': 5154995988, 'lat': 33.1557149, 'lon': 107.3214474, 'tags': {'amenity': 'pharmacy'}}"
"{'type': 'node', 'id': 5154996071, 'lat': 33.1540414, 'lon': 107.3185638, 'tags': {'amenity': 'pharmacy'}}"
"{'type': 'node', 'id': 5877973358, 'lat': 33.0797237, 'lon': 107.0437331, 'tags': {'amenity': 'hospital', 'healthcare': 'hospital', 'name': '汉中华西妇产医院'}}"
"{'type': 'node', 'id': 5887338926, 'lat': 33.0735274, 'lon': 107.0243727, 'tags': {'addr:city': '汉中市', 'addr:district': '汉台区', 'addr:postcode': '723000', 'addr:street': '北大街', 'amenity': 'hospital', 'healthcare': 'hospital', 'name': '汉中市中医院'}}"
"{'type': 'node', 'id': 6167838250, 'lat': 33.0669535, 'lon': 107.0255259, 'tags': {'addr:city': '汉中市', 'addr:district': '汉台区', 'addr:postcode': '723000', 'addr:street': '挂匾巷', 'amenity': 'pharmacy', 'dispensing': 'yes', 'healthcare': 'pharmacy', 'name': '欣泰康大药房'}}"
"{'type': 'node', 'id': 6172536213, 'lat': 33.0624679, 'lon': 107.0272997, 'tags': {'addr:city': '汉中市', 'addr:district': '汉台区', 'addr:postcode': '723000', 'addr:street': '米仓路', 'amenity': 'clinic', 'healthcare': 'clinic', 'healthcare:speciality': '妇科', 'name': '何淑琴妇科诊所'}}"
"{'type': 'node', 'id': 8367788195, 'lat': 33.7667586, 'lon': 106.0845167, 'tags': {'amenity': 'pharmacy', 'dispensing': 'yes', 'healthcare': 'pharmacy'}}"
"{'type': 'node', 'id': 8367788197, 'lat': 33.766482, 'lon': 106.0841805, 'tags': {'amenity': 'pharmacy', 'dispensing': 'yes', 'healthcare': 'pharmacy'}}"
"{'type': 'node', 'id': 8367788200, 'lat': 33.7639198, 'lon': 106.0865732, 'tags': {'amenity': 'pharmacy', 'dispensing': 'yes', 'healthcare': 'pharmacy'}}"
"{'type': 'node', 'id': 8564438351, 'lat': 33.3343337, 'lon': 106.1497965, 'tags': {'amenity': 'pharmacy', 'dispensing': 'yes', 'healthcare': 'pharmacy', 'name': '众友健康药店'}}"
"{'type': 'node', 'id': 11054601396, 'lat': 33.1534125, 'lon': 107.3162751, 'tags': {'amenity': 'pharmacy'}}"
"{'type': 'node', 'id': 11054611401, 'lat': 33.1556077, 'lon': 107.3165085, 'tags': {'amenity': 'pharmacy'}}"
"{'type': 'node', 'id': 11054618051, 'lat': 33.1580562, 'lon': 107.3195924, 'tags': {'amenity': 'pharmacy'}}"
"{'type': 'node', 'id': 11054629064, 'lat': 33.1514825, 'lon': 107.3153641, 'tags': {'amenity': 'pharmacy'}}"
"{'type': 'node', 'id': 11057667192, 'lat': 33.154003, 'lon': 107.3190809, 'tags': {'amenity': 'hospital'}}"
"{'type': 'node', 'id': 11062483266, 'lat': 33.1541531, 'lon': 107.3300606, 'tags': {'amenity': 'pharmacy'}}"
"{'type': 'node', 'id': 11062504636, 'lat': 33.1547648, 'lon': 107.3338238, 'tags': {'amenity': 'pharmacy'}}"
"{'type': 'node', 'id': 11062518853, 'lat': 33.1500849, 'lon': 107.3152682, 'tags': {'amenity': 'pharmacy'}}"
"{'type': 'node', 'id': 11103902174, 'lat': 33.1483545, 'lon': 107.3110844, 'tags': {'amenity': 'pharmacy'}}"
"{'type': 'node', 'id': 11818604152, 'lat': 33.0631924, 'lon': 107.0206614, 'tags': {'amenity': 'hospital', 'healthcare': 'hospital', 'name': '急诊'}}"
"{'type': 'node', 'id': 11818604162, 'lat': 33.0628505, 'lon': 107.0214879, 'tags': {'amenity': 'hospital', 'healthcare': 'hospital', 'name': '儿童早期发展综合训练部'}}"
"{'type': 'node', 'id': 11818604163, 'lat': 33.0622057, 'lon': 107.0204053, 'tags': {'amenity': 'hospital', 'healthcare': 'hospital', 'name': '放疗中心'}}"
"{'type': 'node', 'id': 11924605857, 'lat': 33.1492969, 'lon': 106.6582829, 'tags': {'amenity': 'hospital', 'healthcare': 'hospital', 'name': '勉县医院'}}"
