OSM_Data
"{'type': 'node', 'id': 2338882293, 'lat': -34.1069158, 'lon': 141.9182262, 'tags': {'addr:postcode': '2648', 'addr:street': 'Sandwych Street', 'addr:town': 'Wentworth', 'amenity': 'pharmacy', 'healthcare': 'pharmacy', 'name': 'Wentworth Pharmacy', 'source': 'survey'}}"
"{'type': 'node', 'id': 6355628501, 'lat': -34.2186331, 'lon': 142.1494394, 'tags': {'amenity': 'pharmacy', 'brand': 'Chemist Warehouse', 'brand:wikidata': 'Q48782120', 'brand:wikipedia': 'en:Chemist Warehouse', 'dispensing': 'yes', 'healthcare': 'pharmacy', 'name': 'Chemist Warehouse'}}"
"{'type': 'node', 'id': 6442478881, 'lat': -34.1858131, 'lon': 142.1592159, 'tags': {'amenity': 'pharmacy', 'brand': 'Priceline Pharmacy', 'brand:wikidata': 'Q7242652', 'brand:wikipedia': 'en:Priceline (Australia)', 'dispensing': 'yes', 'healthcare': 'pharmacy', 'name': 'Priceline Pharmacy'}}"
"{'type': 'node', 'id': 6457257753, 'lat': -34.1857038, 'lon': 142.1593682, 'tags': {'healthcare': 'yes', 'name': 'Tristar Medical Group'}}"
"{'type': 'node', 'id': 6471387932, 'lat': -34.1880766, 'lon': 142.156451, 'tags': {'amenity': 'dentist', 'healthcare': 'dentist', 'name': 'Tankard Dental'}}"
"{'type': 'node', 'id': 6471387933, 'lat': -34.1877307, 'lon': 142.1568911, 'tags': {'healthcare': 'optometrist', 'name': 'Mildura Eye Specialists'}}"
"{'type': 'node', 'id': 9378834429, 'lat': -34.1736862, 'lon': 142.1941959, 'tags': {'addr:postcode': '2739', 'addr:state': 'NSW', 'addr:street': 'Sturt Highway', 'addr:suburb': 'Buronga', 'amenity': 'pharmacy', 'dispensing': 'yes', 'drive_through': 'no', 'healthcare': 'pharmacy', 'name': 'Stellar Pharmacy'}}"
"{'type': 'node', 'id': 10307752353, 'lat': -34.20709, 'lon': 142.1392693, 'tags': {'amenity': 'pharmacy', 'brand': 'Chemist Warehouse', 'brand:wikidata': 'Q48782120', 'check_date': '2023-01-05', 'healthcare': 'pharmacy', 'name': 'Chemist Warehouse', 'wheelchair': 'yes'}}"
"{'type': 'node', 'id': 10861778003, 'lat': -34.1845536, 'lon': 142.1439005, 'tags': {'amenity': 'clinic', 'healthcare': 'clinic', 'name': 'Ramsay Specialist Health Clinic'}}"
"{'type': 'node', 'id': 10861898017, 'lat': -34.1836514, 'lon': 142.1440413, 'tags': {'addr:housenumber': '203', 'addr:postcode': '3500', 'addr:state': 'VIC', 'addr:street': 'Ontario Avenue', 'addr:suburb': 'Mildura', 'healthcare': 'audiologist', 'name': 'Country Hearing Care Mildura', 'website': 'https://www.chcare.com.au/audiologist-hearing-test-clinics/hearing-aid-clinic-mildura/'}}"
"{'type': 'node', 'id': 12121796129, 'lat': -34.2328282, 'lon': 142.1688299, 'tags': {'amenity': 'clinic', 'healthcare': 'clinic', 'name': 'Irymple Medical Centre'}}"
"{'type': 'node', 'id': 12121796130, 'lat': -34.2330151, 'lon': 142.1685794, 'tags': {'amenity': 'dentist', 'healthcare': 'dentist', 'name': 'Tankard Dental'}}"
