OSM_Data
"{'type': 'node', 'id': 2187479386, 'lat': 40.1577882, 'lon': 47.1674764, 'tags': {'amenity': 'hospital', 'name': 'Quzanlı Xəstəxanası'}}"
"{'type': 'node', 'id': 3698960698, 'lat': 40.1865516, 'lon': 46.6443341, 'tags': {'amenity': 'hospital'}}"
"{'type': 'node', 'id': 4109036189, 'lat': 40.6090043, 'lon': 47.1468875, 'tags': {'amenity': 'pharmacy'}}"
"{'type': 'node', 'id': 4290978295, 'lat': 40.7599039, 'lon': 47.0499522, 'tags': {'addr:street': '20 Yanvar küçəsi', 'amenity': 'hospital', 'internet_access': 'wlan', 'name': 'Proktologiya \\ Mingəçevir', 'phone': '+994242741703'}}"
"{'type': 'node', 'id': 4321304399, 'lat': 40.2213075, 'lon': 47.7078744, 'tags': {'amenity': 'pharmacy'}}"
"{'type': 'node', 'id': 4321341892, 'lat': 40.211862, 'lon': 47.7061638, 'tags': {'amenity': 'pharmacy'}}"
"{'type': 'node', 'id': 4367458998, 'lat': 40.6090677, 'lon': 47.146221, 'tags': {'amenity': 'pharmacy', 'name:ru': 'Аптека'}}"
"{'type': 'node', 'id': 4434356995, 'lat': 41.1801197, 'lon': 47.1696746, 'tags': {'amenity': 'pharmacy'}}"
"{'type': 'node', 'id': 4434357091, 'lat': 41.157544, 'lon': 47.1793941, 'tags': {'amenity': 'dentist', 'healthcare': 'dentist'}}"
"{'type': 'node', 'id': 4434357693, 'lat': 41.1968056, 'lon': 47.1669747, 'tags': {'amenity': 'pharmacy'}}"
"{'type': 'node', 'id': 4434357893, 'lat': 41.1574512, 'lon': 47.1797744, 'tags': {'amenity': 'pharmacy', 'phone': '5960712'}}"
"{'type': 'node', 'id': 4434387491, 'lat': 41.1700924, 'lon': 47.1677607, 'tags': {'amenity': 'dentist', 'healthcare': 'dentist'}}"
"{'type': 'node', 'id': 4434387889, 'lat': 41.168896, 'lon': 47.1673282, 'tags': {'amenity': 'pharmacy', 'name': 'Aptek \\ Şəki'}}"
"{'type': 'node', 'id': 4434387893, 'lat': 41.20006, 'lon': 47.1672055, 'tags': {'amenity': 'pharmacy', 'name': 'Aptek \\ Şəki', 'phone': '0125960712'}}"
"{'type': 'node', 'id': 4434725391, 'lat': 41.2002887, 'lon': 47.1916817, 'tags': {'amenity': 'pharmacy', 'healthcare': 'pharmacy', 'name': 'Buta Aptek', 'name:en': 'Dokta'}}"
"{'type': 'node', 'id': 4434725589, 'lat': 41.2015887, 'lon': 47.1778458, 'tags': {'amenity': 'pharmacy', 'healthcare': 'pharmacy', 'name': 'Zeytun-6'}}"
"{'type': 'node', 'id': 4436660990, 'lat': 41.203525, 'lon': 47.1791075, 'tags': {'amenity': 'pharmacy', 'healthcare': 'pharmacy', 'name': 'Buta Aptek', 'phone': '+994 50 596 07 12'}}"
"{'type': 'node', 'id': 4539260689, 'lat': 40.7607027, 'lon': 47.0671849, 'tags': {'amenity': 'pharmacy', 'name': 'Zeytun Aptek'}}"
"{'type': 'node', 'id': 4569010590, 'lat': 41.0596016, 'lon': 47.4647406, 'tags': {'amenity': 'hospital', 'name': 'Oğuz Rayon Mərkəzi Xəstəxanası'}}"
"{'type': 'node', 'id': 4569362992, 'lat': 41.068204, 'lon': 47.4630929, 'tags': {'amenity': 'pharmacy', 'name': 'Aptek Fuad \\ Oğuz'}}"
"{'type': 'node', 'id': 4569385095, 'lat': 41.0668071, 'lon': 47.46369, 'tags': {'amenity': 'pharmacy', 'name': 'Aptek 7/24'}}"
"{'type': 'node', 'id': 4569458492, 'lat': 41.0685996, 'lon': 47.4617236, 'tags': {'amenity': 'pharmacy', 'name': 'Baytar'}}"
"{'type': 'node', 'id': 4592207195, 'lat': 40.7706223, 'lon': 47.0554313, 'tags': {'amenity': 'clinic', 'name': 'Dish poliklinikasi', 'name:ru': 'Стоматолог'}}"
"{'type': 'node', 'id': 4622205799, 'lat': 40.7676946, 'lon': 47.0522161, 'tags': {'amenity': 'clinic', 'name': 'Evromed Klinikası Avromed'}}"
"{'type': 'node', 'id': 4715044490, 'lat': 40.7661192, 'lon': 47.0451733, 'tags': {'addr:postcode': 'AZ4500', 'amenity': 'pharmacy', 'name': 'Zeytun 6 \\ Mingəçevir', 'name:az': 'Yaşıl Aptek \\ Mingəçevir'}}"
"{'type': 'node', 'id': 4862111524, 'lat': 41.1731814, 'lon': 47.1701846, 'tags': {'addr:housenumber': '40b', 'addr:postcode': '5506', 'addr:street': 'Abid əfəndiyev küçəsi', 'amenity': 'dentist', 'email': 'dr.parviz.suleymanov@gmail.com', 'healthcare': 'dentist', 'internet_access': 'wlan', 'name': 'Diş həkimi Pərviz', 'opening_hours': '24/7', 'phone': '+994554993336', 'website': 'http://parvizsuleymanov.blogspot.com'}}"
"{'type': 'node', 'id': 4942427123, 'lat': 40.2174789, 'lon': 46.8267514, 'tags': {'addr:street': 'Sakharov street', 'amenity': 'pharmacy', 'name': '1000+1 Аптека', 'name:en': '1000+1 Pharmacy', 'name:ru': '1000+1 Аптека', 'opening_hours': 'Mo-Su 09:00-21:00'}}"
"{'type': 'node', 'id': 4942427625, 'lat': 40.2175581, 'lon': 46.8262657, 'tags': {'amenity': 'hospital', 'healthcare': 'hospital', 'name:en': 'Martakert Hospital', 'name:ru': 'Больница Мартакерт'}}"
"{'type': 'node', 'id': 4942434821, 'lat': 40.2173974, 'lon': 46.8273779, 'tags': {'amenity': 'pharmacy'}}"
"{'type': 'node', 'id': 5142485927, 'lat': 41.1948772, 'lon': 47.1756361, 'tags': {'amenity': 'hospital', 'name:en': 'Central Perinetal clinic', 'name:ru': 'Роддом'}}"
"{'type': 'node', 'id': 5142511521, 'lat': 41.1976795, 'lon': 47.1760249, 'tags': {'amenity': 'pharmacy', 'healthcare': 'pharmacy', 'name': 'Buta Aptek'}}"
"{'type': 'node', 'id': 5162875026, 'lat': 41.2001275, 'lon': 47.1767528, 'tags': {'amenity': 'pharmacy', 'healthcare': 'pharmacy', 'name': 'Dokta Aptek', 'name:en': 'Apotheke 24/7', 'name:ru': 'Аптек 24/7'}}"
"{'type': 'node', 'id': 5302470423, 'lat': 40.7647346, 'lon': 47.0619779, 'tags': {'amenity': 'pharmacy', 'name': 'Aptek'}}"
"{'type': 'node', 'id': 5354844921, 'lat': 41.4161002, 'lon': 46.9317801, 'tags': {'addr:street': '9 Aprel küç.', 'amenity': 'hospital', 'emergency': 'yes', 'internet_access': 'wlan', 'name': 'Mərkəzi Xəstəxana \\ Qax', 'name:tr': 'Hastane', 'opening_hours': '24/7'}}"
"{'type': 'node', 'id': 5867037585, 'lat': 41.197129, 'lon': 47.1753207, 'tags': {'amenity': 'pharmacy', 'healthcare': 'pharmacy', 'name': 'Zəfəran Aptek', 'name:en': 'Zafaran Aptek'}}"
"{'type': 'node', 'id': 5979206885, 'lat': 41.4157092, 'lon': 46.9318463, 'tags': {'amenity': 'hospital', 'healthcare': 'hospital', 'name': 'Uşaq Xəstəxanası Poliklinikası \\ Qax', 'opening_hours': '24/7'}}"
"{'type': 'node', 'id': 6010366987, 'lat': 40.9424672, 'lon': 47.6845481, 'tags': {'amenity': 'pharmacy'}}"
"{'type': 'node', 'id': 6010381085, 'lat': 40.9407228, 'lon': 47.6658431, 'tags': {'amenity': 'pharmacy', 'name': 'Aptek \\ Nic'}}"
"{'type': 'node', 'id': 6600784399, 'lat': 40.6888105, 'lon': 46.5612699, 'tags': {'amenity': 'pharmacy', 'name': 'Aptek \\ Dəliməmmədli'}}"
"{'type': 'node', 'id': 7365106798, 'lat': 40.2218131, 'lon': 47.7069967, 'tags': {'amenity': 'hospital', 'healthcare': 'hospital', 'name': 'Zərdab Rayon Mərkəzi Xəstəxanası'}}"
"{'type': 'node', 'id': 7365140757, 'lat': 40.3738177, 'lon': 47.1210101, 'tags': {'amenity': 'hospital', 'healthcare': 'hospital', 'name': 'Bərdə Rayon Mərkəzi Xəstəxanası'}}"
"{'type': 'node', 'id': 7365191913, 'lat': 40.5974652, 'lon': 47.1584805, 'tags': {'amenity': 'hospital', 'name': 'Yevlax Mərkəzi Rayon Xəstəxanası'}}"
"{'type': 'node', 'id': 7365217352, 'lat': 40.5115202, 'lon': 47.6650409, 'tags': {'amenity': 'hospital', 'healthcare': 'hospital', 'name': 'Ucar Mərkəzi Rayon Xəstəxanası'}}"
"{'type': 'node', 'id': 7365220021, 'lat': 40.3379901, 'lon': 46.9255079, 'tags': {'amenity': 'hospital', 'healthcare': 'hospital', 'name': 'Tərtər Rayon Mərkəzi Xəstəxanası'}}"
"{'type': 'node', 'id': 7365232287, 'lat': 40.5992105, 'lon': 46.7770499, 'tags': {'amenity': 'hospital', 'healthcare': 'hospital', 'name': 'Goranboy Mərkəzi Xəstəxanası'}}"
"{'type': 'node', 'id': 7365241621, 'lat': 40.6474297, 'lon': 47.4911286, 'tags': {'amenity': 'hospital', 'healthcare': 'hospital', 'name': 'Ağdaş Rayon Mərkəzi Xəstəxanası'}}"
"{'type': 'node', 'id': 7365241622, 'lat': 40.6450815, 'lon': 47.4978467, 'tags': {'amenity': 'hospital', 'healthcare': 'hospital', 'name': 'Ağdaş Mərkəzi Rayon Xəstəxanası'}}"
"{'type': 'node', 'id': 7494486916, 'lat': 41.2030169, 'lon': 47.1674893, 'tags': {'amenity': 'pharmacy', 'dispensing': 'yes', 'healthcare': 'pharmacy', 'name': '""Nur"" apteki'}}"
"{'type': 'node', 'id': 7609117885, 'lat': 40.2033135, 'lon': 46.7890829, 'tags': {'amenity': 'hospital', 'name:en': 'Martakert Hospital', 'name:hy': 'Մարտակերտ Հոսպիտալ', 'name:ru': 'Мартакерт Госпиталь'}}"
"{'type': 'node', 'id': 7716994797, 'lat': 40.1304583, 'lon': 46.4575093, 'tags': {'amenity': 'hospital', 'healthcare': 'hospital'}}"
"{'type': 'node', 'id': 7810137285, 'lat': 41.411614, 'lon': 46.6905404, 'tags': {'amenity': 'hospital', 'name': 'Tibb Məntəqəsi \\ Zəyəm'}}"
"{'type': 'node', 'id': 7942864417, 'lat': 41.0603734, 'lon': 47.4646309, 'tags': {'amenity': 'pharmacy', 'name': 'Aptek'}}"
"{'type': 'node', 'id': 7942919881, 'lat': 41.0761363, 'lon': 47.4666037, 'tags': {'healthcare': 'laboratory', 'name': 'Gigiyena Epidemiologiya'}}"
"{'type': 'node', 'id': 7964810544, 'lat': 41.1382909, 'lon': 47.2329953, 'tags': {'amenity': 'pharmacy', 'name': 'Dokta Zəyzid Apteki'}}"
"{'type': 'node', 'id': 7982613749, 'lat': 41.2005582, 'lon': 47.1891949, 'tags': {'amenity': 'clinic', 'healthcare': 'clinic', 'name': '1 saylı Terapiya şöbəsi'}}"
"{'type': 'node', 'id': 7985559708, 'lat': 41.1577299, 'lon': 47.1821863, 'tags': {'amenity': 'hospital', 'name': 'Mərkəzi Xəstəxana \\ Şəki'}}"
"{'type': 'node', 'id': 7985681915, 'lat': 41.1763081, 'lon': 47.1812877, 'tags': {'amenity': 'clinic', 'name': 'Rusi Əsəb Dispanseri'}}"
"{'type': 'node', 'id': 7985800271, 'lat': 41.2002404, 'lon': 47.1767078, 'tags': {'amenity': 'clinic', 'name': 'Təcili Yardım Şəki'}}"
"{'type': 'node', 'id': 7985800280, 'lat': 41.1994483, 'lon': 47.1762103, 'tags': {'amenity': 'pharmacy', 'name': 'Lider Aptek'}}"
"{'type': 'node', 'id': 7985800282, 'lat': 41.1978317, 'lon': 47.1777928, 'tags': {'amenity': 'clinic', 'healthcare': 'clinic', 'name': 'Alyans Med'}}"
"{'type': 'node', 'id': 7985800284, 'lat': 41.1973776, 'lon': 47.1769908, 'tags': {'amenity': 'clinic', 'healthcare': 'clinic', 'name': 'Otomed Klinika'}}"
"{'type': 'node', 'id': 7993080954, 'lat': 41.1601754, 'lon': 47.1643375, 'tags': {'amenity': 'hospital', 'name': 'Əlillərin Bərpa Mərkəzi \\ Şəki'}}"
"{'type': 'node', 'id': 8033019612, 'lat': 41.2787579, 'lon': 47.0048574, 'tags': {'amenity': 'pharmacy', 'name': 'Yaşıl Aptek \\ Göynük'}}"
"{'type': 'node', 'id': 8400708457, 'lat': 40.9709089, 'lon': 47.1183524, 'tags': {'amenity': 'pharmacy', 'name': 'Aptek'}}"
"{'type': 'node', 'id': 8416558540, 'lat': 40.857879, 'lon': 47.2430067, 'tags': {'amenity': 'pharmacy', 'name': 'Aptek \\ Turan'}}"
"{'type': 'node', 'id': 8416558568, 'lat': 40.8577948, 'lon': 47.2410929, 'tags': {'amenity': 'hospital', 'name': 'Doğum Evi \\ Turan'}}"
"{'type': 'node', 'id': 8485007917, 'lat': 41.1978496, 'lon': 47.1787175, 'tags': {'addr:street': 'Axundov küç.', 'amenity': 'clinic', 'email': 'alyansclinic.sheki@mail.ru', 'healthcare': 'clinic', 'internet_access': 'wlan', 'name:en': 'Alyans Clinic', 'opening_hours': '24/7', 'phone': '+994559255511'}}"
"{'type': 'node', 'id': 8572601760, 'lat': 40.7245828, 'lon': 47.2021821, 'tags': {'amenity': 'hospital', 'name': 'Doğum Evi \\ Aşağı Bucaq'}}"
"{'type': 'node', 'id': 8579959510, 'lat': 40.6430725, 'lon': 47.4939863, 'tags': {'amenity': 'clinic', 'name': 'Aynur Diaqnostika Mərkəzi'}}"
"{'type': 'node', 'id': 9095245838, 'lat': 40.7028972, 'lon': 47.5450301, 'tags': {'amenity': 'hospital', 'name': 'Poliklinikaa'}}"
"{'type': 'node', 'id': 9099193689, 'lat': 40.6868457, 'lon': 47.5144583, 'tags': {'amenity': 'hospital', 'name': 'Xəstəxana'}}"
"{'type': 'node', 'id': 9111881602, 'lat': 40.6168365, 'lon': 47.5283656, 'tags': {'amenity': 'hospital', 'name': 'Xəstəxana'}}"
"{'type': 'node', 'id': 9162697823, 'lat': 40.514364, 'lon': 47.6497409, 'tags': {'amenity': 'hospital', 'name': 'Doğum Evi \\ Ucar'}}"
"{'type': 'node', 'id': 9162884793, 'lat': 40.5092588, 'lon': 47.6513609, 'tags': {'amenity': 'clinic', 'name': 'Poliklinika \\ Ucar'}}"
"{'type': 'node', 'id': 9162891060, 'lat': 40.4958543, 'lon': 47.663396, 'tags': {'amenity': 'pharmacy', 'name': 'Aptek \\ Ucar'}}"
"{'type': 'node', 'id': 9162891165, 'lat': 40.4956473, 'lon': 47.6640625, 'tags': {'amenity': 'pharmacy', 'name': 'Aptek'}}"
"{'type': 'node', 'id': 9194011759, 'lat': 40.5534815, 'lon': 47.424674, 'tags': {'amenity': 'hospital', 'name': 'Doğum Evi 2'}}"
"{'type': 'node', 'id': 9216757048, 'lat': 40.646168, 'lon': 47.4725649, 'tags': {'amenity': 'clinic', 'name': 'Təcili Yardım Ağdaş'}}"
"{'type': 'node', 'id': 9216757049, 'lat': 40.6464, 'lon': 47.472471, 'tags': {'amenity': 'hospital', 'name': 'Uşaq Poliklinikası Ağdaş'}}"
"{'type': 'node', 'id': 9216757073, 'lat': 40.6442427, 'lon': 47.4735171, 'tags': {'amenity': 'pharmacy', 'name': 'Aptek'}}"
"{'type': 'node', 'id': 9216760447, 'lat': 40.6411268, 'lon': 47.4711218, 'tags': {'amenity': 'pharmacy', 'name': 'Aptek'}}"
"{'type': 'node', 'id': 9216764950, 'lat': 40.6416051, 'lon': 47.4747509, 'tags': {'amenity': 'pharmacy', 'name': 'Aptek'}}"
"{'type': 'node', 'id': 9216781331, 'lat': 40.6468864, 'lon': 47.4787822, 'tags': {'amenity': 'pharmacy', 'name': 'Aptek'}}"
"{'type': 'node', 'id': 9216832092, 'lat': 40.6481909, 'lon': 47.491233, 'tags': {'amenity': 'hospital', 'name': 'Tibbi Ekspertiza Ağdaş'}}"
"{'type': 'node', 'id': 9216869304, 'lat': 40.6488583, 'lon': 47.4585852, 'tags': {'amenity': 'hospital', 'name': 'Doğum Evi 1'}}"
"{'type': 'node', 'id': 9216913035, 'lat': 40.647735, 'lon': 47.4716046, 'tags': {'amenity': 'pharmacy', 'name': 'Aptek'}}"
"{'type': 'node', 'id': 9332629381, 'lat': 40.599352, 'lon': 47.1573275, 'tags': {'amenity': 'clinic', 'name': 'Tibbi Ekspertiza Komissiyası \\ Yevlax'}}"
"{'type': 'node', 'id': 9338563603, 'lat': 40.6083611, 'lon': 47.1398328, 'tags': {'amenity': 'clinic', 'name': 'Dəri Zöhrəvi Xəstəxanası'}}"
"{'type': 'node', 'id': 9341600830, 'lat': 40.6148157, 'lon': 47.1470332, 'tags': {'amenity': 'pharmacy', 'name': 'Aptek \\ Yevlax'}}"
"{'type': 'node', 'id': 9341600847, 'lat': 40.6077482, 'lon': 47.14555, 'tags': {'amenity': 'clinic', 'name': 'Qadın Məsləhətxanası \\ Yevlax'}}"
"{'type': 'node', 'id': 9341696393, 'lat': 40.6050358, 'lon': 47.145102, 'tags': {'amenity': 'pharmacy', 'name': 'Zəfəran Aptek \\ Yevlax'}}"
"{'type': 'node', 'id': 9368262384, 'lat': 40.5878323, 'lon': 47.0745438, 'tags': {'amenity': 'hospital', 'name': 'Xəstəxana'}}"
"{'type': 'node', 'id': 9463883789, 'lat': 40.7571258, 'lon': 47.0877604, 'tags': {'amenity': 'pharmacy', 'name': 'Ömür Aptek \\ Mingəçevir'}}"
"{'type': 'node', 'id': 9464168065, 'lat': 40.7732376, 'lon': 47.0463699, 'tags': {'amenity': 'clinic', 'name': 'Terapevtik Diaqnostika'}}"
"{'type': 'node', 'id': 9464199559, 'lat': 40.7579141, 'lon': 47.0689595, 'tags': {'amenity': 'clinic', 'name': 'Avromed Dəyirman Deposu \\ Mingəçevir'}}"
"{'type': 'node', 'id': 9464261823, 'lat': 40.7600657, 'lon': 47.06606, 'tags': {'amenity': 'pharmacy', 'name': 'Aptek'}}"
"{'type': 'node', 'id': 9464347391, 'lat': 40.7703754, 'lon': 47.0569298, 'tags': {'amenity': 'hospital', 'name': 'Nevroligiya Şöbəsi \\ Mingəçevir'}}"
"{'type': 'node', 'id': 9464347392, 'lat': 40.7704709, 'lon': 47.0577103, 'tags': {'amenity': 'hospital', 'name': 'Psixiatriya Şöbəsi \\ Mingəçevir'}}"
"{'type': 'node', 'id': 9464347393, 'lat': 40.7706314, 'lon': 47.0564711, 'tags': {'amenity': 'hospital', 'name': 'Gigiyena və Epidemiologiya Mərkəzi \\ Mingəçevir'}}"
"{'type': 'node', 'id': 9464347394, 'lat': 40.7699651, 'lon': 47.0558166, 'tags': {'amenity': 'hospital', 'name': 'Kardiologiya Şöbəsi \\ Mingəçevir'}}"
"{'type': 'node', 'id': 9464376829, 'lat': 40.7622131, 'lon': 47.0593826, 'tags': {'amenity': 'pharmacy', 'name': 'Optika'}}"
"{'type': 'node', 'id': 9467034983, 'lat': 40.7730994, 'lon': 47.0474589, 'tags': {'amenity': 'pharmacy', 'name': 'Aptek'}}"
"{'type': 'node', 'id': 9467034984, 'lat': 40.7733553, 'lon': 47.0461392, 'tags': {'amenity': 'pharmacy', 'name': 'Aptek'}}"
"{'type': 'node', 'id': 9468969472, 'lat': 40.7711026, 'lon': 47.0453185, 'tags': {'amenity': 'clinic', 'name': 'Tibbi Diaqnostika'}}"
"{'type': 'node', 'id': 9469122994, 'lat': 40.7593221, 'lon': 47.0546392, 'tags': {'amenity': 'clinic', 'name': 'Şəfa Tibbi Diaqnostika'}}"
"{'type': 'node', 'id': 9469131445, 'lat': 40.7621806, 'lon': 47.050125, 'tags': {'amenity': 'clinic', 'name': 'Ramiz Tibb Mərkəzi \\ Mingəçevir'}}"
"{'type': 'node', 'id': 9472433089, 'lat': 40.7645554, 'lon': 46.9876912, 'tags': {'amenity': 'hospital', 'name': 'Doğum Evi \\ QRES Mingəçevir'}}"
"{'type': 'node', 'id': 9481586067, 'lat': 40.7691038, 'lon': 46.9941902, 'tags': {'amenity': 'hospital', 'name': '2 saylı Poliklinika \\ QRES Mingəçevir'}}"
"{'type': 'node', 'id': 9481668731, 'lat': 40.772753, 'lon': 47.0230521, 'tags': {'amenity': 'clinic', 'name': 'Stomatoloji Klinika'}}"
"{'type': 'node', 'id': 9493751637, 'lat': 40.690112, 'lon': 46.558468, 'tags': {'amenity': 'hospital', 'name': 'Tibb Məntəqəsi Sarovlu'}}"
"{'type': 'node', 'id': 9548155384, 'lat': 40.6970285, 'lon': 46.4786267, 'tags': {'amenity': 'hospital', 'name': 'Xəstəxana'}}"
"{'type': 'node', 'id': 9552879918, 'lat': 40.682488, 'lon': 46.4143959, 'tags': {'amenity': 'pharmacy', 'name': 'Aptek'}}"
"{'type': 'node', 'id': 9566864001, 'lat': 40.7662436, 'lon': 46.4058048, 'tags': {'amenity': 'pharmacy', 'name': 'Aptek'}}"
"{'type': 'node', 'id': 9566890552, 'lat': 40.7651029, 'lon': 46.4050739, 'tags': {'amenity': 'pharmacy', 'name': 'Aptek'}}"
"{'type': 'node', 'id': 9566890567, 'lat': 40.763499, 'lon': 46.4040063, 'tags': {'amenity': 'pharmacy', 'name': 'Aptek'}}"
"{'type': 'node', 'id': 9575844896, 'lat': 40.7544672, 'lon': 46.386407, 'tags': {'amenity': 'pharmacy', 'name': 'Aptek'}}"
"{'type': 'node', 'id': 9948299164, 'lat': 41.418709, 'lon': 46.9153655, 'tags': {'amenity': 'pharmacy', 'name': 'Aptek \\ Qax'}}"
"{'type': 'node', 'id': 9951285611, 'lat': 41.4222358, 'lon': 46.9148115, 'tags': {'amenity': 'pharmacy', 'name': 'Aptek'}}"
"{'type': 'node', 'id': 9951583394, 'lat': 41.1570211, 'lon': 47.1784714, 'tags': {'amenity': 'clinic', 'name': 'Bonum Medikal Klinikası \\ Şəki'}}"
"{'type': 'node', 'id': 10744173501, 'lat': 40.3771458, 'lon': 46.7474426, 'tags': {'amenity': 'pharmacy', 'healthcare': 'pharmacy', 'name': 'Aptek'}}"
"{'type': 'node', 'id': 10837445242, 'lat': 40.9717261, 'lon': 47.4877623, 'tags': {'addr:city': 'Kərimli', 'amenity': 'pharmacy', 'name': 'Aptek \\ Kərimli'}}"
"{'type': 'node', 'id': 11236641936, 'lat': 40.6079172, 'lon': 47.1497181, 'tags': {'amenity': 'pharmacy', 'name': 'Aptek \\ Yevlax'}}"
"{'type': 'node', 'id': 11237074145, 'lat': 40.4623868, 'lon': 47.3317569, 'tags': {'amenity': 'hospital', 'name': 'Tibb Məntəqəsi \\ Abad'}}"
"{'type': 'node', 'id': 11519924144, 'lat': 40.7137363, 'lon': 46.6238093, 'tags': {'amenity': 'hospital', 'name': 'Tibb Məntəqəsi \\ Yolpaq'}}"
"{'type': 'node', 'id': 11531796728, 'lat': 40.6486874, 'lon': 46.5327001, 'tags': {'amenity': 'hospital', 'name': 'Xoylu Tibb Məntəqəsi'}}"
"{'type': 'node', 'id': 11534976712, 'lat': 40.6539763, 'lon': 46.5515184, 'tags': {'amenity': 'hospital', 'name': 'Qaradağlı Tibb Məntəqəsi'}}"
"{'type': 'node', 'id': 11547454020, 'lat': 40.6282321, 'lon': 46.5174249, 'tags': {'amenity': 'hospital', 'name': 'Yolqulular Tibb Məntəqəsi'}}"
"{'type': 'node', 'id': 12141745201, 'lat': 41.2026718, 'lon': 47.1796107, 'tags': {'amenity': 'pharmacy', 'healthcare': 'pharmacy', 'name': 'şəms aptek'}}"
"{'type': 'node', 'id': 12143438422, 'lat': 41.1962533, 'lon': 47.1749463, 'tags': {'amenity': 'pharmacy', 'name': 'Dokta Aptek'}}"
"{'type': 'node', 'id': 12143451285, 'lat': 41.1995729, 'lon': 47.1765447, 'tags': {'amenity': 'pharmacy'}}"
"{'type': 'node', 'id': 12143454519, 'lat': 41.2007923, 'lon': 47.1777811, 'tags': {'amenity': 'pharmacy', 'name': 'Dokta Aptek'}}"
"{'type': 'node', 'id': 12253400601, 'lat': 40.6433752, 'lon': 46.5285433, 'tags': {'amenity': 'pharmacy', 'internet_access': 'wlan', 'level': '1', 'name': 'Aptek / Xoylu', 'opening_hours': 'Mo-Su 09:00-13:00, 14:00-21:00'}}"
"{'type': 'node', 'id': 12346187719, 'lat': 41.4208571, 'lon': 46.9252763, 'tags': {'amenity': 'pharmacy', 'name': 'Aptek \\ Qax'}}"
