OSM_Data
"{'type': 'node', 'id': 292735459, 'lat': 25.2780626, 'lon': 82.954338, 'tags': {'amenity': 'hospital', 'healthcare': 'hospital'}}"
"{'type': 'node', 'id': 293208846, 'lat': 25.2929029, 'lon': 83.0055074, 'tags': {'addr:city': 'Varanasi', 'amenity': 'hospital', 'healthcare': 'hospital', 'name': 'Mata Anandmayee Hosiptal', 'name:etymology:wikidata': 'Q433594'}}"
"{'type': 'node', 'id': 293217529, 'lat': 25.2986311, 'lon': 83.0021003, 'tags': {'amenity': 'hospital', 'healthcare': 'hospital'}}"
"{'type': 'node', 'id': 293268558, 'lat': 25.3162104, 'lon': 83.0050584, 'tags': {'amenity': 'hospital'}}"
"{'type': 'node', 'id': 293440150, 'lat': 25.3384937, 'lon': 82.9959608, 'tags': {'amenity': 'hospital'}}"
"{'type': 'node', 'id': 294127865, 'lat': 25.3460988, 'lon': 83.0372616, 'tags': {'amenity': 'hospital', 'healthcare': 'hospital', 'name': 'Punjabi Hospital'}}"
"{'type': 'node', 'id': 1531237776, 'lat': 25.3044003, 'lon': 82.9791034, 'tags': {'amenity': 'pharmacy', 'healthcare': 'pharmacy'}}"
"{'type': 'node', 'id': 1531237777, 'lat': 25.3041865, 'lon': 82.9784124, 'tags': {'addr:district': 'Varanasi', 'addr:full': 'B 38/46 H Raman Niwas Mahmoorganj', 'addr:postcode': '221002', 'addr:state': 'Uttar Pradesh', 'amenity': 'clinic', 'healthcare': 'clinic', 'name': 'The Apolo Clinic', 'source': 'OpenGovernmentData'}}"
"{'type': 'node', 'id': 3670045564, 'lat': 25.2965812, 'lon': 83.0013293, 'tags': {'addr:district': 'Varanasi', 'addr:full': 'B-27/88-G,Ravindrapuri,Bhelupur', 'addr:postcode': '221005', 'addr:state': 'Uttar Pradesh', 'amenity': 'hospital', 'healthcare': 'hospital', 'name': 'Samvedna Hospital, Varanasi', 'source': 'OpenGovernmentData', 'wheelchair': 'limited'}}"
"{'type': 'node', 'id': 4756103425, 'lat': 25.2747647, 'lon': 83.0048573, 'tags': {'amenity': 'hospital', 'healthcare': 'hospital', 'name:en': 'Faculty of dental science'}}"
"{'type': 'node', 'id': 4817525022, 'lat': 25.2788877, 'lon': 83.0028725, 'tags': {'addr:district': 'Varanasi', 'addr:full': 'Lanka', 'addr:postcode': '221005', 'addr:state': 'Uttar Pradesh', 'amenity': 'hospital', 'email': 'info@heritagehospitals.com', 'healthcare': 'hospital', 'name': 'Heritage Hospitals Ltd', 'source': 'OpenGovernmentData', 'website': 'http://www.heritagehospitals.in'}}"
"{'type': 'node', 'id': 6370611390, 'lat': 25.2965543, 'lon': 83.0058046, 'tags': {'amenity': 'clinic', 'healthcare': 'clinic', 'name': 'Agir pour Benares', 'opening_hours': 'Mo-Sa 09:00-13:00', 'wheelchair': 'limited'}}"
"{'type': 'node', 'id': 6997058091, 'lat': 25.4248667, 'lon': 81.9247846, 'tags': {'addr:district': 'Rewari', 'addr:full': 'Near Leo Chowk, Circular Road', 'addr:postcode': '123401', 'addr:state': 'Haryana', 'amenity': 'hospital', 'name': 'Shakuntla Multi Speciality Hospital', 'source': 'OpenGovernmentData'}}"
"{'type': 'node', 'id': 7018026492, 'lat': 25.1339452, 'lon': 82.5781942, 'tags': {'addr:district': 'Mirzapur', 'addr:full': 'Etawan, Rewa Road', 'addr:postcode': '231001', 'addr:state': 'Uttar Pradesh', 'amenity': 'hospital', 'name': 'Ambedkar Scan Hospital (Pvt.) Ltd.', 'source': 'OpenGovernmentData'}}"
"{'type': 'node', 'id': 7018077765, 'lat': 25.357457, 'lon': 82.9647079, 'tags': {'addr:district': 'Varanasi', 'addr:full': 'Sh8/50 Kh-10, Shivpur Bypass', 'addr:postcode': '221003', 'addr:state': 'Uttar Pradesh', 'amenity': 'hospital', 'healthcare': 'hospital', 'name': 'Shekhar Hospital and Research Center', 'source': 'OpenGovernmentData'}}"
"{'type': 'node', 'id': 7018148424, 'lat': 25.3504181, 'lon': 82.9967603, 'tags': {'addr:district': 'Varanasi', 'addr:full': 'Pandeypur (Ghazipur Road)', 'addr:postcode': '221002', 'addr:state': 'Uttar Pradesh', 'amenity': 'hospital', 'name': 'Nishant Maternity And Children Hospital', 'source': 'OpenGovernmentData'}}"
"{'type': 'node', 'id': 7018318889, 'lat': 25.3901604, 'lon': 82.567336, 'tags': {'addr:district': 'Bhadohi', 'addr:full': 'Gyanpur Road', 'addr:postcode': '221401', 'addr:state': 'Uttar Pradesh', 'amenity': 'clinic', 'name': 'Bk Nursing Home', 'source': 'OpenGovernmentData'}}"
"{'type': 'node', 'id': 7018342504, 'lat': 25.7470184, 'lon': 82.6795542, 'tags': {'addr:city': 'jaunpur', 'addr:district': 'Jaunpur', 'addr:full': 'Tarapur, Badlapurparav', 'addr:postcode': '222002', 'addr:state': 'Uttar Pradesh', 'addr:street': 'olandjanj road', 'amenity': 'hospital', 'healthcare': 'hospital', 'name': 'Samarpit Hospital', 'source': 'OpenGovernmentData'}}"
"{'type': 'node', 'id': 7018342577, 'lat': 25.3848185, 'lon': 82.5858783, 'tags': {'addr:district': 'Bhadohi', 'addr:full': 'Chauri Road, Bhadohi, Sant Ravidas Nagar Infront Of C.H.C', 'addr:postcode': '221401', 'addr:state': 'Uttar Pradesh', 'amenity': 'hospital', 'name': 'Akash Hospital', 'source': 'OpenGovernmentData'}}"
"{'type': 'node', 'id': 7018342593, 'lat': 25.7367334, 'lon': 82.6761398, 'tags': {'addr:district': 'Jaunpur', 'addr:full': 'Polytehnic Chauraha Polytehnic Chauraha', 'addr:postcode': '222001', 'addr:state': 'Uttar Pradesh', 'amenity': 'hospital', 'name': 'Parth Hospital, Jaunpur', 'source': 'OpenGovernmentData'}}"
"{'type': 'node', 'id': 7018342598, 'lat': 25.247891, 'lon': 82.9940164, 'tags': {'addr:district': 'Varanasi', 'addr:full': 'Dafi, Lanka, Beside Toll Tax Plaza N. H. - 2', 'addr:postcode': '221011', 'addr:state': 'Uttar Pradesh', 'amenity': 'hospital', 'name': 'Shri Gangaram Memorial Hospital', 'source': 'OpenGovernmentData'}}"
"{'type': 'node', 'id': 7018342641, 'lat': 25.735593, 'lon': 82.6994187, 'tags': {'addr:district': 'Jaunpur', 'addr:full': '702, Vishesharpur P Sheetala Chaukiya,Azamgarh Road', 'addr:postcode': '222001', 'addr:state': 'Uttar Pradesh', 'amenity': 'clinic', 'name': 'Kunwar Das Sewashram Nursing Home', 'source': 'OpenGovernmentData'}}"
"{'type': 'node', 'id': 7018419913, 'lat': 25.3669118, 'lon': 83.0259106, 'tags': {'addr:district': 'Varanasi', 'addr:full': '5A-15/144, 57/58,Lohiya Nagar, Sarnath, Ashapur', 'addr:postcode': '221002', 'addr:state': 'Uttar Pradesh', 'amenity': 'hospital', 'name': 'Real Reliance Hospital', 'source': 'OpenGovernmentData'}}"
"{'type': 'node', 'id': 7018563756, 'lat': 25.3068304, 'lon': 82.9978198, 'tags': {'addr:district': 'Varanasi', 'addr:full': 'd-45, 5,Ramapura Luxa', 'addr:postcode': '221010', 'addr:state': 'Uttar Pradesh', 'amenity': 'hospital', 'name': 'Ramakrishna Mission Home Of Service', 'source': 'OpenGovernmentData'}}"
"{'type': 'node', 'id': 7018620925, 'lat': 25.3264652, 'lon': 82.9927117, 'tags': {'addr:district': 'Varanasi', 'addr:full': 'S-14/84G Taliyabagh Near Patel Dharmshala', 'addr:postcode': '221002', 'addr:state': 'Uttar Pradesh', 'amenity': 'hospital', 'name': 'Singh Medical And Surgical Centre', 'source': 'OpenGovernmentData'}}"
"{'type': 'node', 'id': 7018624900, 'lat': 24.5184316, 'lon': 83.0270827, 'tags': {'addr:district': 'Sonbhadra', 'addr:full': 'Near Chopan Railway Crossing,Chopan', 'addr:postcode': '231205', 'addr:state': 'Uttar Pradesh', 'amenity': 'clinic', 'name': 'Ramakant Hospital', 'source': 'OpenGovernmentData'}}"
"{'type': 'node', 'id': 7018689727, 'lat': 25.3246623, 'lon': 83.0149859, 'tags': {'addr:district': 'Varanasi', 'addr:full': 'Pilikothi Pilikothi', 'addr:postcode': '221001', 'addr:state': 'Uttar Pradesh', 'amenity': 'hospital', 'name': 'Jamea Hospital', 'source': 'OpenGovernmentData'}}"
"{'type': 'node', 'id': 7018796571, 'lat': 25.3051973, 'lon': 82.9805182, 'tags': {'addr:district': 'Varanasi', 'addr:full': 'D 63/6- K Prime Tower, Mahmoorganj', 'addr:postcode': '221010', 'addr:state': 'Uttar Pradesh', 'amenity': 'hospital', 'healthcare': 'hospital', 'name': 'Surya Super Speciality Hospital', 'source': 'OpenGovernmentData', 'website': 'https://suryahealthcare.in/'}}"
"{'type': 'node', 'id': 7018865946, 'lat': 25.315928, 'lon': 82.9106507, 'tags': {'addr:district': 'Varanasi', 'addr:full': 'Korauta,Lohta,Gopalpur', 'addr:postcode': '221107', 'addr:state': 'Uttar Pradesh', 'amenity': 'hospital', 'name': 'St Mary Hospital', 'source': 'OpenGovernmentData'}}"
"{'type': 'node', 'id': 7018940021, 'lat': 25.2859572, 'lon': 83.1136657, 'tags': {'addr:district': 'Mirzapur', 'addr:full': '224, Ravinagar, Mugalsari, Chandoli', 'addr:postcode': '231309', 'addr:state': 'Uttar Pradesh', 'amenity': 'clinic', 'name': 'Ashutosh Maternity And Nursing Home', 'source': 'OpenGovernmentData'}}"
"{'type': 'node', 'id': 7018944966, 'lat': 25.386875, 'lon': 82.5805774, 'tags': {'addr:district': 'Bhadohi', 'addr:full': 'Chauri Road, Bhadohi, Sant Ravidas Nagar Rewra Prasaspur, Varanasi', 'addr:postcode': '221401', 'addr:state': 'Uttar Pradesh', 'amenity': 'clinic', 'name': 'Rajhans Nursing Home', 'source': 'OpenGovernmentData'}}"
"{'type': 'node', 'id': 7018944971, 'lat': 25.7468347, 'lon': 82.6938939, 'tags': {'addr:district': 'Jaunpur', 'addr:full': 'Opposite Hotel River View, Balua Ghat', 'addr:postcode': '222001', 'addr:state': 'Uttar Pradesh', 'amenity': 'clinic', 'name': 'Narayan Nursing Home', 'source': 'OpenGovernmentData'}}"
"{'type': 'node', 'id': 7018944982, 'lat': 25.4125248, 'lon': 82.0312985, 'tags': {'addr:district': 'Allahabad', 'addr:full': 'G.T.Road,Beekapur,Hanumanganj', 'addr:postcode': '221505', 'addr:state': 'Uttar Pradesh', 'amenity': 'clinic', 'name': 'Adarsh Clinic and Surgical Center', 'source': 'OpenGovernmentData'}}"
"{'type': 'node', 'id': 7019031503, 'lat': 25.3500933, 'lon': 83.0317504, 'tags': {'addr:district': 'Varanasi', 'addr:full': '45, Panchkroshi Marg Infront Of Rasoolgarh, Post Office-Salarpur', 'addr:postcode': '221007', 'addr:state': 'Uttar Pradesh', 'amenity': 'hospital', 'name': 'Mukti Mission Sewa Hospital', 'source': 'OpenGovernmentData'}}"
"{'type': 'node', 'id': 7019062615, 'lat': 25.2981978, 'lon': 82.9477684, 'tags': {'addr:district': 'Varanasi', 'addr:full': 'S.M. Plot No. 4(Part) G.T. Road Madhauli', 'addr:postcode': '221104', 'addr:state': 'Uttar Pradesh', 'amenity': 'hospital', 'name': 'Meghna Hospital and Research Center', 'source': 'OpenGovernmentData'}}"
"{'type': 'node', 'id': 7019186945, 'lat': 25.3586252, 'lon': 82.952923, 'tags': {'addr:district': 'Varanasi', 'addr:full': '#515/47, Panchhosh Road,Shirpur,Behind Shivpur Rana', 'addr:postcode': '221003', 'addr:state': 'Uttar Pradesh', 'amenity': 'hospital', 'healthcare': 'hospital', 'name': 'Jamuna Sewa Sadan and Research Centre', 'source': 'OpenGovernmentData'}}"
"{'type': 'node', 'id': 7019191839, 'lat': 25.4302771, 'lon': 82.8618097, 'tags': {'addr:district': 'Varanasi', 'addr:full': 'Badatpur Bazar', 'addr:postcode': '221002', 'addr:state': 'Uttar Pradesh', 'amenity': 'hospital', 'name': 'Sanmukh Hospital', 'source': 'OpenGovernmentData'}}"
"{'type': 'node', 'id': 7019246517, 'lat': 25.2932811, 'lon': 82.9965229, 'tags': {'addr:district': 'Varanasi', 'addr:full': 'B-50, Jawahar Nagar Extn Bhelupur', 'addr:postcode': '221010', 'addr:state': 'Uttar Pradesh', 'amenity': 'hospital', 'name': 'Varanasi Hospital And Medical Research Centre', 'source': 'OpenGovernmentData'}}"
"{'type': 'node', 'id': 7019285041, 'lat': 25.3502193, 'lon': 83.0226852, 'tags': {'addr:district': 'Varanasi', 'addr:full': 'Sa-20/162-A-4-H Paigambarpur Ashok Bihar Road Panchkroshi Churaha', 'addr:postcode': '221007', 'addr:state': 'Uttar Pradesh', 'amenity': 'clinic', 'name': 'Haribandhu Fracture Clinic Pvt Ltd.', 'source': 'OpenGovernmentData'}}"
"{'type': 'node', 'id': 7019341050, 'lat': 25.3869981, 'lon': 82.592479, 'tags': {'addr:district': 'Bhadohi', 'addr:full': 'Indra Mill Square,Jeevan Deep Road', 'addr:postcode': '221401', 'addr:state': 'Uttar Pradesh', 'amenity': 'hospital', 'name': 'Jeevan Deep Hospital, Bhadohi', 'source': 'OpenGovernmentData'}}"
"{'type': 'node', 'id': 7020001212, 'lat': 25.342448, 'lon': 82.9774846, 'tags': {'addr:district': 'Varanasi', 'addr:full': 'S-2, 639/19,Mritunjaya Dham Colony,Kachari-Central Jail Road,Sikrol', 'addr:postcode': '221003', 'addr:state': 'Uttar Pradesh', 'amenity': 'hospital', 'name': 'Ajay Hospital Accident Care and Surgical Hospital', 'source': 'OpenGovernmentData'}}"
"{'type': 'node', 'id': 7020390438, 'lat': 25.3026937, 'lon': 82.952709, 'tags': {'addr:district': 'Varanasi', 'addr:full': 'Chandpur, Mudaila', 'addr:postcode': '221002', 'addr:state': 'Uttar Pradesh', 'amenity': 'hospital', 'email': 'contact@jansevahospital.com', 'name': 'Janseva Hospital, Varanasi', 'operator:type': 'private', 'source': 'OpenGovernmentData', 'website': 'www.jansevahospital.com'}}"
"{'type': 'node', 'id': 7020474631, 'lat': 25.1622923, 'lon': 82.5050135, 'tags': {'addr:district': 'Mirzapur', 'addr:full': 'Vidhyachal Nagar(City) Vidhyachal', 'addr:postcode': '231307', 'addr:state': 'Uttar Pradesh', 'healthcare': 'centre', 'name': 'CHC, Vidhyachal', 'source': 'OpenGovernmentData'}}"
"{'type': 'node', 'id': 7020474641, 'lat': 24.9301524, 'lon': 82.6751353, 'tags': {'addr:district': 'Mirzapur', 'addr:full': 'Marihan', 'addr:postcode': '231310', 'addr:state': 'Uttar Pradesh', 'healthcare': 'centre', 'name': 'CHC, Marihan', 'source': 'OpenGovernmentData'}}"
"{'type': 'node', 'id': 7020482643, 'lat': 25.3043668, 'lon': 82.9815736, 'tags': {'addr:district': 'Varanasi', 'addr:full': 'D,59/71-B,Mehmoorganj', 'addr:postcode': '221001', 'addr:state': 'Uttar Pradesh', 'amenity': 'hospital', 'healthcare': 'hospital', 'name': 'Arunoday Hospital', 'source': 'OpenGovernmentData'}}"
"{'type': 'node', 'id': 7020518338, 'lat': 25.2555496, 'lon': 82.9586595, 'tags': {'addr:district': 'Varanasi', 'addr:full': 'Awleshpur, Chunar Road', 'addr:postcode': '221108', 'addr:state': 'Uttar Pradesh', 'amenity': 'hospital', 'name': 'Sneha Hospital', 'name:hi': 'स्नेहा अस्पताल', 'source': 'OpenGovernmentData'}}"
"{'type': 'node', 'id': 7020522550, 'lat': 25.3023421, 'lon': 82.9645711, 'tags': {'addr:district': 'Varanasi', 'addr:full': 'Near Police Station, Manduadih', 'addr:postcode': '221002', 'addr:state': 'Uttar Pradesh', 'amenity': 'hospital', 'healthcare': 'hospital', 'name': 'Varuna Hospital', 'source': 'OpenGovernmentData'}}"
"{'type': 'node', 'id': 7020522555, 'lat': 25.3006034, 'lon': 82.9560819, 'tags': {'addr:district': 'Varanasi', 'addr:full': 'Monduadin Mahraulli', 'addr:postcode': '221108', 'addr:state': 'Uttar Pradesh', 'amenity': 'hospital', 'name': 'Vivek Hospital, Varanasi', 'source': 'OpenGovernmentData'}}"
"{'type': 'node', 'id': 7020598899, 'lat': 25.1379724, 'lon': 82.5761953, 'tags': {'addr:city': 'Mirzapur', 'addr:city:ur': 'مرزاپور', 'addr:district': 'Mirzapur', 'addr:postcode': '231001', 'addr:state': 'Uttar Pradesh', 'addr:street': '452', 'amenity': 'hospital', 'healthcare': 'hospital', 'name': 'Viveka Nand Hospital and Research Centre', 'source': 'OpenGovernmentData'}}"
"{'type': 'node', 'id': 7020619635, 'lat': 25.7354553, 'lon': 82.6797527, 'tags': {'addr:district': 'Jaunpur', 'addr:full': 'Sundernaar, Umarpur, Haribandhanpur', 'addr:postcode': '222002', 'addr:state': 'Uttar Pradesh', 'amenity': 'hospital', 'name': 'Siddharth Multi Speciality Hospital Science and Research Center', 'source': 'OpenGovernmentData'}}"
"{'type': 'node', 'id': 7020766367, 'lat': 25.3579308, 'lon': 83.0112496, 'tags': {'addr:district': 'Varanasi', 'addr:full': 'Sa 6-174-A B Aktha Gazipur Road Pahariya', 'addr:postcode': '221007', 'addr:state': 'Uttar Pradesh', 'amenity': 'hospital', 'name': 'Sarthak Surgical Center', 'source': 'OpenGovernmentData'}}"
"{'type': 'node', 'id': 7020925931, 'lat': 25.2835877, 'lon': 82.9983911, 'tags': {'addr:district': 'Varanasi', 'addr:full': 'Sankatmochan', 'addr:postcode': '221001', 'addr:state': 'Uttar Pradesh', 'amenity': 'hospital', 'name': 'Sankatmochan Netralaya and Dental Care', 'source': 'OpenGovernmentData'}}"
"{'type': 'node', 'id': 7020925941, 'lat': 25.2960203, 'lon': 82.9991037, 'tags': {'addr:district': 'Varanasi', 'addr:full': '64-Jawahar Nagar,Bhelupur', 'addr:postcode': '221005', 'addr:state': 'Uttar Pradesh', 'amenity': 'hospital', 'name': 'Navjeevan Hospital, Varanasi', 'source': 'OpenGovernmentData'}}"
"{'type': 'node', 'id': 7020925982, 'lat': 25.5683382, 'lon': 82.4759209, 'tags': {'addr:district': 'Jaunpur', 'addr:full': 'Barsathi', 'addr:postcode': '222162', 'addr:state': 'Uttar Pradesh', 'healthcare': 'centre', 'name': 'CHC, Barsathi', 'source': 'OpenGovernmentData'}}"
"{'type': 'node', 'id': 7020925999, 'lat': 25.6431209, 'lon': 82.9167767, 'tags': {'addr:district': 'Jaunpur', 'addr:full': 'Kerakat', 'addr:postcode': '222142', 'addr:state': 'Uttar Pradesh', 'healthcare': 'centre', 'name': 'CHC, Kerrakot', 'source': 'OpenGovernmentData'}}"
"{'type': 'node', 'id': 7020926067, 'lat': 25.2774771, 'lon': 82.9661643, 'tags': {'addr:district': 'Varanasi', 'addr:full': 'Kendriya Vidyalaya Road , Bhikharipur', 'addr:postcode': '221004', 'addr:state': 'Uttar Pradesh', 'amenity': 'hospital', 'healthcare': 'hospital', 'name': 'Dr. Sarojini Singh Hospital', 'source': 'OpenGovernmentData'}}"
"{'type': 'node', 'id': 7020926072, 'lat': 25.3945146, 'lon': 82.566994, 'tags': {'addr:district': 'Bhadohi', 'addr:full': 'Station Road Station Road', 'addr:postcode': '221401', 'addr:state': 'Uttar Pradesh', 'amenity': 'hospital', 'name': 'Soumya Hospital', 'source': 'OpenGovernmentData'}}"
"{'type': 'node', 'id': 7020930989, 'lat': 25.3153485, 'lon': 82.9855648, 'tags': {'addr:district': 'Varanasi', 'addr:full': 'C-33/52-Ie, Chandua Chittupur, Sigra', 'addr:postcode': '221002', 'addr:state': 'Uttar Pradesh', 'amenity': 'hospital', 'name': 'Nandini Medicare', 'source': 'OpenGovernmentData'}}"
"{'type': 'node', 'id': 7021128432, 'lat': 25.3117923, 'lon': 82.9856793, 'tags': {'addr:district': 'Varanasi', 'addr:full': 'Varanasi', 'addr:postcode': '221002', 'addr:state': 'Uttar Pradesh', 'amenity': 'hospital', 'healthcare': 'hospital', 'name': 'Shubham Hospitals', 'source': 'OpenGovernmentData'}}"
"{'type': 'node', 'id': 7021135160, 'lat': 25.2890796, 'lon': 82.9708877, 'tags': {'addr:district': 'Chandauli', 'addr:full': 'D.L.W. Road, Kakarmatta', 'addr:postcode': '221009', 'addr:state': 'Uttar Pradesh', 'amenity': 'clinic', 'name': 'J.P. Hospital and Surgical Centre', 'source': 'OpenGovernmentData'}}"
"{'type': 'node', 'id': 7021222667, 'lat': 25.2596764, 'lon': 83.0338507, 'tags': {'addr:district': 'Varanasi', 'addr:full': 'Bhiti, Ramnagar', 'addr:postcode': '221008', 'addr:state': 'Uttar Pradesh', 'amenity': 'clinic', 'name': 'Kamala Nursing Home, Varanasi', 'source': 'OpenGovernmentData'}}"
"{'type': 'node', 'id': 7021251216, 'lat': 25.2760437, 'lon': 83.1357282, 'tags': {'addr:district': 'Chandauli', 'addr:full': 'Ali Nagar, Mugal Sarai, Chandauli', 'addr:postcode': '232101', 'addr:state': 'Uttar Pradesh', 'amenity': 'clinic', 'name': 'Ashirvad Nursing Home, Chandauli', 'source': 'OpenGovernmentData'}}"
"{'type': 'node', 'id': 7022138707, 'lat': 25.3274904, 'lon': 82.9914415, 'tags': {'addr:district': 'Varanasi', 'addr:full': 'S. 17/330-E 1, Maldahiya', 'addr:postcode': '221002', 'addr:state': 'Uttar Pradesh', 'amenity': 'clinic', 'name': 'Prince Clinic and Nursing Home', 'source': 'OpenGovernmentData'}}"
"{'type': 'node', 'id': 7022200555, 'lat': 25.3987077, 'lon': 82.5677691, 'tags': {'addr:district': 'Bhadohi', 'addr:full': 'Main Road', 'addr:postcode': '221401', 'addr:state': 'Uttar Pradesh', 'amenity': 'clinic', 'name': 'Santusti Nursing and Surgical Centre', 'source': 'OpenGovernmentData'}}"
"{'type': 'node', 'id': 7022243624, 'lat': 25.2826176, 'lon': 82.975713, 'tags': {'addr:district': 'Varanasi', 'addr:full': 'N-8/180 - B-51, Newada, Sunderpur, Bhu-Dlw Road', 'addr:postcode': '221005', 'addr:state': 'Uttar Pradesh', 'amenity': 'hospital', 'name': 'Santushti Hospital Pvt Ltd.', 'source': 'OpenGovernmentData'}}"
"{'type': 'node', 'id': 7022339558, 'lat': 25.2829826, 'lon': 82.9749083, 'tags': {'addr:district': 'Varanasi', 'addr:full': 'Near Petrol Pump, Bhu-Dlw Road,Sunderpur', 'addr:postcode': '221005', 'addr:state': 'Uttar Pradesh', 'amenity': 'hospital', 'name': 'Vardaan Hospital, Varanasi', 'source': 'OpenGovernmentData'}}"
"{'type': 'node', 'id': 7022534380, 'lat': 25.7399794, 'lon': 82.6845337, 'tags': {'addr:district': 'Jaunpur', 'addr:full': 'Krishna Nagar Near Jaycees Chauraha', 'addr:postcode': '222002', 'addr:state': 'Uttar Pradesh', 'amenity': 'hospital', 'name': 'Krishna Heart Care and Maternity Home', 'source': 'OpenGovernmentData'}}"
"{'type': 'node', 'id': 7024784141, 'lat': 25.3230301, 'lon': 83.0010518, 'tags': {'addr:district': 'Varanasi', 'addr:full': 'Lahurabir Rd', 'addr:postcode': '221001', 'addr:state': 'Uttar Pradesh', 'amenity': 'clinic', 'name': 'Dr. S.Nath Memorial Eye Clinic Phaco and Laser Centre', 'source': 'OpenGovernmentData'}}"
"{'type': 'node', 'id': 7024797302, 'lat': 25.7568582, 'lon': 82.694088, 'tags': {'addr:district': 'Jaunpur', 'addr:full': 'Laxmi Complex, Jaycess Crossing, Azamgarh Road, Jaunpur Bus Station', 'addr:postcode': '222002', 'addr:state': 'Uttar Pradesh', 'amenity': 'hospital', 'name': 'J P Memorial Hospital', 'source': 'OpenGovernmentData'}}"
"{'type': 'node', 'id': 7024837655, 'lat': 25.7454716, 'lon': 82.6816966, 'tags': {'addr:district': 'Jaunpur', 'addr:full': 'Machhisahar Road', 'addr:postcode': '222002', 'addr:state': 'Uttar Pradesh', 'amenity': 'clinic', 'name': 'Kalptaru Chikitsalya', 'source': 'OpenGovernmentData'}}"
"{'type': 'node', 'id': 7024906949, 'lat': 25.3588766, 'lon': 83.0135543, 'tags': {'addr:district': 'Varanasi', 'addr:full': 'Aktha Tiraha Gazipur Road', 'addr:postcode': '221001', 'addr:state': 'Uttar Pradesh', 'amenity': 'clinic', 'name': 'Shiv Surgical Hospital And Medical College', 'source': 'OpenGovernmentData'}}"
"{'type': 'node', 'id': 7025018104, 'lat': 25.3581531, 'lon': 83.0144841, 'tags': {'addr:district': 'Varanasi', 'addr:full': 'Aktha Tiraha, Pahariya, Gazipur Road', 'addr:postcode': '221007', 'addr:state': 'Uttar Pradesh', 'amenity': 'hospital', 'name': 'Netra Jyoti Centre', 'source': 'OpenGovernmentData'}}"
"{'type': 'node', 'id': 7025117474, 'lat': 25.3667543, 'lon': 83.0424316, 'tags': {'addr:district': 'Varanasi', 'addr:full': 'Ledhupur, Ashapur,Sarnath', 'addr:postcode': '221007', 'addr:state': 'Uttar Pradesh', 'amenity': 'hospital', 'healthcare': 'hospital', 'name': 'Shivnath Hospital', 'source': 'OpenGovernmentData'}}"
"{'type': 'node', 'id': 7025131431, 'lat': 25.8156833, 'lon': 82.8637165, 'tags': {'addr:block': 'Thekma', 'addr:district': 'Azamgarh', 'addr:full': 'Bardah Thekma', 'addr:postcode': '276001', 'addr:state': 'Uttar Pradesh', 'description': 'Community Health Centre', 'healthcare': 'centre', 'name': 'CHC BARDAH', 'source': 'OpenGovernmentData'}}"
"{'type': 'node', 'id': 7025131436, 'lat': 25.4757592, 'lon': 82.5690023, 'tags': {'addr:district': 'Jaunpur', 'addr:full': 'Main Road, Rampur, Mariyahu', 'addr:postcode': '222203', 'addr:state': 'Uttar Pradesh', 'amenity': 'clinic', 'name': 'Nirmal Nursing Home', 'source': 'OpenGovernmentData'}}"
"{'type': 'node', 'id': 7025223723, 'lat': 25.354083, 'lon': 82.9825312, 'tags': {'addr:district': 'Varanasi', 'addr:full': 'S-24/7, Taktak Pur, Orderly Bazar', 'addr:postcode': '221002', 'addr:state': 'Uttar Pradesh', 'amenity': 'clinic', 'name': 'Rajendra Nursing Home and Dental Clinic, Varanasi', 'source': 'OpenGovernmentData'}}"
"{'type': 'node', 'id': 7025474666, 'lat': 25.7279201, 'lon': 82.68985, 'tags': {'addr:district': 'Jaunpur', 'addr:full': 'Line Bazar', 'addr:postcode': '222002', 'addr:state': 'Uttar Pradesh', 'amenity': 'clinic', 'name': 'Sangeeta Nursing Home', 'source': 'OpenGovernmentData'}}"
"{'type': 'node', 'id': 7025481507, 'lat': 25.3036115, 'lon': 82.9756862, 'tags': {'addr:district': 'Varanasi', 'addr:full': 'Motijheet,Mahmoorganj', 'addr:postcode': '221002', 'addr:state': 'Uttar Pradesh', 'amenity': 'hospital', 'healthcare': 'hospital', 'name': 'R.K Netralaya', 'source': 'OpenGovernmentData'}}"
"{'type': 'node', 'id': 7025481512, 'lat': 25.3010439, 'lon': 83.0836343, 'tags': {'addr:district': 'Chandauli', 'addr:full': 'Dulhipur, G.T. Road, Mughalsairai', 'addr:postcode': '232101', 'addr:state': 'Uttar Pradesh', 'amenity': 'hospital', 'name': 'R. C. Hospital', 'source': 'OpenGovernmentData'}}"
"{'type': 'node', 'id': 7025501313, 'lat': 25.4615794, 'lon': 82.4083479, 'tags': {'addr:district': 'Bhadohi', 'addr:full': 'Durga Ganj Road,suriyawa', 'addr:postcode': '221401', 'addr:state': 'Uttar Pradesh', 'amenity': 'clinic', 'name': 'Vishal Medicare Centre', 'source': 'OpenGovernmentData'}}"
"{'type': 'node', 'id': 7025501326, 'lat': 25.5931466, 'lon': 82.9993722, 'tags': {'addr:district': 'Jaunpur', 'addr:full': 'ghazipur road,Chandwak, Kerakat', 'addr:postcode': '222129', 'addr:state': 'Uttar Pradesh', 'amenity': 'clinic', 'name': 'Arogyaneer Diagnostic Clinic', 'source': 'OpenGovernmentData'}}"
"{'type': 'node', 'id': 7025501348, 'lat': 25.3032363, 'lon': 82.9764466, 'tags': {'addr:district': 'Varanasi', 'addr:full': 'B 38/47- 5, Mahmoorganj,opposit to Reliance Petrol Pump', 'addr:postcode': '221010', 'addr:state': 'Uttar Pradesh', 'amenity': 'clinic', 'healthcare': 'clinic', 'name': 'The Fractures Clinic and Trauma Hospital', 'source': 'OpenGovernmentData'}}"
"{'type': 'node', 'id': 7025610724, 'lat': 25.2833258, 'lon': 82.9730503, 'tags': {'addr:district': 'Varanasi', 'addr:full': 'Newada, Sunderpur, B.H.U., D.L.W. Road', 'addr:postcode': '221005', 'addr:state': 'Uttar Pradesh', 'amenity': 'clinic', 'name': 'Adarsh Nursing Home', 'source': 'OpenGovernmentData'}}"
"{'type': 'node', 'id': 7025610773, 'lat': 25.6437776, 'lon': 82.920776, 'tags': {'addr:district': 'Jaunpur', 'addr:full': 'Saraibiru Kerakat', 'addr:postcode': '222142', 'addr:state': 'Uttar Pradesh', 'amenity': 'hospital', 'name': 'Dhiraji Hospital', 'source': 'OpenGovernmentData'}}"
"{'type': 'node', 'id': 7025894948, 'lat': 25.3052664, 'lon': 82.9864379, 'tags': {'addr:district': 'Varanasi', 'addr:full': 'B.38/1-C, Birodpur, Mahmoorganj', 'addr:postcode': '221010', 'addr:state': 'Uttar Pradesh', 'amenity': 'hospital', 'healthcare': 'hospital', 'name': 'Ashirvad Hospital and Research Center', 'source': 'OpenGovernmentData'}}"
"{'type': 'node', 'id': 7025961351, 'lat': 25.7396424, 'lon': 82.6656336, 'tags': {'addr:district': 'Jaunpur', 'addr:full': 'Shri Krishnapuram, Nai Ganj, Jaunpur Naiganj', 'addr:postcode': '222001', 'addr:state': 'Uttar Pradesh', 'amenity': 'hospital', 'name': 'Sunita Hospital', 'source': 'OpenGovernmentData'}}"
"{'type': 'node', 'id': 7026070790, 'lat': 25.3512519, 'lon': 82.9779245, 'tags': {'addr:district': 'Varanasi', 'addr:full': 'Tagore Town, Bhujubir, Ardali Bazar, Tagore Town', 'addr:postcode': '221001', 'addr:state': 'Uttar Pradesh', 'amenity': 'hospital', 'name': 'Sudha Surgical Hospital', 'source': 'OpenGovernmentData'}}"
"{'type': 'node', 'id': 7026304826, 'lat': 25.3507187, 'lon': 82.976228, 'tags': {'addr:district': 'Varanasi', 'addr:full': 'S-2/235 Bhojubeer', 'addr:postcode': '221002', 'addr:state': 'Uttar Pradesh', 'amenity': 'clinic', 'name': 'Samarpan Hospital, Varanasi', 'source': 'OpenGovernmentData'}}"
"{'type': 'node', 'id': 7026434081, 'lat': 25.3563214, 'lon': 83.0096523, 'tags': {'addr:district': 'Varanasi', 'addr:full': 'Sri Krishna Nagar,Opp Petrol Pump , Near Surabhi Hotel, Paharia , Ghazipur Road', 'addr:postcode': '221002', 'addr:state': 'Uttar Pradesh', 'amenity': 'hospital', 'name': 'Om Surgical Center and Maternity Home', 'source': 'OpenGovernmentData'}}"
"{'type': 'node', 'id': 7026443720, 'lat': 25.3484644, 'lon': 82.975772, 'tags': {'addr:district': 'Varanasi', 'addr:full': 'S-2,656 C/4A,Sikraul(Anand Vatika Ki Gali ,Opp Circuit House ,Campus Police Station)', 'addr:postcode': '221007', 'addr:state': 'Uttar Pradesh', 'amenity': 'hospital', 'name': 'Vatsalya Hospital, Varanasi', 'source': 'OpenGovernmentData'}}"
"{'type': 'node', 'id': 7026473922, 'lat': 25.3344185, 'lon': 82.7890876, 'tags': {'addr:district': 'Varanasi', 'addr:full': 'Gorai Bazar, Bhadohi Road', 'addr:postcode': '221001', 'addr:state': 'Uttar Pradesh', 'amenity': 'clinic', 'name': 'Sri Sai Nursing Home, Varanasi', 'source': 'OpenGovernmentData'}}"
"{'type': 'node', 'id': 7027053447, 'lat': 25.3422395, 'lon': 82.9767966, 'tags': {'addr:district': 'Varanasi', 'addr:full': '15/16, Mritunjay Dham Colony Raruna Vihar Near Jp Mehta Inter College', 'addr:postcode': '221001', 'addr:state': 'Uttar Pradesh', 'amenity': 'hospital', 'name': 'Dev Matenity Home', 'source': 'OpenGovernmentData'}}"
"{'type': 'node', 'id': 7027327497, 'lat': 25.3190508, 'lon': 82.9965833, 'tags': {'addr:district': 'Varanasi', 'addr:full': 'C20/1-73 Ramakant Nagar Colony, Near Pisach Mochan', 'addr:postcode': '221010', 'addr:state': 'Uttar Pradesh', 'amenity': 'hospital', 'name': 'Alliance Hospital', 'source': 'OpenGovernmentData'}}"
"{'type': 'node', 'id': 7027360291, 'lat': 25.3129735, 'lon': 82.9900937, 'tags': {'addr:district': 'Varanasi', 'addr:full': '70- Gandhinagar, Sigra', 'addr:postcode': '221010', 'addr:state': 'Uttar Pradesh', 'amenity': 'hospital', 'healthcare': 'hospital', 'name': 'New Life Hospital, Varanasi', 'source': 'OpenGovernmentData'}}"
"{'type': 'node', 'id': 7027363905, 'lat': 25.3317015, 'lon': 83.0236682, 'tags': {'addr:district': 'Varanasi', 'addr:full': 'K-50/125-B, Opp: Yamuna Cinema, Hartirath, Pilikothi, Varanasi Yamuna Cinema', 'addr:postcode': '221001', 'addr:state': 'Uttar Pradesh', 'amenity': 'hospital', 'name': 'New Sahara Hospital', 'source': 'OpenGovernmentData'}}"
"{'type': 'node', 'id': 7027410902, 'lat': 25.2854642, 'lon': 83.1191824, 'tags': {'addr:district': 'Chandauli', 'addr:full': 'Lot No. 2, Mughalsarai', 'addr:postcode': '232101', 'addr:state': 'Uttar Pradesh', 'amenity': 'hospital', 'name': 'Anand Hospital', 'source': 'OpenGovernmentData'}}"
"{'type': 'node', 'id': 7027605936, 'lat': 25.3425037, 'lon': 82.9766236, 'tags': {'addr:district': 'Varanasi', 'addr:full': '2-3, Mrityunjay Dham Colony (Near J P Mehta Inter College ,Sikraul', 'addr:postcode': '221002', 'addr:state': 'Uttar Pradesh', 'amenity': 'hospital', 'name': 'S P Surgical Centre', 'source': 'OpenGovernmentData'}}"
"{'type': 'node', 'id': 7027605951, 'lat': 25.3093752, 'lon': 83.0070332, 'tags': {'addr:district': 'Varanasi', 'addr:full': 'Godowlia', 'addr:postcode': '221002', 'addr:state': 'Uttar Pradesh', 'amenity': 'hospital', 'name': 'Shree Ram Laxminarayan Marwari Hindu Hospital - Varanasi', 'source': 'OpenGovernmentData'}}"
"{'type': 'node', 'id': 7027631465, 'lat': 25.2879096, 'lon': 83.001109, 'tags': {'addr:district': 'Varanasi', 'addr:full': 'Plot No. 21, Ravinddrapuri Extension.', 'addr:postcode': '221005', 'addr:state': 'Uttar Pradesh', 'amenity': 'hospital', 'name': 'Alaknanda Hospital Pvt Ltd.', 'source': 'OpenGovernmentData'}}"
"{'type': 'node', 'id': 7027631470, 'lat': 25.2537156, 'lon': 82.9964612, 'tags': {'addr:district': 'Varanasi', 'addr:full': 'bhagwanpur Road , Govardhan', 'addr:postcode': '221005', 'addr:state': 'Uttar Pradesh', 'amenity': 'hospital', 'name': 'Shivganga Hospital', 'source': 'OpenGovernmentData'}}"
"{'type': 'node', 'id': 7027726593, 'lat': 25.3804683, 'lon': 82.5691846, 'tags': {'addr:district': 'Bhadohi', 'addr:full': 'Balu Mandi Rajpura, Sant Ravidas Nagar 100 Meter From Rajpura Cross, Bypass Road Jnp', 'addr:postcode': '221401', 'addr:state': 'Uttar Pradesh', 'amenity': 'hospital', 'name': 'Shri Shyamlal Memorial Hospital', 'source': 'OpenGovernmentData'}}"
"{'type': 'node', 'id': 7027726621, 'lat': 25.3438983, 'lon': 82.9881918, 'tags': {'addr:district': 'Varanasi', 'addr:full': 'Sb/108-F-5A, Maqbool Alam Road, Khajuri', 'addr:postcode': '221002', 'addr:state': 'Uttar Pradesh', 'amenity': 'hospital', 'name': 'Shubham Hospital, Varanasi', 'source': 'OpenGovernmentData'}}"
"{'type': 'node', 'id': 7027732205, 'lat': 25.2896883, 'lon': 83.0042418, 'tags': {'addr:district': 'Varanasi', 'addr:full': 'Anandbagh,Assi Road , Varanasi', 'addr:postcode': '221005', 'addr:state': 'Uttar Pradesh', 'amenity': 'hospital', 'name': 'Netra Jyoti Hospital and Research Center', 'source': 'OpenGovernmentData'}}"
"{'type': 'node', 'id': 7027732240, 'lat': 25.7392249, 'lon': 82.6874994, 'tags': {'addr:district': 'Jaunpur', 'addr:full': 'C-183, Tilakdhari College Rd,Wazidpur Tiraha, Jaunpur', 'addr:postcode': '222002', 'addr:state': 'Uttar Pradesh', 'amenity': 'hospital', 'name': 'Shraddha Hospital, Jaunpur', 'source': 'OpenGovernmentData'}}"
"{'type': 'node', 'id': 7027743603, 'lat': 25.3039522, 'lon': 82.9867731, 'tags': {'addr:district': 'Varanasi', 'addr:full': '6, Girinagar, Birdopur, Mehmoorganj', 'addr:postcode': '221010', 'addr:state': 'Uttar Pradesh', 'amenity': 'hospital', 'name': 'Ayushman Hospital, Varanasi', 'source': 'OpenGovernmentData'}}"
"{'type': 'node', 'id': 7027789068, 'lat': 25.3275898, 'lon': 83.0027376, 'tags': {'addr:district': 'Varanasi', 'addr:full': 'J.12/81-E, Nati Imli Dhoopchandi', 'addr:postcode': '221001', 'addr:state': 'Uttar Pradesh', 'amenity': 'clinic', 'name': 'Chandra Nursing Home, Varanasi', 'source': 'OpenGovernmentData'}}"
"{'type': 'node', 'id': 7027795344, 'lat': 24.5234742, 'lon': 83.0244791, 'tags': {'addr:district': 'Sonbhadra', 'addr:full': 'Sonbhadra', 'addr:postcode': '231205', 'addr:state': 'Uttar Pradesh', 'healthcare': 'centre', 'name': 'CHC, Chopan', 'source': 'OpenGovernmentData'}}"
"{'type': 'node', 'id': 7027812535, 'lat': 25.3552798, 'lon': 82.9655729, 'tags': {'addr:district': 'Varanasi', 'addr:full': 'S-8/34,2K,Airport Road,Shivpur', 'addr:postcode': '221003', 'addr:state': 'Uttar Pradesh', 'amenity': 'hospital', 'healthcare': 'hospital', 'name': 'Shyama Hospital', 'source': 'OpenGovernmentData'}}"
"{'type': 'node', 'id': 7027903601, 'lat': 25.3661363, 'lon': 83.006195, 'tags': {'addr:district': 'Varanasi', 'addr:full': 'Paharia , Bela Road, Aktha', 'addr:postcode': '221101', 'addr:state': 'Uttar Pradesh', 'amenity': 'clinic', 'name': 'Arogyam Piyush Clinic', 'source': 'OpenGovernmentData'}}"
"{'type': 'node', 'id': 7027932189, 'lat': 25.2854413, 'lon': 82.4341202, 'tags': {'addr:district': 'Bhadohi', 'addr:full': 'Sant Ravidas Nagar', 'addr:postcode': '221303', 'addr:state': 'Uttar Pradesh', 'healthcare': 'centre', 'name': 'CHC, Gopiganj', 'source': 'OpenGovernmentData'}}"
"{'type': 'node', 'id': 7027944400, 'lat': 25.4443474, 'lon': 82.9203419, 'tags': {'addr:district': 'Varanasi', 'addr:full': 'Harhuwa', 'addr:postcode': '221105', 'addr:state': 'Uttar Pradesh', 'healthcare': 'centre', 'name': 'CHC, Puwarikala', 'source': 'OpenGovernmentData'}}"
"{'type': 'node', 'id': 7027961490, 'lat': 25.3530274, 'lon': 82.9819612, 'tags': {'addr:district': 'Varanasi', 'addr:full': 'Taktakpur Mahaveer Mandir Chauraha,Ordarly Bazar', 'addr:postcode': '221002', 'addr:state': 'Uttar Pradesh', 'amenity': 'clinic', 'name': 'Shivam Maternity and Nursing Home', 'source': 'OpenGovernmentData'}}"
"{'type': 'node', 'id': 7027983147, 'lat': 25.3592045, 'lon': 82.9591839, 'tags': {'addr:district': 'Varanasi', 'addr:full': 'Sughipur, Shivpur', 'addr:postcode': '221001', 'addr:state': 'Uttar Pradesh', 'amenity': 'hospital', 'healthcare': 'hospital', 'name': 'Swastik Surgical', 'source': 'OpenGovernmentData'}}"
"{'type': 'node', 'id': 7028013170, 'lat': 25.3191944, 'lon': 83.0067299, 'tags': {'addr:district': 'Varanasi', 'addr:full': 'Nihala Singh Colony, Heerapur , Kabir Chaura', 'addr:postcode': '221001', 'addr:state': 'Uttar Pradesh', 'amenity': 'clinic', 'name': 'Tandon Multispeciality Hospital and Ishita Modern Eye Care Centre', 'source': 'OpenGovernmentData'}}"
"{'type': 'node', 'id': 7028065226, 'lat': 25.0990948, 'lon': 82.8811249, 'tags': {'addr:district': 'Mirzapur', 'addr:full': 'Chunaar', 'addr:postcode': '231304', 'addr:state': 'Uttar Pradesh', 'healthcare': 'centre', 'name': 'CHC, Chunaar', 'source': 'OpenGovernmentData'}}"
"{'type': 'node', 'id': 7028205512, 'lat': 25.2882993, 'lon': 82.4267406, 'tags': {'addr:district': 'Bhadohi', 'addr:full': 'G. T. Road, Gopi Ganj, Bhadohi, Sant Ravidas Nagar G. T. Road Allahabad-Varanasi Marg', 'addr:postcode': '221303', 'addr:state': 'Uttar Pradesh', 'amenity': 'clinic', 'name': 'Raj Nursing Home', 'source': 'OpenGovernmentData'}}"
"{'type': 'node', 'id': 7028205517, 'lat': 25.2780889, 'lon': 83.0032586, 'tags': {'addr:district': 'Varanasi', 'addr:full': 'Plot No-17, Madhav Market, Beside Heritage Hospital , Lanka', 'addr:postcode': '221005', 'addr:state': 'Uttar Pradesh', 'amenity': 'clinic', 'name': 'Kumar Ent and Head and Neck Clinic', 'source': 'OpenGovernmentData'}}"
"{'type': 'node', 'id': 7028295462, 'lat': 25.3110083, 'lon': 83.0024332, 'tags': {'addr:district': 'Varanasi', 'addr:full': 'D-161/23 A-1, Sidhgiri Bagh', 'addr:postcode': '221010', 'addr:state': 'Uttar Pradesh', 'amenity': 'clinic', 'name': 'Mangalam Clinic and Trauma Centre', 'source': 'OpenGovernmentData'}}"
"{'type': 'node', 'id': 7028455905, 'lat': 25.363961, 'lon': 83.0360573, 'tags': {'addr:district': 'Varanasi', 'addr:full': 'Asha Pur , Gazipur Raod', 'addr:postcode': '221001', 'addr:state': 'Uttar Pradesh', 'amenity': 'hospital', 'healthcare': 'hospital', 'name': 'Prasoon Hospital', 'source': 'OpenGovernmentData'}}"
"{'type': 'node', 'id': 7028725742, 'lat': 25.3050931, 'lon': 82.9750063, 'tags': {'addr:district': 'Varanasi', 'addr:full': 'Plot No. 4,5,6 & 7,Dayal Enclave,Mahmoorganj', 'addr:postcode': '221010', 'addr:state': 'Uttar Pradesh', 'amenity': 'hospital', 'healthcare': 'hospital', 'name': 'Galaxy Hospital', 'source': 'OpenGovernmentData'}}"
"{'type': 'node', 'id': 7028725760, 'lat': 25.1558133, 'lon': 82.5830014, 'tags': {'addr:district': 'Mirzapur', 'addr:full': 'Raja Vijaypur Kothi ,Kachehri Road,Civil Line', 'addr:postcode': '231001', 'addr:state': 'Uttar Pradesh', 'amenity': 'hospital', 'name': 'Dr. D. D. Tripathi Memorial Hospital', 'source': 'OpenGovernmentData'}}"
"{'type': 'node', 'id': 7028789339, 'lat': 24.6771185, 'lon': 83.0620486, 'tags': {'addr:district': 'Sonbhadra', 'addr:full': 'Robertsganj', 'addr:postcode': '231216', 'addr:state': 'Uttar Pradesh', 'amenity': 'hospital', 'name': 'Jiwan Jyoti Christian Hospital', 'source': 'OpenGovernmentData'}}"
"{'type': 'node', 'id': 7028843970, 'lat': 25.350789, 'lon': 83.0037045, 'tags': {'addr:district': 'Varanasi', 'addr:full': 'Sa-17/ 205, Phase-1, Ashok Vithal Colony, Paharia Paharia', 'addr:postcode': '221001', 'addr:state': 'Uttar Pradesh', 'amenity': 'hospital', 'name': 'Kashi Medicare', 'source': 'OpenGovernmentData'}}"
"{'type': 'node', 'id': 7028879997, 'lat': 25.2905553, 'lon': 83.0004665, 'tags': {'addr:district': 'Varanasi', 'addr:full': 'Lane-No-17, Ravindrapuri Colony ,Near Gopi Radha School,Durgakund', 'addr:postcode': '221005', 'addr:state': 'Uttar Pradesh', 'amenity': 'clinic', 'name': 'Sah Speciality Clinic', 'source': 'OpenGovernmentData'}}"
"{'type': 'node', 'id': 7028968165, 'lat': 25.3118776, 'lon': 82.9877642, 'tags': {'addr:district': 'Varanasi', 'addr:full': 'D-64/127-E,Sigra Mahapalika Road', 'addr:postcode': '221001', 'addr:state': 'Uttar Pradesh', 'amenity': 'clinic', 'healthcare': 'clinic', 'name': 'Akanksha Nursing Home, Varanasi', 'source': 'OpenGovernmentData'}}"
"{'type': 'node', 'id': 7028968175, 'lat': 25.3400505, 'lon': 82.9920933, 'tags': {'addr:district': 'Varanasi', 'addr:full': 'S-10,A-3A-P,Maqbool Alam Road, Opposite District Jail,Hukulganj,Chaukaghat', 'addr:postcode': '221001', 'addr:state': 'Uttar Pradesh', 'amenity': 'hospital', 'name': 'Mahashweta Hospital Pvt. Ltd.', 'source': 'OpenGovernmentData'}}"
"{'type': 'node', 'id': 7029070348, 'lat': 25.7330029, 'lon': 82.6725617, 'tags': {'addr:district': 'Jaunpur', 'addr:full': 'Mariyahu Padao, Umarpur, Habadhanpur', 'addr:postcode': '222002', 'addr:state': 'Uttar Pradesh', 'amenity': 'hospital', 'name': 'Isha Hosital', 'source': 'OpenGovernmentData'}}"
"{'type': 'node', 'id': 7029085849, 'lat': 25.7355797, 'lon': 82.6953149, 'tags': {'addr:district': 'Jaunpur', 'addr:full': 'Polytechnik Crossing', 'addr:postcode': '222002', 'addr:state': 'Uttar Pradesh', 'amenity': 'hospital', 'name': 'Apex Eye Hospital', 'source': 'OpenGovernmentData'}}"
"{'type': 'node', 'id': 7029092282, 'lat': 25.2831802, 'lon': 82.9699691, 'tags': {'addr:district': 'Chandauli', 'addr:full': 'Bhikaripur, Dlw - Sunderpur Road', 'addr:postcode': '221009', 'addr:state': 'Uttar Pradesh', 'amenity': 'hospital', 'name': 'Care Hospital - Varanasi', 'source': 'OpenGovernmentData'}}"
"{'type': 'node', 'id': 7029658075, 'lat': 25.2826237, 'lon': 82.9706222, 'tags': {'addr:district': 'Varanasi', 'addr:full': 'Plot No.-7/1, R-12, Bhikharipur,Newada', 'addr:postcode': '221004', 'addr:state': 'Uttar Pradesh', 'amenity': 'hospital', 'name': 'Bk Heart Hospital Pvt Ltd', 'source': 'OpenGovernmentData'}}"
"{'type': 'node', 'id': 7029818989, 'lat': 25.2886212, 'lon': 82.9940888, 'tags': {'addr:district': 'Varanasi', 'addr:full': 'Khatri Complex, Bhu Gate,Lanka', 'addr:postcode': '221005', 'addr:state': 'Uttar Pradesh', 'amenity': 'hospital', 'name': 'Kids Care Hospital', 'source': 'OpenGovernmentData'}}"
"{'type': 'node', 'id': 7029849348, 'lat': 25.4738057, 'lon': 83.0012825, 'tags': {'addr:district': 'Varanasi', 'addr:full': 'Cholapur', 'addr:postcode': '221101', 'addr:state': 'Uttar Pradesh', 'healthcare': 'centre', 'name': 'Community Health Centre,Cholapur', 'source': 'OpenGovernmentData'}}"
"{'type': 'node', 'id': 7030204665, 'lat': 25.3860107, 'lon': 82.585465, 'tags': {'addr:district': 'Bhadohi', 'addr:full': 'Sant Ravidas Nagar', 'addr:postcode': '221401', 'addr:state': 'Uttar Pradesh', 'healthcare': 'centre', 'name': 'Community Health Centre, Bhadohi', 'source': 'OpenGovernmentData'}}"
"{'type': 'node', 'id': 7030305629, 'lat': 25.3091348, 'lon': 82.9838206, 'tags': {'addr:district': 'Varanasi', 'addr:full': 'D-64/47 D 1A, Maa Rajeshwari Nagar Colony, Sigra, Varanasi, Uttar Pradesh', 'addr:postcode': '221003', 'addr:state': 'Uttar Pradesh', 'amenity': 'hospital', 'healthcare': 'hospital', 'name': 'Rohit Laproscopic Surgical Center', 'source': 'OpenGovernmentData', 'website': 'http://www.rohithospital.com/'}}"
"{'type': 'node', 'id': 7030365860, 'lat': 25.1410309, 'lon': 82.1111145, 'tags': {'addr:district': 'Allahabad', 'addr:full': 'Meja khas', 'addr:postcode': '212302', 'addr:state': 'Uttar Pradesh', 'healthcare': 'centre', 'name': 'CHC, Meja Khas', 'source': 'OpenGovernmentData'}}"
"{'type': 'node', 'id': 7030411158, 'lat': 25.353734, 'lon': 82.9649064, 'tags': {'addr:district': 'Varanasi', 'addr:full': 'C-2, Raj Rajeswari Colony Gillet Bazar . Cantt,', 'addr:postcode': '221001', 'addr:state': 'Uttar Pradesh', 'amenity': 'clinic', 'healthcare': 'clinic', 'name': 'Shail Nursing Home', 'source': 'OpenGovernmentData'}}"
"{'type': 'node', 'id': 7030520888, 'lat': 25.2836471, 'lon': 82.9714912, 'tags': {'addr:district': 'Varanasi', 'addr:full': 'N8/237, Newada, B.H.U- D.L.W Road, Sunderpur', 'addr:postcode': '221005', 'addr:state': 'Uttar Pradesh', 'amenity': 'hospital', 'name': 'Swami Harshankaranand Ji Hospital and Research Center', 'source': 'OpenGovernmentData'}}"
"{'type': 'node', 'id': 7030546653, 'lat': 25.2821724, 'lon': 82.9919971, 'tags': {'addr:district': 'Varanasi', 'addr:full': 'B/33, 10K, 18, Rohit Nagar, Nariya', 'addr:postcode': '221005', 'addr:state': 'Uttar Pradesh', 'amenity': 'hospital', 'name': 'Sri Sai Surgical and Maternity Hospital', 'phone': '094529 91121', 'source': 'OpenGovernmentData'}}"
"{'type': 'node', 'id': 7030696533, 'lat': 25.3518488, 'lon': 82.9822486, 'tags': {'addr:district': 'Varanasi', 'addr:full': 'S-4 Tajpur Mahabeer Road Ordarly Bazar', 'addr:postcode': '221003', 'addr:state': 'Uttar Pradesh', 'amenity': 'clinic', 'name': 'Umang Nursing Home', 'source': 'OpenGovernmentData'}}"
"{'type': 'node', 'id': 7030696538, 'lat': 25.6454714, 'lon': 82.9182591, 'tags': {'addr:district': 'Bhadohi', 'addr:full': 'Saraibiru Chauraha (Near Pahalwan Baba) Kerakat', 'addr:postcode': '221401', 'addr:state': 'Uttar Pradesh', 'amenity': 'clinic', 'name': 'Yash Nursing Home and Maternity Home, Bhadohi', 'source': 'OpenGovernmentData'}}"
"{'type': 'node', 'id': 7030696545, 'lat': 25.3060181, 'lon': 82.9371, 'tags': {'addr:district': 'Varanasi', 'addr:full': 'Near Dhamrahiya Pool Lohata', 'addr:postcode': '221107', 'addr:state': 'Uttar Pradesh', 'amenity': 'hospital', 'name': 'Shakuntala Hospital and Research Center', 'source': 'OpenGovernmentData'}}"
"{'type': 'node', 'id': 7030703322, 'lat': 25.3046542, 'lon': 82.9803948, 'tags': {'addr:district': 'Varanasi', 'addr:full': 'Mahmoorganj, Opp, Akashwani Bhawan', 'addr:postcode': '221010', 'addr:state': 'Uttar Pradesh', 'amenity': 'clinic', 'healthcare': 'clinic', 'name': 'Uphar Nursing Home Pvt. Ltd.', 'source': 'OpenGovernmentData'}}"
"{'type': 'node', 'id': 7031006632, 'lat': 25.2884224, 'lon': 81.9295375, 'tags': {'addr:district': 'Allahabad', 'addr:full': 'Sadhu Kuti, Bela Chauraha, Karchana', 'addr:postcode': '211001', 'addr:state': 'Uttar Pradesh', 'amenity': 'hospital', 'name': 'Sundaram Hospital, Allahabad', 'source': 'OpenGovernmentData'}}"
"{'type': 'node', 'id': 7031546472, 'lat': 25.2832627, 'lon': 82.9808334, 'tags': {'addr:district': 'Varanasi', 'addr:full': 'H-2, Brij Enclave, B.H.U.D.L.W.Raod', 'addr:postcode': '221002', 'addr:state': 'Uttar Pradesh', 'amenity': 'hospital', 'name': 'Life Line Hospital, Varanasi', 'source': 'OpenGovernmentData'}}"
"{'type': 'node', 'id': 7031589792, 'lat': 25.3239083, 'lon': 83.0044448, 'tags': {'addr:district': 'Varanasi', 'addr:full': 'Sah Nursing Home, Bulanala', 'addr:postcode': '221001', 'addr:state': 'Uttar Pradesh', 'amenity': 'hospital', 'name': 'Sah Hospital', 'source': 'OpenGovernmentData'}}"
"{'type': 'node', 'id': 7031768743, 'lat': 25.3118509, 'lon': 83.0085801, 'tags': {'addr:district': 'Varanasi', 'addr:full': 'Ck 38/2, Bansphatak Chowk', 'addr:postcode': '221001', 'addr:state': 'Uttar Pradesh', 'amenity': 'hospital', 'name': 'Hindu Sewa Sadan Hospital', 'source': 'OpenGovernmentData'}}"
"{'type': 'node', 'id': 7031881406, 'lat': 25.3536867, 'lon': 82.9793367, 'tags': {'addr:district': 'Varanasi', 'addr:full': 'Sarsauli Ordarly Bazar', 'addr:postcode': '221002', 'addr:state': 'Uttar Pradesh', 'amenity': 'clinic', 'name': 'Sanjeevani Nursing Home, Varanasi', 'source': 'OpenGovernmentData'}}"
"{'type': 'node', 'id': 7031950085, 'lat': 25.3493104, 'lon': 82.9916064, 'tags': {'addr:district': 'Varanasi', 'addr:full': 'Police Line Road,Trimuhani', 'addr:postcode': '221002', 'addr:state': 'Uttar Pradesh', 'amenity': 'clinic', 'name': 'Himanshu Hospital and Clinic Pvt Ltd', 'source': 'OpenGovernmentData'}}"
"{'type': 'node', 'id': 7031951297, 'lat': 25.2851738, 'lon': 81.9339886, 'tags': {'addr:district': 'Allahabad', 'addr:full': 'Karchana', 'addr:postcode': '211001', 'addr:state': 'Uttar Pradesh', 'amenity': 'hospital', 'name': 'Sri Sitaram Memorial Hospital', 'source': 'OpenGovernmentData'}}"
"{'type': 'node', 'id': 7031972095, 'lat': 25.3569528, 'lon': 83.0063143, 'tags': {'addr:district': 'Varanasi', 'addr:full': '5A-6/186 K-1, Maa Sharda Nagar Colony, Pahariya Chauraha', 'addr:postcode': '221007', 'addr:state': 'Uttar Pradesh', 'amenity': 'hospital', 'name': 'Srijan Hospital, Varanasi', 'source': 'OpenGovernmentData'}}"
"{'type': 'node', 'id': 7033291182, 'lat': 25.2880337, 'lon': 83.1094198, 'tags': {'addr:district': 'Chandauli', 'addr:full': 'H.No -620 Kailashpuri Mugalsarai', 'addr:postcode': '232101', 'addr:state': 'Uttar Pradesh', 'amenity': 'clinic', 'name': 'Murti Fracture Clinic', 'source': 'OpenGovernmentData'}}"
"{'type': 'node', 'id': 7033571077, 'lat': 25.2767719, 'lon': 83.1335617, 'tags': {'addr:district': 'Chandauli', 'addr:full': 'G.T Road,Alinagar,Mughalsarai.Chandauli', 'addr:postcode': '232101', 'addr:state': 'Uttar Pradesh', 'amenity': 'clinic', 'name': 'J.J Clinic and Nursing Home', 'source': 'OpenGovernmentData'}}"
"{'type': 'node', 'id': 7033866308, 'lat': 25.7696112, 'lon': 82.2902825, 'tags': {'addr:district': 'Jaunpur', 'addr:full': 'Suzanganj', 'addr:postcode': '222143', 'addr:state': 'Uttar Pradesh', 'healthcare': 'centre', 'name': 'Community Health Center, Sujanganj', 'source': 'OpenGovernmentData'}}"
"{'type': 'node', 'id': 7034713301, 'lat': 25.2960299, 'lon': 82.9434594, 'tags': {'addr:district': 'Varanasi', 'addr:full': 'Lakhanpur Bhullanpur', 'addr:postcode': '221108', 'addr:state': 'Uttar Pradesh', 'amenity': 'hospital', 'name': 'Prayag Healthcare Center', 'source': 'OpenGovernmentData'}}"
"{'type': 'node', 'id': 7034753383, 'lat': 25.292644, 'lon': 82.9705367, 'tags': {'addr:district': 'Varanasi', 'addr:full': 'N-10/60-A-2, D L W Mahamoorganj Road, Kakarmatta', 'addr:postcode': '221001', 'addr:state': 'Uttar Pradesh', 'amenity': 'hospital', 'healthcare': 'hospital', 'name': 'Popular Hospital', 'source': 'OpenGovernmentData'}}"
"{'type': 'node', 'id': 7034808820, 'lat': 25.153709, 'lon': 82.5721331, 'tags': {'addr:district': 'Mirzapur', 'addr:full': 'Near Shri Panchmukhi Mahadev Temple Bariyaghat, Welleslyganj', 'addr:postcode': '231001', 'addr:state': 'Uttar Pradesh', 'amenity': 'hospital', 'name': 'Harsh Maternity And Nursing Home', 'source': 'OpenGovernmentData'}}"
"{'type': 'node', 'id': 7034874988, 'lat': 25.3163026, 'lon': 82.9088225, 'tags': {'addr:district': 'Varanasi', 'addr:full': 'Varanasi Badohi Road, Gopalpur', 'addr:postcode': '221107', 'addr:state': 'Uttar Pradesh', 'amenity': 'clinic', 'name': 'Vishal Surgical Center', 'source': 'OpenGovernmentData'}}"
"{'type': 'node', 'id': 7035025463, 'lat': 25.3509156, 'lon': 82.9768342, 'tags': {'addr:district': 'Varanasi', 'addr:full': 'S-2/1, Tagore Town Colony, Bhojubeer', 'addr:postcode': '221002', 'addr:state': 'Uttar Pradesh', 'amenity': 'hospital', 'name': 'Varadan Hospital', 'source': 'OpenGovernmentData'}}"
"{'type': 'node', 'id': 7035030910, 'lat': 25.7496613, 'lon': 82.6933063, 'tags': {'addr:district': 'Jaunpur', 'addr:full': 'Manik Chowk', 'addr:postcode': '222001', 'addr:state': 'Uttar Pradesh', 'amenity': 'hospital', 'name': 'Kumar Surgical Nursing Home', 'source': 'OpenGovernmentData'}}"
"{'type': 'node', 'id': 7035039153, 'lat': 24.9915414, 'lon': 82.0689514, 'tags': {'addr:district': 'Allahabad', 'addr:full': 'Malviya Nagar,Koraon,Allahabab', 'addr:postcode': '212306', 'addr:state': 'Uttar Pradesh', 'amenity': 'clinic', 'name': 'Jeevan Rekha Nursing Home', 'source': 'OpenGovernmentData'}}"
"{'type': 'node', 'id': 7035039158, 'lat': 25.6872214, 'lon': 82.4181327, 'tags': {'addr:district': 'Jaunpur', 'addr:full': 'Machlisahar', 'addr:postcode': '222143', 'addr:state': 'Uttar Pradesh', 'healthcare': 'centre', 'name': 'CHC, Machalisahar', 'source': 'OpenGovernmentData'}}"
"{'type': 'node', 'id': 7035115033, 'lat': 25.2861008, 'lon': 81.9362844, 'tags': {'addr:district': 'Allahabad', 'addr:full': 'Karchana', 'addr:postcode': '212301', 'addr:state': 'Uttar Pradesh', 'healthcare': 'centre', 'name': 'CHC, Karchana', 'source': 'OpenGovernmentData'}}"
"{'type': 'node', 'id': 7035159307, 'lat': 25.3021699, 'lon': 82.9313258, 'tags': {'addr:district': 'Varanasi', 'addr:full': 'Harpalpur, Lohta Rohania Road', 'addr:postcode': '221107', 'addr:state': 'Uttar Pradesh', 'amenity': 'hospital', 'name': 'Arogya Chikitsalaya', 'source': 'OpenGovernmentData'}}"
"{'type': 'node', 'id': 7035205548, 'lat': 25.3712318, 'lon': 82.116413, 'tags': {'addr:district': 'Allahabad', 'addr:full': 'Saidabad', 'addr:postcode': '221508', 'addr:state': 'Uttar Pradesh', 'healthcare': 'centre', 'name': 'CHC, Saidabad', 'source': 'OpenGovernmentData'}}"
"{'type': 'node', 'id': 7035232127, 'lat': 25.3600376, 'lon': 83.0653328, 'tags': {'addr:district': 'Varanasi', 'addr:full': 'Phoolpur', 'addr:postcode': '221505', 'addr:state': 'Uttar Pradesh', 'amenity': 'clinic', 'healthcare': 'clinic', 'name': 'Anmol Poly Clinic', 'source': 'OpenGovernmentData'}}"
"{'type': 'node', 'id': 7035264066, 'lat': 25.7380913, 'lon': 82.6632856, 'tags': {'addr:district': 'Jaunpur', 'addr:full': 'Omarpur, Faizabad, Jaunpur Near Lic Main Branch', 'addr:postcode': '222002', 'addr:state': 'Uttar Pradesh', 'amenity': 'hospital', 'name': 'Maa Tara Hospital', 'source': 'OpenGovernmentData'}}"
"{'type': 'node', 'id': 7035329348, 'lat': 25.3188013, 'lon': 82.9920584, 'tags': {'addr:district': 'Varanasi', 'addr:full': 'C-19/29A,A-1, A-2 Gulab Bagh Sigra', 'addr:postcode': '221002', 'addr:state': 'Uttar Pradesh', 'amenity': 'hospital', 'name': 'Priya Multispeciality Hospital Pvt.Ltd.', 'source': 'OpenGovernmentData'}}"
"{'type': 'node', 'id': 7035329369, 'lat': 24.6777854, 'lon': 83.0628724, 'tags': {'addr:district': 'Sonbhadra', 'addr:full': 'Pipri Road, Robertsganj, Sonbhadra, Varanasi', 'addr:postcode': '231216', 'addr:state': 'Uttar Pradesh', 'amenity': 'hospital', 'name': 'Sai Hospital, Sonbhadra', 'source': 'OpenGovernmentData'}}"
"{'type': 'node', 'id': 7035561734, 'lat': 25.2579469, 'lon': 82.961565, 'tags': {'addr:district': 'Varanasi', 'addr:full': 'Amra Chauraha Avleshpur, Chunar Road', 'addr:postcode': '221106', 'addr:state': 'Uttar Pradesh', 'amenity': 'hospital', 'name': 'Swami Vivekanand Jan Kalyan Hospital', 'source': 'OpenGovernmentData'}}"
"{'type': 'node', 'id': 7035840890, 'lat': 25.7376672, 'lon': 82.6737405, 'tags': {'addr:district': 'Jaunpur', 'addr:full': 'Polytechnic Chorah, Varanasi Road (Krishi Bhawan Ke Samne)', 'addr:postcode': '222002', 'addr:state': 'Uttar Pradesh', 'amenity': 'hospital', 'name': 'Aashirwad Hospital And Research Centre', 'source': 'OpenGovernmentData'}}"
"{'type': 'node', 'id': 7035919982, 'lat': 24.8645654, 'lon': 82.8569596, 'tags': {'addr:district': 'Mirzapur', 'addr:full': 'Rajgrah', 'addr:postcode': '231001', 'addr:state': 'Uttar Pradesh', 'healthcare': 'centre', 'name': 'CHC, Rajgrah', 'source': 'OpenGovernmentData'}}"
"{'type': 'node', 'id': 7035931039, 'lat': 25.7380768, 'lon': 82.6853894, 'tags': {'addr:district': 'Jaunpur', 'addr:full': 'Umarpur, Haribanohanpur', 'addr:postcode': '222002', 'addr:state': 'Uttar Pradesh', 'amenity': 'hospital', 'name': 'Kamla Hospital', 'source': 'OpenGovernmentData'}}"
"{'type': 'node', 'id': 7036042237, 'lat': 25.2804967, 'lon': 82.9677971, 'tags': {'addr:district': 'Varanasi', 'addr:full': 'Bhikahripur, Hydle Gate', 'addr:postcode': '221004', 'addr:state': 'Uttar Pradesh', 'amenity': 'hospital', 'name': 'Kashi Hospital', 'source': 'OpenGovernmentData'}}"
"{'type': 'node', 'id': 7036286014, 'lat': 25.3024243, 'lon': 82.9690787, 'tags': {'addr:district': 'Varanasi', 'addr:full': 'Jagriti Nagar Colony Manduwadih', 'addr:postcode': '221003', 'addr:state': 'Uttar Pradesh', 'amenity': 'clinic', 'healthcare': 'clinic', 'name': 'Anurag Maternity and Laparoscopic Center', 'source': 'OpenGovernmentData'}}"
"{'type': 'node', 'id': 7036345973, 'lat': 25.3527657, 'lon': 82.96783, 'tags': {'addr:district': 'Varanasi', 'addr:full': 'Gialt Bazar Shivpur Road (Airport Road)', 'addr:postcode': '221003', 'addr:state': 'Uttar Pradesh', 'amenity': 'hospital', 'healthcare': 'hospital', 'name': 'Heiwel Hospital and Rehabilitaition Center', 'source': 'OpenGovernmentData'}}"
"{'type': 'node', 'id': 7036389826, 'lat': 25.2452285, 'lon': 82.1256419, 'tags': {'addr:district': 'Allahabad', 'addr:full': 'Ram Nagar', 'addr:postcode': '212305', 'addr:state': 'Uttar Pradesh', 'healthcare': 'centre', 'name': 'CHC, Ram Nagar', 'source': 'OpenGovernmentData'}}"
"{'type': 'node', 'id': 7037327092, 'lat': 25.3605676, 'lon': 83.0265085, 'tags': {'addr:district': 'Varanasi', 'addr:full': 'Ashapur Chauraha, Sarnath', 'addr:postcode': '221007', 'addr:state': 'Uttar Pradesh', 'amenity': 'hospital', 'name': 'Sarnath Hospital', 'source': 'OpenGovernmentData'}}"
"{'type': 'node', 'id': 7037356356, 'lat': 25.7801071, 'lon': 82.6904869, 'tags': {'addr:district': 'Jaunpur', 'addr:full': 'Kuttupur (Khanpur)', 'addr:postcode': '222001', 'addr:state': 'Uttar Pradesh', 'amenity': 'hospital', 'name': 'Laxmi Health Care and Hospital', 'source': 'OpenGovernmentData'}}"
"{'type': 'node', 'id': 7037489302, 'lat': 25.2845053, 'lon': 82.4361156, 'tags': {'addr:district': 'Bhadohi', 'addr:full': 'G T Road, Ramleela Maiden Ke Samame, Gopiganj, S R N', 'addr:postcode': '221304', 'addr:state': 'Uttar Pradesh', 'amenity': 'clinic', 'name': 'Anand Poly clinic and Trauma Centre', 'source': 'OpenGovernmentData'}}"
"{'type': 'node', 'id': 7037526086, 'lat': 25.2831311, 'lon': 82.9684355, 'tags': {'addr:district': 'Varanasi', 'addr:full': 'D.L.W. Hydle Road , Varanasi-04', 'addr:postcode': '221004', 'addr:state': 'Uttar Pradesh', 'amenity': 'hospital', 'name': 'Apex Hospital', 'source': 'OpenGovernmentData', 'website': 'https://www.apexhospitalvaranasi.com/'}}"
"{'type': 'node', 'id': 7037577383, 'lat': 25.3543803, 'lon': 82.9624132, 'tags': {'addr:district': 'Varanasi', 'addr:full': 'Shivpur', 'addr:postcode': '221002', 'addr:state': 'Uttar Pradesh', 'amenity': 'hospital', 'healthcare': 'hospital', 'name': 'Harshlok Eye Care Centre', 'source': 'OpenGovernmentData'}}"
"{'type': 'node', 'id': 7037589795, 'lat': 25.1456148, 'lon': 82.5711018, 'tags': {'addr:district': 'Mirzapur', 'addr:full': 'Girdhar Chauraha ,Badli Katra', 'addr:postcode': '231001', 'addr:state': 'Uttar Pradesh', 'amenity': 'hospital', 'name': 'Mrittunjai Hospital', 'source': 'OpenGovernmentData'}}"
"{'type': 'node', 'id': 7037589800, 'lat': 25.3213263, 'lon': 83.0129261, 'tags': {'addr:district': 'Varanasi', 'addr:full': 'K 57/35, Daranagar, Maidagine Road', 'addr:postcode': '221001', 'addr:state': 'Uttar Pradesh', 'amenity': 'hospital', 'name': 'Mrityunjay Hospital', 'source': 'OpenGovernmentData'}}"
"{'type': 'node', 'id': 7037589815, 'lat': 25.0215215, 'lon': 83.0332668, 'tags': {'addr:district': 'Mirzapur', 'addr:full': 'Ahraura Jamalpur', 'addr:postcode': '231301', 'addr:state': 'Uttar Pradesh', 'healthcare': 'centre', 'name': 'CHC, Ahraura', 'source': 'OpenGovernmentData'}}"
"{'type': 'node', 'id': 7037700047, 'lat': 25.3757006, 'lon': 82.9161931, 'tags': {'addr:district': 'Varanasi', 'addr:full': 'Airport Road, Wazipur, Harahua, Bhelkha Varanasi', 'addr:postcode': '221005', 'addr:state': 'Uttar Pradesh', 'amenity': 'hospital', 'name': 'Pragya Multi Speciality Hospital and Research Center', 'source': 'OpenGovernmentData'}}"
"{'type': 'node', 'id': 7037707463, 'lat': 25.1517029, 'lon': 82.530469, 'tags': {'addr:district': 'Sultanpur', 'addr:full': 'Ojhlapul, Mirzapur', 'addr:postcode': '228001', 'addr:state': 'Uttar Pradesh', 'amenity': 'hospital', 'name': 'Ram Krishna Sewashram', 'source': 'OpenGovernmentData'}}"
"{'type': 'node', 'id': 7037751993, 'lat': 25.332967, 'lon': 83.0144739, 'tags': {'addr:district': 'Varanasi', 'addr:full': 'J25/59, Alaipur, G.T. Road, In Front Of Varanasi City Railway Station', 'addr:postcode': '221001', 'addr:state': 'Uttar Pradesh', 'amenity': 'hospital', 'name': 'Ayushman Hospital and Trauma Centre', 'source': 'OpenGovernmentData'}}"
"{'type': 'node', 'id': 7037813501, 'lat': 25.3697983, 'lon': 82.9726593, 'tags': {'addr:district': 'Varanasi', 'addr:full': 'Sh-3/1 R.A Nawalpur Bashai', 'addr:postcode': '221002', 'addr:state': 'Uttar Pradesh', 'amenity': 'clinic', 'name': 'Ram Nath Memorial Nursing Home', 'source': 'OpenGovernmentData'}}"
"{'type': 'node', 'id': 7038281054, 'lat': 25.3007101, 'lon': 83.0023755, 'tags': {'addr:district': 'Varanasi', 'addr:full': 'B-12/120-A-8-1 Bhelupur( Beside Behlupur Thana)', 'addr:postcode': '221005', 'addr:state': 'Uttar Pradesh', 'amenity': 'hospital', 'name': 'Hospital Harsha', 'source': 'OpenGovernmentData'}}"
"{'type': 'node', 'id': 7038573165, 'lat': 25.2744502, 'lon': 82.9995149, 'tags': {'addr:district': 'Varanasi', 'addr:full': 'B.H.U', 'addr:postcode': '221001', 'addr:state': 'Uttar Pradesh', 'amenity': 'hospital', 'contact:nodal_officer_email': 'gopalnath@gmail.com', 'contact:nodal_officer_mobile': '9335058394', 'name': 'Institute Of Medical Science and S.S.Hospital', 'source': 'OpenGovernmentData'}}"
"{'type': 'node', 'id': 7038841025, 'lat': 25.3205662, 'lon': 83.0127322, 'tags': {'addr:district': 'Varanasi', 'addr:full': 'K-50/124, Hartinath Visheshwarganj', 'addr:postcode': '221001', 'addr:state': 'Uttar Pradesh', 'amenity': 'hospital', 'name': 'Medwin Hospitals And Research Centre', 'source': 'OpenGovernmentData'}}"
"{'type': 'node', 'id': 7038908616, 'lat': 25.3023578, 'lon': 82.9753549, 'tags': {'addr:district': 'Varanasi', 'addr:full': 'B-38 / 63-6, Brijwas Colony, Mahmoorganj', 'addr:postcode': '221010', 'addr:state': 'Uttar Pradesh', 'amenity': 'clinic', 'healthcare': 'clinic', 'name': 'Baby Care Clinic', 'source': 'OpenGovernmentData'}}"
"{'type': 'node', 'id': 7039726727, 'lat': 25.2879707, 'lon': 83.004762, 'tags': {'addr:district': 'Varanasi', 'addr:full': 'B1/121 A-P Assi, Assi ghat road', 'addr:postcode': '221005', 'addr:state': 'Uttar Pradesh', 'amenity': 'hospital', 'name': 'Alok Health Care Hospital Pvt Ltd', 'source': 'OpenGovernmentData'}}"
"{'type': 'node', 'id': 7039962686, 'lat': 25.3109998, 'lon': 82.9868113, 'tags': {'addr:district': 'Varanasi', 'addr:full': 'Maa Vaishno Nagar Colony,Near Chandpur Chauraha', 'addr:postcode': '221001', 'addr:state': 'Uttar Pradesh', 'amenity': 'hospital', 'healthcare': 'hospital', 'name': 'Dr Ram Bilas Fracture and Surgical Centre', 'source': 'OpenGovernmentData'}}"
"{'type': 'node', 'id': 7039962698, 'lat': 25.3867334, 'lon': 82.5821934, 'tags': {'addr:district': 'Bhadohi', 'addr:full': 'Chauri Road Hadohi', 'addr:postcode': '221401', 'addr:state': 'Uttar Pradesh', 'amenity': 'clinic', 'name': 'Wazirunnisa Mother Care Nursing Home', 'source': 'OpenGovernmentData'}}"
"{'type': 'node', 'id': 7039962714, 'lat': 25.2788183, 'lon': 82.9996276, 'tags': {'addr:district': 'Varanasi', 'addr:full': 'B-31/80-23B, Bhogabir (Opp Bhu Emergency )Lanka', 'addr:postcode': '221101', 'addr:state': 'Uttar Pradesh', 'amenity': 'hospital', 'name': 'Sudbhawana Hospital', 'source': 'OpenGovernmentData'}}"
"{'type': 'node', 'id': 7039967068, 'lat': 25.6567956, 'lon': 82.1960429, 'tags': {'addr:district': 'Jaunpur', 'addr:full': 'Mungrabadsahpur', 'addr:postcode': '222202', 'addr:state': 'Uttar Pradesh', 'healthcare': 'centre', 'name': 'CHC, Mugrabadsahpur', 'source': 'OpenGovernmentData'}}"
"{'type': 'node', 'id': 7039972798, 'lat': 25.2824005, 'lon': 82.9906966, 'tags': {'addr:district': 'Varanasi', 'addr:full': 'Gandhi Nagar Naria', 'addr:postcode': '221001', 'addr:state': 'Uttar Pradesh', 'amenity': 'clinic', 'name': 'Bps Heart Clinic', 'source': 'OpenGovernmentData'}}"
"{'type': 'node', 'id': 7095366181, 'lat': 24.5520185, 'lon': 82.1264103, 'tags': {'addr:block': 'Sihawal', 'addr:district': 'Sidhi', 'addr:state': 'Madhya Pradesh', 'addr:subdistrict': 'Sihawal', 'amenity': 'hospital', 'description': 'Primary Health Centre', 'name': 'PHC Amiliya', 'source': 'OpenGovernmentData'}}"
"{'type': 'node', 'id': 7098325166, 'lat': 24.5310842, 'lon': 82.5708523, 'tags': {'addr:block': 'Chitrangi', 'addr:district': 'Singrauli', 'addr:full': 'khatai', 'addr:postcode': '486882', 'addr:state': 'Madhya Pradesh', 'addr:street': 'Phckhatai', 'addr:subdistrict': 'Chitrangi', 'amenity': 'hospital', 'healthcare': 'centre', 'landmark': 'Khatai', 'locality': 'Khatai', 'name': 'Government Hospital,Khatai', 'source': 'OpenGovernmentData'}}"
"{'type': 'node', 'id': 7101275411, 'lat': 24.5620148, 'lon': 82.2454548, 'tags': {'addr:block': 'Sihawal', 'addr:district': 'Sidhi', 'addr:state': 'Madhya Pradesh', 'addr:subdistrict': 'Sihawal', 'amenity': 'hospital', 'description': 'Government hospital', 'name': 'Government hospital Sihawal', 'source': 'OpenGovernmentData'}}"
"{'type': 'node', 'id': 7103381753, 'lat': 24.7785109, 'lon': 82.093446, 'tags': {'addr:block': 'Hanumana', 'addr:district': 'Rewa', 'addr:full': 'Hanumana', 'addr:state': 'Madhya Pradesh', 'addr:subdistrict': 'Hanumana', 'amenity': 'hospital', 'healthcare': 'centre', 'name': 'Goverment hospital', 'source': 'OpenGovernmentData'}}"
"{'type': 'node', 'id': 7106835467, 'lat': 24.47383, 'lon': 82.546223, 'tags': {'addr:block': 'Chitrangi', 'addr:district': 'Singrauli', 'addr:full': 'CHC Chitrangi', 'addr:postcode': '486882', 'addr:state': 'Madhya Pradesh', 'addr:street': 'Hospital Chouwk Chitrangi', 'addr:subdistrict': 'Chitrangi', 'contact:phone': '7049904040', 'description': 'Community Health Center', 'healthcare': 'centre', 'landmark': 'Chitrangi', 'locality': 'Chitrangi', 'name': 'CHC Chitrangi', 'source': 'OpenGovernmentData'}}"
"{'type': 'node', 'id': 7156325073, 'lat': 25.5988103, 'lon': 82.8957483, 'tags': {'addr:district': 'Jaunpur', 'addr:full': 'TAHANGADDI', 'addr:postcode': '222181', 'addr:state': 'Uttar Pradesh', 'addr:subdistrict': 'Kerakat', 'description': 'Primary Health Centre', 'healthcare': 'centre', 'name': 'PHC TAHANGADDI', 'source': 'OpenGovernmentData'}}"
"{'type': 'node', 'id': 7156571702, 'lat': 25.2550935, 'lon': 82.236181, 'tags': {'addr:block': 'Deegh', 'addr:district': 'Sant Ravidas Nagar (Bhadohi)', 'addr:state': 'Uttar Pradesh', 'addr:subdistrict': 'Gyanpur', 'description': 'Primary Health Centre', 'healthcare': 'centre', 'name': 'PHC, Deegh', 'source': 'OpenGovernmentData'}}"
"{'type': 'node', 'id': 7156988191, 'lat': 24.529226, 'lon': 83.0168501, 'tags': {'addr:block': 'Chopen', 'addr:district': 'Sonbhadra', 'addr:postcode': '231205', 'addr:state': 'Uttar Pradesh', 'addr:subdistrict': 'Robertsganj', 'description': 'Community Health Centre', 'healthcare': 'centre', 'name': 'CHC,Chopen', 'source': 'OpenGovernmentData'}}"
"{'type': 'node', 'id': 7156988213, 'lat': 25.2347075, 'lon': 82.803137, 'tags': {'addr:block': 'Majhwan', 'addr:district': 'Mirzapur', 'addr:full': 'Pokhari Ke Pass, Jamua', 'addr:postcode': '231314', 'addr:state': 'Uttar Pradesh', 'description': 'Primary Health Centre', 'healthcare': 'centre', 'name': 'PHC,Jamua', 'source': 'OpenGovernmentData'}}"
"{'type': 'node', 'id': 7156989084, 'lat': 25.2435757, 'lon': 82.822284, 'tags': {'addr:block': 'Araji Lines', 'addr:district': 'Varanasi', 'addr:state': 'Uttar Pradesh', 'description': 'Primary Health Centre', 'healthcare': 'centre', 'name': 'New PHC MAHAGAON', 'source': 'OpenGovernmentData'}}"
"{'type': 'node', 'id': 7162449771, 'lat': 25.5344054, 'lon': 83.0961321, 'tags': {'addr:district': 'Ghazipur', 'addr:full': 'Saidpur, Gorakha', 'addr:postcode': '233223', 'addr:state': 'Uttar Pradesh', 'addr:subdistrict': 'Saidpur', 'description': 'Primary Health Centre', 'healthcare': 'centre', 'name': 'PHC,Gaurkha', 'source': 'OpenGovernmentData'}}"
"{'type': 'node', 'id': 7164436820, 'lat': 25.7105228, 'lon': 82.8680451, 'tags': {'addr:block': 'Muftiganj', 'addr:district': 'Jaunpur', 'addr:full': 'BAGTHARI', 'addr:postcode': '222170', 'addr:state': 'Uttar Pradesh', 'addr:subdistrict': 'Kerakat', 'description': 'Primary Health Centre', 'healthcare': 'centre', 'name': 'APHC BAGTHARI', 'source': 'OpenGovernmentData'}}"
"{'type': 'node', 'id': 7164793662, 'lat': 25.4945793, 'lon': 82.6869068, 'tags': {'addr:block': 'Rampur', 'addr:district': 'Jaunpur', 'addr:full': 'Nonari', 'addr:postcode': '222203', 'addr:state': 'Uttar Pradesh', 'addr:subdistrict': 'Mariahu', 'description': 'Primary Health Centre', 'healthcare': 'centre', 'name': 'APHC Nonari', 'source': 'OpenGovernmentData'}}"
"{'type': 'node', 'id': 7164804306, 'lat': 25.3956644, 'lon': 82.5650775, 'tags': {'addr:block': 'Bhadhoi', 'addr:district': 'Sant Ravidas Nagar (Bhadohi)', 'addr:full': 'Station Road, kotwali side', 'addr:postcode': '221401', 'addr:state': 'Uttar Pradesh', 'addr:subdistrict': 'Bhadohi', 'amenity': 'hospital', 'description': 'Sub-District Hospital', 'name': 'MAHARAJA BALAVANT SINGH COMBINED DISTRIC HOSPITAL', 'source': 'OpenGovernmentData'}}"
"{'type': 'node', 'id': 7164804348, 'lat': 25.4251623, 'lon': 82.8184859, 'tags': {'addr:block': 'MAJHGANWA', 'addr:district': 'Bareilly', 'addr:full': 'Near Temple, Aonla', 'addr:state': 'Uttar Pradesh', 'addr:subdistrict': 'Aonla', 'description': 'Primary Health Centre', 'healthcare': 'centre', 'name': 'PHC, Baragaon', 'source': 'OpenGovernmentData'}}"
"{'type': 'node', 'id': 7164804397, 'lat': 25.5456583, 'lon': 82.07884, 'tags': {'addr:district': 'Allahabad', 'addr:postcode': '212402', 'addr:state': 'Uttar Pradesh', 'addr:subdistrict': 'Phulpur', 'description': 'Community Health Centre', 'healthcare': 'centre', 'name': 'CHC Phulpur', 'source': 'OpenGovernmentData'}}"
"{'type': 'node', 'id': 7165049525, 'lat': 25.4259919, 'lon': 82.1045201, 'tags': {'addr:district': 'Allahabad', 'addr:postcode': '221508', 'addr:state': 'Uttar Pradesh', 'addr:subdistrict': 'Handia', 'description': 'Primary Health Centre', 'healthcare': 'centre', 'name': 'NPHC Motiha', 'source': 'OpenGovernmentData'}}"
"{'type': 'node', 'id': 7165049530, 'lat': 25.6754107, 'lon': 82.3266278, 'tags': {'addr:block': 'Dobhi', 'addr:district': 'Jaunpur', 'addr:state': 'Uttar Pradesh', 'addr:subdistrict': 'Kerakat', 'description': 'Community Health Centre', 'healthcare': 'centre', 'name': 'CHC Kunwarpur', 'source': 'OpenGovernmentData'}}"
"{'type': 'node', 'id': 7165049631, 'lat': 25.4603956, 'lon': 82.8816003, 'tags': {'addr:block': 'BELHARI', 'addr:district': 'Varanasi', 'addr:full': 'Varanasi, Gangapur', 'addr:postcode': '221202', 'addr:state': 'Uttar Pradesh', 'addr:subdistrict': 'Bairia', 'description': 'Primary Health Centre', 'healthcare': 'centre', 'name': 'PHC Gangapur', 'source': 'OpenGovernmentData'}}"
"{'type': 'node', 'id': 7167068082, 'lat': 25.7112864, 'lon': 82.8127581, 'tags': {'addr:block': 'Muftiganj', 'addr:district': 'Jaunpur', 'addr:full': 'Muftiganj', 'addr:postcode': '222170', 'addr:state': 'Uttar Pradesh', 'addr:subdistrict': 'Kerakat', 'description': 'Primary Health Centre', 'healthcare': 'centre', 'name': 'Government Primary Health Centre', 'source': 'OpenGovernmentData'}}"
"{'type': 'node', 'id': 7167187847, 'lat': 25.3713263, 'lon': 82.1170574, 'tags': {'addr:district': 'Allahabad', 'addr:postcode': '221508', 'addr:state': 'Uttar Pradesh', 'addr:subdistrict': 'Handia', 'description': 'Primary Health Centre', 'healthcare': 'centre', 'name': 'PHC,Saidabad', 'source': 'OpenGovernmentData'}}"
"{'type': 'node', 'id': 7167188298, 'lat': 24.9558469, 'lon': 82.2624895, 'tags': {'addr:district': 'Mirzapur', 'addr:full': 'Baraundha', 'addr:postcode': '231211', 'addr:state': 'Uttar Pradesh', 'addr:subdistrict': 'Lalganj', 'description': 'Primary Health Centre', 'healthcare': 'centre', 'name': 'PHC,Baraundha', 'source': 'OpenGovernmentData'}}"
"{'type': 'node', 'id': 7167188324, 'lat': 25.7898812, 'lon': 82.2484005, 'tags': {'addr:block': 'Sujanganj', 'addr:district': 'Jaunpur', 'addr:full': 'Pram Ka Pura', 'addr:postcode': '222201', 'addr:state': 'Uttar Pradesh', 'addr:subdistrict': 'Machhlishahr', 'description': 'Primary Health Centre', 'healthcare': 'centre', 'name': 'APHC Pram Ka Pura', 'source': 'OpenGovernmentData'}}"
"{'type': 'node', 'id': 7167606206, 'lat': 25.2824618, 'lon': 83.1223165, 'tags': {'addr:district': 'Chandauli', 'addr:full': 'NAGAR PALIKA INTER COLLEGE, NEAR GT ROAD', 'addr:postcode': '232101', 'addr:state': 'Uttar Pradesh', 'amenity': 'hospital', 'description': 'District Hospital', 'name': 'Rajkiya Mahila Chikitsalaya Mughalsarai', 'source': 'OpenGovernmentData'}}"
"{'type': 'node', 'id': 7167606216, 'lat': 25.628034, 'lon': 83.1081699, 'tags': {'addr:district': 'Ghazipur', 'addr:full': 'Mehnajpur-Naikdeeh Marg', 'addr:postcode': '233304', 'addr:state': 'Uttar Pradesh', 'addr:subdistrict': 'Saidpur', 'description': 'Primary Health Centre', 'healthcare': 'centre', 'name': 'PHC Saidpur-Naiyakdeeh', 'source': 'OpenGovernmentData'}}"
"{'type': 'node', 'id': 7167854866, 'lat': 25.2930325, 'lon': 83.0055606, 'tags': {'addr:district': 'Varanasi', 'addr:full': 'Mata Anandmayi', 'addr:postcode': '221001', 'addr:state': 'Uttar Pradesh', 'description': 'Primary Health Centre', 'healthcare': 'centre', 'name': 'Mata Anandmayi', 'source': 'OpenGovernmentData'}}"
"{'type': 'node', 'id': 7170011908, 'lat': 24.9164485, 'lon': 82.7242807, 'tags': {'addr:block': 'Ramnagar', 'addr:district': 'Chitrakoot', 'addr:full': 'Near Power House, Rajapur, Rajapur Urban', 'addr:postcode': '210207', 'addr:state': 'Uttar Pradesh', 'addr:subdistrict': 'Mau', 'description': 'Community Health Centre', 'healthcare': 'centre', 'name': 'CHC, Rajapur', 'source': 'OpenGovernmentData'}}"
"{'type': 'node', 'id': 7170287066, 'lat': 25.7592013, 'lon': 82.6968142, 'tags': {'addr:district': 'Jaunpur', 'addr:full': 'Station Road Jaunpur', 'addr:postcode': '222002', 'addr:state': 'Uttar Pradesh', 'addr:subdistrict': 'Jaunpur', 'amenity': 'hospital', 'description': 'District Hospital', 'name': 'District Women Hospital Jaunpur', 'source': 'OpenGovernmentData'}}"
"{'type': 'node', 'id': 7170293974, 'lat': 25.6782958, 'lon': 83.1120416, 'tags': {'addr:district': 'Azamgarh', 'addr:full': 'MEHNAJPUR', 'addr:postcode': '276203', 'addr:state': 'Uttar Pradesh', 'addr:subdistrict': 'Lalganj', 'description': 'Community Health Centre', 'healthcare': 'centre', 'name': 'CHC MEHNAJPUR', 'source': 'OpenGovernmentData'}}"
"{'type': 'node', 'id': 7170594175, 'lat': 25.802306, 'lon': 82.5530492, 'tags': {'addr:district': 'Shamli', 'addr:full': 'NEAR RAGHUNATH TEMPLE, NANDU PRASAD, NANDUPRASAD MOHALLA BARKHANDI, C/O-DEVENDRA KUMAR', 'addr:postcode': '222109', 'addr:state': 'Uttar Pradesh', 'description': 'Urban Health Centre', 'healthcare': 'centre', 'name': 'UPHC BARKHANDI', 'source': 'OpenGovernmentData'}}"
"{'type': 'node', 'id': 7171804596, 'lat': 25.4243405, 'lon': 82.2195366, 'tags': {'addr:district': 'Allahabad', 'addr:postcode': '221503', 'addr:state': 'Uttar Pradesh', 'addr:subdistrict': 'Handia', 'description': 'Primary Health Centre', 'healthcare': 'centre', 'name': 'PHC,KATEHRA-Hnadia', 'source': 'OpenGovernmentData'}}"
"{'type': 'node', 'id': 7172783790, 'lat': 25.693782, 'lon': 81.9089006, 'tags': {'addr:block': 'Mauaima', 'addr:district': 'Allahabad', 'addr:state': 'Uttar Pradesh', 'addr:subdistrict': 'Soraon', 'description': 'Primary Health Centre', 'healthcare': 'centre', 'name': 'P.H.C Mau Aima', 'source': 'OpenGovernmentData'}}"
"{'type': 'node', 'id': 7172783795, 'lat': 25.2528496, 'lon': 82.8696088, 'tags': {'addr:block': 'Araji Lines', 'addr:district': 'Varanasi', 'addr:state': 'Uttar Pradesh', 'description': 'Primary Health Centre', 'healthcare': 'centre', 'name': 'New PHC PAYAGPUR', 'source': 'OpenGovernmentData'}}"
"{'type': 'node', 'id': 7172783882, 'lat': 25.3295693, 'lon': 82.4653718, 'tags': {'addr:block': 'Gayanpur', 'addr:district': 'Sant Ravidas Nagar (Bhadohi)', 'addr:full': 'Near JNV School, CHAKTODAR', 'addr:postcode': '221303', 'addr:state': 'Uttar Pradesh', 'addr:subdistrict': 'Gyanpur', 'amenity': 'hospital', 'name': 'Govt. Hospital', 'source': 'OpenGovernmentData'}}"
"{'type': 'node', 'id': 7172806443, 'lat': 25.4897711, 'lon': 82.5698284, 'tags': {'addr:block': 'Rampur', 'addr:district': 'Jaunpur', 'addr:full': 'Rampur', 'addr:postcode': '222203', 'addr:state': 'Uttar Pradesh', 'addr:subdistrict': 'Mariahu', 'description': 'Primary Health Centre', 'healthcare': 'centre', 'name': 'PHC,Rampur', 'source': 'OpenGovernmentData'}}"
"{'type': 'node', 'id': 7172869753, 'lat': 25.6933487, 'lon': 81.9093519, 'tags': {'addr:district': 'Allahabad', 'addr:postcode': '212305', 'addr:state': 'Uttar Pradesh', 'addr:subdistrict': 'Meja', 'description': 'Primary Health Centre', 'healthcare': 'centre', 'name': 'phc,Shuklapur', 'source': 'OpenGovernmentData'}}"
"{'type': 'node', 'id': 7172896867, 'lat': 25.0876983, 'lon': 82.5997686, 'tags': {'addr:block': 'Pahadi', 'addr:district': 'Mirzapur', 'addr:state': 'Uttar Pradesh', 'description': 'Primary Health Centre', 'healthcare': 'centre', 'name': 'PHC Barkachha', 'source': 'OpenGovernmentData'}}"
"{'type': 'node', 'id': 7172904998, 'lat': 25.7569215, 'lon': 82.8851227, 'tags': {'addr:block': 'Muftiganj', 'addr:district': 'Jaunpur', 'addr:full': 'BARI', 'addr:postcode': '222133', 'addr:state': 'Uttar Pradesh', 'addr:subdistrict': 'Kerakat', 'description': 'Primary Health Centre', 'healthcare': 'centre', 'name': 'PHC BARI', 'source': 'OpenGovernmentData'}}"
"{'type': 'node', 'id': 7172949282, 'lat': 25.6844634, 'lon': 83.2131408, 'tags': {'addr:block': 'Chanve', 'addr:district': 'Mirzapur', 'addr:full': 'NAROIYA', 'addr:postcode': '231303', 'addr:state': 'Uttar Pradesh', 'description': 'Primary Health Centre', 'healthcare': 'centre', 'name': 'PHC,Mirzapur', 'source': 'OpenGovernmentData'}}"
"{'type': 'node', 'id': 7172993167, 'lat': 25.2003562, 'lon': 82.5170808, 'tags': {'addr:block': 'Kone', 'addr:district': 'Mirzapur', 'addr:full': 'Tilathi', 'addr:postcode': '231312', 'addr:state': 'Uttar Pradesh', 'description': 'Primary Health Centre', 'healthcare': 'centre', 'name': 'PHC Tilathi', 'source': 'OpenGovernmentData'}}"
"{'type': 'node', 'id': 7173067790, 'lat': 25.1581063, 'lon': 82.9559425, 'tags': {'addr:district': 'Mirzapur', 'addr:full': 'Pachewara', 'addr:postcode': '231304', 'addr:state': 'Uttar Pradesh', 'addr:subdistrict': 'Chunar', 'amenity': 'hospital', 'description': 'Government Hospital', 'name': 'Government Hospital Pachewara', 'source': 'OpenGovernmentData'}}"
"{'type': 'node', 'id': 7173067795, 'lat': 25.5419599, 'lon': 83.2281317, 'tags': {'addr:district': 'Ghazipur', 'addr:full': 'Saidpur', 'addr:postcode': '233304', 'addr:state': 'Uttar Pradesh', 'addr:subdistrict': 'Saidpur', 'description': 'Community Health Centre', 'healthcare': 'centre', 'name': 'CHC Main certre', 'source': 'OpenGovernmentData'}}"
"{'type': 'node', 'id': 7173067833, 'lat': 24.8373976, 'lon': 83.0575888, 'tags': {'addr:block': 'Ravertganj', 'addr:district': 'Sonbhadra', 'addr:postcode': '231216', 'addr:state': 'Uttar Pradesh', 'addr:subdistrict': 'Robertsganj', 'description': 'Primary Health Centre', 'healthcare': 'centre', 'name': 'PHC Madhupur', 'source': 'OpenGovernmentData'}}"
"{'type': 'node', 'id': 7173737350, 'lat': 25.6099641, 'lon': 82.2459912, 'tags': {'addr:block': 'Mo.Badshahpur', 'addr:district': 'Jaunpur', 'addr:full': 'Nibhapur', 'addr:postcode': '222202', 'addr:state': 'Uttar Pradesh', 'addr:subdistrict': 'Machhlishahr', 'description': 'Primary Health Centre', 'healthcare': 'centre', 'name': 'PHC Nibhapur', 'source': 'OpenGovernmentData'}}"
"{'type': 'node', 'id': 7175776469, 'lat': 25.576793, 'lon': 82.7856624, 'tags': {'addr:block': 'Jalalpur', 'addr:district': 'Jaunpur', 'addr:full': 'Trilochan', 'addr:postcode': '222146', 'addr:state': 'Uttar Pradesh', 'addr:subdistrict': 'Kerakat', 'description': 'Primary Health Centre', 'healthcare': 'centre', 'name': 'PHC Trilochan', 'source': 'OpenGovernmentData'}}"
"{'type': 'node', 'id': 7175894430, 'lat': 25.0078492, 'lon': 82.0715927, 'tags': {'addr:district': 'Allahabad', 'addr:postcode': '212306', 'addr:state': 'Uttar Pradesh', 'addr:subdistrict': 'Koraon', 'description': 'Community Health Centre', 'healthcare': 'centre', 'name': 'CHC Koraon', 'source': 'OpenGovernmentData'}}"
"{'type': 'node', 'id': 7175968189, 'lat': 25.1985572, 'lon': 82.8294602, 'tags': {'addr:block': 'Manikpur', 'addr:district': 'Chitrakoot', 'addr:full': 'Main Market Manikpur, Manikpur', 'addr:postcode': '210208', 'addr:state': 'Uttar Pradesh', 'addr:subdistrict': 'Karwi', 'description': 'Community Health Centre', 'healthcare': 'centre', 'name': 'CHC Manikpur', 'source': 'OpenGovernmentData'}}"
"{'type': 'node', 'id': 7176199086, 'lat': 25.8053486, 'lon': 82.6888219, 'tags': {'addr:block': 'Karanjakala', 'addr:district': 'Jaunpur', 'addr:full': 'Near ITI Jaunpur, Jaunpur Sadar, Karnjakala', 'addr:postcode': '222001', 'addr:state': 'Uttar Pradesh', 'addr:subdistrict': 'Jaunpur', 'description': 'Primary Health Centre', 'healthcare': 'centre', 'name': 'PHC Karnjakala', 'source': 'OpenGovernmentData'}}"
"{'type': 'node', 'id': 7176347255, 'lat': 25.1334662, 'lon': 82.8158741, 'tags': {'addr:district': 'Mirzapur', 'addr:full': 'Chak Goraiya', 'addr:postcode': '231306', 'addr:state': 'Uttar Pradesh', 'addr:subdistrict': 'Chunar', 'amenity': 'hospital', 'description': 'Government Hospital', 'name': 'Government Hospital Chak Goraiya', 'source': 'OpenGovernmentData'}}"
"{'type': 'node', 'id': 7176858249, 'lat': 25.2724122, 'lon': 82.842721, 'tags': {'addr:block': 'Araji Lines', 'addr:district': 'Varanasi', 'addr:state': 'Uttar Pradesh', 'description': 'Primary Health Centre', 'healthcare': 'centre', 'name': 'New PHC Rajatalab', 'source': 'OpenGovernmentData'}}"
"{'type': 'node', 'id': 7177219646, 'lat': 25.7631436, 'lon': 83.1902173, 'tags': {'addr:block': 'Tarwa', 'addr:district': 'Azamgarh', 'addr:full': 'PARMANPUR', 'addr:postcode': '276001', 'addr:state': 'Uttar Pradesh', 'amenity': 'hospital', 'description': 'Government Hospital', 'name': 'Government Hospital PARMANPUR', 'source': 'OpenGovernmentData'}}"
"{'type': 'node', 'id': 7177238835, 'lat': 25.1048392, 'lon': 83.138629, 'tags': {'addr:block': 'Chakiya', 'addr:district': 'Chandauli', 'addr:full': '1 KM NORTH NEAR BAIRI MODH, Chakiya-Rampurkala', 'addr:postcode': '232103', 'addr:state': 'Uttar Pradesh', 'addr:subdistrict': 'Chakia', 'description': 'Primary Health Centre', 'healthcare': 'centre', 'name': 'PHC,Chakiya-Rampurkala', 'source': 'OpenGovernmentData'}}"
"{'type': 'node', 'id': 7177238941, 'lat': 24.6466978, 'lon': 83.0585021, 'tags': {'addr:block': 'Ravertganj', 'addr:district': 'Sonbhadra', 'addr:postcode': '231216', 'addr:state': 'Uttar Pradesh', 'addr:subdistrict': 'Robertsganj', 'amenity': 'hospital', 'description': 'District Hospital', 'name': 'Robertsganj District Combind Hospital', 'source': 'OpenGovernmentData'}}"
"{'type': 'node', 'id': 7177453602, 'lat': 24.8853975, 'lon': 82.7870712, 'tags': {'addr:block': 'Rajgarh', 'addr:district': 'Mirzapur', 'addr:full': 'SONBHADRA ROAD, BAGHURA', 'addr:postcode': '231001', 'addr:state': 'Uttar Pradesh', 'addr:subdistrict': 'Chunar', 'description': 'Primary Health Centre', 'healthcare': 'centre', 'name': 'PHC BAGHAURA', 'source': 'OpenGovernmentData'}}"
"{'type': 'node', 'id': 7177708842, 'lat': 25.3544236, 'lon': 82.9934826, 'tags': {'addr:district': 'Varanasi', 'addr:full': 'Pandeypur', 'addr:postcode': '221001', 'addr:state': 'Uttar Pradesh', 'description': 'Primary Health Centre', 'healthcare': 'centre', 'name': 'phc,Pandeypur', 'source': 'OpenGovernmentData'}}"
"{'type': 'node', 'id': 7178061023, 'lat': 25.4215976, 'lon': 82.7122906, 'tags': {'addr:block': 'Badagoan', 'addr:district': 'Varanasi', 'addr:state': 'Uttar Pradesh', 'addr:subdistrict': 'Pindra', 'amenity': 'hospital', 'name': 'Government Hospital,Danoo Pur', 'source': 'OpenGovernmentData'}}"
"{'type': 'node', 'id': 7181570790, 'lat': 24.9692209, 'lon': 82.4027127, 'tags': {'addr:district': 'Mirzapur', 'addr:full': 'Dubar Kala', 'addr:postcode': '231211', 'addr:state': 'Uttar Pradesh', 'addr:subdistrict': 'Lalganj', 'description': 'Primary Health Centre', 'healthcare': 'centre', 'name': 'PHC,Dubar Kala', 'source': 'OpenGovernmentData'}}"
"{'type': 'node', 'id': 7182087891, 'lat': 25.0550648, 'lon': 83.2232366, 'tags': {'addr:district': 'Chandauli', 'addr:full': 'GOVT GIRLS INTER COLLEGE, THANA ROAD', 'addr:postcode': '232103', 'addr:state': 'Uttar Pradesh', 'description': 'Community Health Centre', 'healthcare': 'centre', 'name': 'Community Health Centre Chakiya Chandauli', 'source': 'OpenGovernmentData'}}"
"{'type': 'node', 'id': 7184109177, 'lat': 25.7539094, 'lon': 82.7461226, 'tags': {'addr:block': 'Dharmapur', 'addr:district': 'Jaunpur', 'addr:full': 'Dharmapur', 'addr:postcode': '222107', 'addr:state': 'Uttar Pradesh', 'addr:subdistrict': 'Jaunpur', 'description': 'Primary Health Centre', 'healthcare': 'centre', 'name': 'PHC Dharmapur', 'source': 'OpenGovernmentData'}}"
"{'type': 'node', 'id': 7184125724, 'lat': 25.3947691, 'lon': 82.2299972, 'tags': {'addr:block': 'Dhanupur', 'addr:district': 'Allahabad', 'addr:state': 'Uttar Pradesh', 'addr:subdistrict': 'Handia', 'description': 'Primary Health Centre', 'healthcare': 'centre', 'name': 'PHC,Dhanupur', 'source': 'OpenGovernmentData'}}"
"{'type': 'node', 'id': 7184266164, 'lat': 25.156436, 'lon': 82.8328666, 'tags': {'addr:district': 'Mirzapur', 'addr:full': 'Mangraha', 'addr:postcode': '231306', 'addr:state': 'Uttar Pradesh', 'addr:subdistrict': 'Chunar', 'description': 'Primary Health Centre', 'healthcare': 'centre', 'name': 'PHC Mangraha', 'source': 'OpenGovernmentData'}}"
"{'type': 'node', 'id': 7184266175, 'lat': 25.157764, 'lon': 83.0881968, 'tags': {'addr:block': 'Machhalishahar', 'addr:district': 'Jaunpur', 'addr:full': 'JAMALPUR', 'addr:postcode': '231302', 'addr:state': 'Uttar Pradesh', 'addr:subdistrict': 'Machhlishahr', 'description': 'Primary Health Centre', 'healthcare': 'centre', 'name': 'APHC JAMALPUR', 'source': 'OpenGovernmentData'}}"
"{'type': 'node', 'id': 7184447358, 'lat': 25.6598696, 'lon': 82.6480275, 'tags': {'addr:district': 'Jaunpur', 'addr:full': 'Rampur Naddi', 'addr:postcode': '222105', 'addr:state': 'Uttar Pradesh', 'addr:subdistrict': 'Mariahu', 'description': 'Primary Health Centre', 'healthcare': 'centre', 'name': 'PHC Rampur Naddi', 'source': 'OpenGovernmentData'}}"
"{'type': 'node', 'id': 7184474985, 'lat': 25.1522759, 'lon': 82.5767586, 'tags': {'addr:district': 'Mirzapur', 'addr:full': 'District Woman Hospital', 'addr:postcode': '231001', 'addr:state': 'Uttar Pradesh', 'amenity': 'hospital', 'description': 'District Hospital', 'name': 'District Women Hospital', 'source': 'OpenGovernmentData'}}"
"{'type': 'node', 'id': 7184619787, 'lat': 25.1879303, 'lon': 82.3735142, 'tags': {'addr:block': 'Chanve', 'addr:district': 'Mirzapur', 'addr:full': 'BIRAURA PANDEY', 'addr:postcode': '231303', 'addr:state': 'Uttar Pradesh', 'description': 'Primary Health Centre', 'healthcare': 'centre', 'name': 'PHC BIRAURA PANDEY', 'source': 'OpenGovernmentData'}}"
"{'type': 'node', 'id': 7184619792, 'lat': 25.0188746, 'lon': 82.5741273, 'tags': {'addr:block': 'Patehra', 'addr:district': 'Mirzapur', 'addr:full': 'PRIMARY SCHOOL BAHUTI, BAHUTI, VILLAGE -BAHUTI', 'addr:postcode': '231309', 'addr:state': 'Uttar Pradesh', 'addr:subdistrict': 'Marihan', 'description': 'Primary Health Centre', 'healthcare': 'centre', 'name': 'Patehara-PHC Bahuti', 'source': 'OpenGovernmentData'}}"
"{'type': 'node', 'id': 7184767809, 'lat': 25.7845137, 'lon': 83.0944289, 'tags': {'addr:block': 'Tarwa', 'addr:district': 'Azamgarh', 'addr:full': 'Palhana', 'addr:postcode': '276001', 'addr:state': 'Uttar Pradesh', 'description': 'Primary Health Centre', 'healthcare': 'centre', 'name': 'PHC,Palhana', 'source': 'OpenGovernmentData'}}"
"{'type': 'node', 'id': 7184767980, 'lat': 25.297554, 'lon': 82.3031867, 'tags': {'addr:block': 'Deegh', 'addr:district': 'Sant Ravidas Nagar (Bhadohi)', 'addr:full': 'Nibiha', 'addr:postcode': '221309', 'addr:state': 'Uttar Pradesh', 'addr:subdistrict': 'Gyanpur', 'description': 'Primary Health Centre', 'healthcare': 'centre', 'name': 'PHC DEEGH', 'source': 'OpenGovernmentData'}}"
"{'type': 'node', 'id': 7184768017, 'lat': 25.458173, 'lon': 82.4338424, 'tags': {'addr:block': 'Suriyawa', 'addr:district': 'Sant Ravidas Nagar (Bhadohi)', 'addr:full': 'Bhadohi, suriyawan', 'addr:postcode': '221404', 'addr:state': 'Uttar Pradesh', 'addr:subdistrict': 'Bhadohi', 'description': 'Community Health Centre', 'healthcare': 'centre', 'name': 'CHC SURIYAWAN', 'source': 'OpenGovernmentData'}}"
"{'type': 'node', 'id': 7187287278, 'lat': 25.6084886, 'lon': 82.6076965, 'tags': {'addr:block': 'Machhalishahar', 'addr:district': 'Jaunpur', 'addr:full': 'Machhli Shahar', 'addr:postcode': '222143', 'addr:state': 'Uttar Pradesh', 'addr:subdistrict': 'Machhlishahr', 'description': 'Community Health Centre', 'healthcare': 'centre', 'name': 'Machhli Shahar', 'source': 'OpenGovernmentData'}}"
"{'type': 'node', 'id': 7187291004, 'lat': 25.2988368, 'lon': 82.2344108, 'tags': {'addr:district': 'Allahabad', 'addr:postcode': '221503', 'addr:state': 'Uttar Pradesh', 'addr:subdistrict': 'Handia', 'description': 'Primary Health Centre', 'healthcare': 'centre', 'name': 'New PHC TELA', 'source': 'OpenGovernmentData'}}"
"{'type': 'node', 'id': 7187918901, 'lat': 24.9993619, 'lon': 81.9290413, 'tags': {'addr:district': 'Allahabad', 'addr:postcode': '212306', 'addr:state': 'Uttar Pradesh', 'addr:subdistrict': 'Koraon', 'description': 'Primary Health Centre', 'healthcare': 'centre', 'name': 'PHC,Leriyari', 'source': 'OpenGovernmentData'}}"
"{'type': 'node', 'id': 7187945571, 'lat': 24.8279468, 'lon': 82.3259385, 'tags': {'addr:district': 'Mirzapur', 'addr:full': 'Halliya', 'addr:postcode': '231211', 'addr:state': 'Uttar Pradesh', 'addr:subdistrict': 'Lalganj', 'amenity': 'hospital', 'description': 'Government Hospital', 'name': 'Government Hospital Halliya', 'source': 'OpenGovernmentData'}}"
"{'type': 'node', 'id': 7188078587, 'lat': 24.6961532, 'lon': 82.9544632, 'tags': {'addr:block': 'Jamaganwa', 'addr:district': 'Jamaganwa', 'addr:postcode': '231215', 'addr:state': 'Uttar Pradesh', 'addr:subdistrict': 'Ghorawal', 'amenity': 'hospital', 'description': 'Government Hospital', 'name': 'Government Hospital Rajpur', 'source': 'OpenGovernmentData'}}"
"{'type': 'node', 'id': 7188078592, 'lat': 25.2345213, 'lon': 82.6888005, 'tags': {'addr:block': 'Majhwan', 'addr:district': 'Mirzapur', 'addr:full': 'Mangahari, Bhaisa', 'addr:postcode': '231501', 'addr:state': 'Uttar Pradesh', 'description': 'Primary Health Centre', 'healthcare': 'centre', 'name': 'PHC , Mahamalpur', 'source': 'OpenGovernmentData'}}"
"{'type': 'node', 'id': 7188078658, 'lat': 25.1707349, 'lon': 82.5493102, 'tags': {'addr:block': 'Kone', 'addr:district': 'Mirzapur', 'addr:full': 'PHC Chilh', 'addr:postcode': '231312', 'addr:state': 'Uttar Pradesh', 'description': 'Primary Health Centre', 'healthcare': 'centre', 'name': 'Chilh', 'source': 'OpenGovernmentData'}}"
"{'type': 'node', 'id': 7188331129, 'lat': 25.4912268, 'lon': 82.8273245, 'tags': {'addr:block': 'Pindara', 'addr:district': 'Varanasi', 'addr:state': 'Uttar Pradesh', 'addr:subdistrict': 'Pindra', 'amenity': 'hospital', 'name': 'Government Hospital', 'source': 'OpenGovernmentData'}}"
"{'type': 'node', 'id': 7188346207, 'lat': 24.7529428, 'lon': 82.7815667, 'tags': {'addr:block': 'Ghorahawal', 'addr:district': 'Sonbhadra', 'addr:postcode': '231210', 'addr:state': 'Uttar Pradesh', 'addr:subdistrict': 'Ghorawal', 'description': 'Community Health Centre', 'healthcare': 'centre', 'name': 'CHC Ghorawal', 'source': 'OpenGovernmentData'}}"
"{'type': 'node', 'id': 7188358420, 'lat': 24.7050682, 'lon': 83.011255, 'tags': {'addr:block': 'Ravertganj', 'addr:district': 'Sonbhadra', 'addr:postcode': '231216', 'addr:state': 'Uttar Pradesh', 'addr:subdistrict': 'Robertsganj', 'description': 'Primary Health Centre', 'healthcare': 'centre', 'name': 'PHC,Parasidubey', 'source': 'OpenGovernmentData'}}"
"{'type': 'node', 'id': 7188358507, 'lat': 25.3806777, 'lon': 83.0564783, 'tags': {'addr:block': 'Chiraigoan', 'addr:district': 'Varanasi', 'addr:state': 'Uttar Pradesh', 'description': 'Community Health Centre', 'healthcare': 'centre', 'name': 'CHC CHIRAIGAUON', 'source': 'OpenGovernmentData'}}"
"{'type': 'node', 'id': 7189279421, 'lat': 25.3300687, 'lon': 82.4654724, 'tags': {'addr:block': 'Gayanpur', 'addr:district': 'Sant Ravidas Nagar (Bhadohi)', 'addr:full': 'GYANPUR, Bhadohi marg', 'addr:postcode': '221303', 'addr:state': 'Uttar Pradesh', 'addr:subdistrict': 'Gyanpur', 'amenity': 'hospital', 'description': 'District Hospital', 'name': 'MAHARAJA CHET SINGH DISTRICT HOSPITAL', 'source': 'OpenGovernmentData'}}"
"{'type': 'node', 'id': 7189279426, 'lat': 25.5154329, 'lon': 82.6785283, 'tags': {'addr:block': 'Ramnagar', 'addr:district': 'Jaunpur', 'addr:full': 'Tiwaran', 'addr:postcode': '222128', 'addr:state': 'Uttar Pradesh', 'addr:subdistrict': 'Mariahu', 'amenity': 'hospital', 'description': 'Government Hospital', 'name': 'Government Hospital Tiwaran', 'source': 'OpenGovernmentData'}}"
"{'type': 'node', 'id': 7189876339, 'lat': 25.6605677, 'lon': 82.235245, 'tags': {'addr:block': 'Mo.Badshahpur', 'addr:district': 'Jaunpur', 'addr:full': 'Mugrabadshahpur, Sathariya', 'addr:postcode': '222202', 'addr:state': 'Uttar Pradesh', 'addr:subdistrict': 'Machhlishahr', 'amenity': 'hospital', 'description': 'Government Hospital', 'name': 'Government Hospital Sathariya', 'source': 'OpenGovernmentData'}}"
"{'type': 'node', 'id': 7191515516, 'lat': 25.703635, 'lon': 82.9805008, 'tags': {'addr:district': 'Azamgarh', 'addr:full': 'Chewar', 'addr:postcode': '276001', 'addr:state': 'Uttar Pradesh', 'addr:subdistrict': 'Lalganj', 'description': 'Primary Health Centre', 'healthcare': 'centre', 'name': 'PHC,Chewar', 'source': 'OpenGovernmentData'}}"
"{'type': 'node', 'id': 7191516478, 'lat': 25.2890153, 'lon': 83.1171472, 'tags': {'addr:block': 'Niyamtabad', 'addr:district': 'Chandauli', 'addr:full': 'Jaiswal school road vikas nagar, Mughalsarai, Parahupur ward no. 5, 248/1 Parahupur', 'addr:postcode': '232101', 'addr:state': 'Uttar Pradesh', 'description': 'Urban Health Centre', 'healthcare': 'centre', 'name': 'Chitransh Tution Beauro Parahoopur Mughalsarai', 'source': 'OpenGovernmentData'}}"
"{'type': 'node', 'id': 7191539493, 'lat': 25.185554, 'lon': 82.6310129, 'tags': {'addr:block': 'Pahadi', 'addr:district': 'Mirzapur', 'addr:state': 'Uttar Pradesh', 'amenity': 'hospital', 'name': 'Sarkari Hospital', 'source': 'OpenGovernmentData'}}"
"{'type': 'node', 'id': 7192802729, 'lat': 25.6688135, 'lon': 82.2883674, 'tags': {'addr:block': 'Mo.Badshahpur', 'addr:district': 'Jaunpur', 'addr:full': 'Pawara', 'addr:postcode': '222202', 'addr:state': 'Uttar Pradesh', 'addr:subdistrict': 'Machhlishahr', 'description': 'Primary Health Centre', 'healthcare': 'centre', 'name': 'APHC Pawara', 'source': 'OpenGovernmentData'}}"
"{'type': 'node', 'id': 7193215889, 'lat': 25.1339816, 'lon': 82.8905931, 'tags': {'addr:district': 'Mirzapur', 'addr:full': 'Chunar Chacheri More', 'addr:postcode': '231304', 'addr:state': 'Uttar Pradesh', 'addr:subdistrict': 'Chunar', 'description': 'Primary Health Centre', 'healthcare': 'centre', 'name': 'PHC,Chunar', 'source': 'OpenGovernmentData'}}"
"{'type': 'node', 'id': 7193363546, 'lat': 25.6037091, 'lon': 83.1424512, 'tags': {'addr:district': 'Ghazipur', 'addr:full': 'Saidpur, Anauni', 'addr:postcode': '233221', 'addr:state': 'Uttar Pradesh', 'addr:subdistrict': 'Saidpur', 'amenity': 'hospital', 'name': 'Sarkari Hospital Anauni', 'source': 'OpenGovernmentData'}}"
"{'type': 'node', 'id': 7193363568, 'lat': 25.6821985, 'lon': 82.5123842, 'tags': {'addr:district': 'Jaunpur', 'addr:full': 'Gahani', 'addr:postcode': '222161', 'addr:state': 'Uttar Pradesh', 'addr:subdistrict': 'Mariahu', 'description': 'Primary Health Centre', 'healthcare': 'centre', 'name': 'APHC Gahani', 'source': 'OpenGovernmentData'}}"
"{'type': 'node', 'id': 7193616894, 'lat': 25.7861427, 'lon': 82.4960777, 'tags': {'addr:block': 'Sikrara', 'addr:district': 'Jaunpur', 'addr:full': 'Jaunpur Sadar, Khapraha', 'addr:postcode': '222131', 'addr:state': 'Uttar Pradesh', 'addr:subdistrict': 'Jaunpur', 'description': 'Primary Health Centre', 'healthcare': 'centre', 'name': 'APHC Khapraha', 'source': 'OpenGovernmentData'}}"
"{'type': 'node', 'id': 7193616971, 'lat': 25.1737341, 'lon': 82.8826833, 'tags': {'addr:district': 'Mirzapur', 'addr:full': 'Adalpura', 'addr:postcode': '231306', 'addr:state': 'Uttar Pradesh', 'addr:subdistrict': 'Chunar', 'description': 'Primary Health Centre', 'healthcare': 'centre', 'name': 'PHC,Adalpura', 'source': 'OpenGovernmentData'}}"
"{'type': 'node', 'id': 7193617016, 'lat': 25.7772378, 'lon': 82.8017503, 'tags': {'addr:block': 'Dharmapur', 'addr:district': 'Jaunpur', 'addr:full': 'JAUNPUR, Gaurabadashpur', 'addr:postcode': '222107', 'addr:state': 'Uttar Pradesh', 'addr:subdistrict': 'Jaunpur', 'description': 'Primary Health Centre', 'healthcare': 'centre', 'name': 'PHC,Gaurabadashpur', 'source': 'OpenGovernmentData'}}"
"{'type': 'node', 'id': 7193617043, 'lat': 25.4351592, 'lon': 82.6773146, 'tags': {'addr:block': 'Rampur', 'addr:district': 'Jaunpur', 'addr:full': 'APHC Adiyar', 'addr:postcode': '222203', 'addr:state': 'Uttar Pradesh', 'addr:subdistrict': 'Mariahu', 'description': 'Primary Health Centre', 'healthcare': 'centre', 'name': 'APHC Adiyar', 'source': 'OpenGovernmentData'}}"
"{'type': 'node', 'id': 7193617135, 'lat': 25.7912675, 'lon': 82.5658031, 'tags': {'addr:block': 'Baksha', 'addr:district': 'Jaunpur', 'addr:full': 'BUXA', 'addr:postcode': '222109', 'addr:state': 'Uttar Pradesh', 'addr:subdistrict': 'Jaunpur', 'description': 'Primary Health Centre', 'healthcare': 'centre', 'name': 'PHC BUXA', 'source': 'OpenGovernmentData'}}"
"{'type': 'node', 'id': 7200119730, 'lat': 25.8198349, 'lon': 82.1452501, 'tags': {'addr:district': 'Pratapgarh', 'addr:state': 'Uttar Pradesh', 'addr:subdistrict': 'Patti', 'description': 'Primary Health Centre', 'healthcare': 'centre', 'name': 'PHC,Beerapur', 'source': 'OpenGovernmentData'}}"
"{'type': 'node', 'id': 7200209403, 'lat': 25.3417583, 'lon': 82.1344663, 'tags': {'addr:district': 'Allahabad', 'addr:postcode': '221503', 'addr:state': 'Uttar Pradesh', 'addr:subdistrict': 'Handia', 'description': 'Primary Health Centre', 'healthcare': 'centre', 'name': 'PHC BAMAILA', 'source': 'OpenGovernmentData'}}"
"{'type': 'node', 'id': 7200209408, 'lat': 25.3062509, 'lon': 83.0043557, 'tags': {'addr:district': 'Varanasi', 'addr:full': 'ASFAKNAGAR', 'addr:postcode': '221001', 'addr:state': 'Uttar Pradesh', 'description': 'Primary Health Centre', 'healthcare': 'centre', 'name': 'PHC ASFAKNAGAR', 'source': 'OpenGovernmentData'}}"
"{'type': 'node', 'id': 7200209428, 'lat': 25.3175161, 'lon': 83.0043778, 'tags': {'addr:district': 'Varanasi', 'addr:full': 'BENIYA', 'addr:postcode': '221001', 'addr:state': 'Uttar Pradesh', 'description': 'Primary Health Centre', 'healthcare': 'centre', 'name': 'UPHC BENIYA', 'source': 'OpenGovernmentData'}}"
"{'type': 'node', 'id': 7200968133, 'lat': 25.0811096, 'lon': 83.0860993, 'tags': {'addr:block': 'Jamalpur', 'addr:district': 'Mirzapur', 'addr:full': 'Bhaipur', 'addr:postcode': '231302', 'addr:state': 'Uttar Pradesh', 'addr:subdistrict': 'Chunar', 'amenity': 'hospital', 'description': 'Government Hospital', 'name': 'Government Hospital Bhaipur', 'source': 'OpenGovernmentData'}}"
"{'type': 'node', 'id': 7201093310, 'lat': 25.7878568, 'lon': 82.8919242, 'tags': {'addr:district': 'Azamgarh', 'addr:postcode': '276001', 'addr:state': 'Uttar Pradesh', 'addr:subdistrict': 'Lalganj', 'description': 'Primary Health Centre', 'healthcare': 'centre', 'name': 'PHC,GODAHARA', 'source': 'OpenGovernmentData'}}"
"{'type': 'node', 'id': 7201101655, 'lat': 25.4187015, 'lon': 82.5372342, 'tags': {'addr:block': 'Bhadhoi', 'addr:district': 'Sant Ravidas Nagar (Bhadohi)', 'addr:full': 'Primary&Junior high school Amilori, Amilori, Station Road', 'addr:postcode': '221402', 'addr:state': 'Uttar Pradesh', 'addr:subdistrict': 'Bhadohi', 'description': 'Primary Health Centre', 'healthcare': 'centre', 'name': 'APHC,Amilori', 'source': 'OpenGovernmentData'}}"
"{'type': 'node', 'id': 7201118105, 'lat': 25.3971788, 'lon': 82.4336801, 'tags': {'addr:block': 'Gayanpur', 'addr:district': 'Sant Ravidas Nagar (Bhadohi)', 'addr:full': 'Near pali, KASIYAPUR', 'addr:postcode': '221303', 'addr:state': 'Uttar Pradesh', 'addr:subdistrict': 'Gyanpur', 'description': 'Primary Health Centre', 'healthcare': 'centre', 'name': 'Primary Health Centre , Kasiyapur', 'source': 'OpenGovernmentData'}}"
"{'type': 'node', 'id': 7203148597, 'lat': 25.7530949, 'lon': 83.1938443, 'tags': {'addr:block': 'Azmatgarh', 'addr:district': 'Azamgarh', 'addr:full': 'Chhapra Sultanpur', 'addr:state': 'Uttar Pradesh', 'addr:subdistrict': 'Sagri', 'description': 'Primary Health Centre', 'healthcare': 'centre', 'name': 'PHC,TARWA', 'source': 'OpenGovernmentData'}}"
"{'type': 'node', 'id': 7203232219, 'lat': 25.3049845, 'lon': 82.098689, 'tags': {'addr:district': 'Allahabad', 'addr:postcode': '221508', 'addr:state': 'Uttar Pradesh', 'addr:subdistrict': 'Handia', 'description': 'Primary Health Centre', 'healthcare': 'centre', 'name': 'PHC,Ashdiha', 'source': 'OpenGovernmentData'}}"
