OSM_Data
"{'type': 'node', 'id': 32555840, 'lat': 48.4270971, 'lon': -123.335011, 'tags': {'amenity': 'pharmacy', 'brand': 'Shoppers Drug Mart', 'brand:wikidata': 'Q1820137', 'brand:wikipedia': 'en:Shoppers Drug Mart', 'healthcare': 'pharmacy', 'name': 'Shoppers Drug Mart', 'website': 'https://www.shoppersdrugmart.ca/en/store-locator/store/208', 'website:en': 'https://www.shoppersdrugmart.ca/en/store-locator/store/208', 'website:fr': 'https://www.shoppersdrugmart.ca/fr/store-locator/store/208'}}"
"{'type': 'node', 'id': 32555843, 'lat': 48.424663, 'lon': -123.366611, 'tags': {'addr:housenumber': '641', 'addr:street': 'Fort Street', 'amenity': 'pharmacy', 'brand': 'I.D.A.', 'brand:wikidata': 'Q65553883', 'healthcare': 'pharmacy', 'name': 'I.D.A.', 'name:en': 'I.D.A', 'operator': 'Rexall'}}"
"{'type': 'node', 'id': 247822977, 'lat': 48.4291697, 'lon': -123.330457, 'tags': {'amenity': 'pharmacy', 'branch': 'Forbes Pharmacy', 'brand': 'I.D.A.', 'brand:wikidata': 'Q65553883', 'healthcare': 'pharmacy', 'name': 'I.D.A.', 'opening_hours': 'Mo-Fr 09:00-19:00; Sa,Su 10:00-17:00', 'operator': 'IDA'}}"
"{'type': 'node', 'id': 282619693, 'lat': 48.4612468, 'lon': -123.2958735, 'tags': {'amenity': 'doctors', 'healthcare': 'doctor', 'healthcare:speciality': 'ophthalmology', 'name': 'Amanda Weinerman Optometry Clinic'}}"
"{'type': 'node', 'id': 282619707, 'lat': 48.4608923, 'lon': -123.2970002, 'tags': {'addr:city': 'Victoria', 'addr:housenumber': '3825', 'addr:postcode': 'V8N 4G1', 'addr:street': 'Cadboro Bay Road', 'amenity': 'pharmacy', 'dispensing': 'yes', 'name': 'Heart Pharmacy', 'opening_hours': 'Mo-Sa 09:00-18:00, Su 12:00-17:00', 'phone': '+1-250-477-2131', 'website': 'https://www.heartpharmacy.com/'}}"
"{'type': 'node', 'id': 282812739, 'lat': 48.4699326, 'lon': -123.362532, 'tags': {'amenity': 'pharmacy', 'brand': 'London Drugs', 'brand:wikidata': 'Q3258955', 'healthcare': 'pharmacy', 'name': 'London Drugs', 'opening_hours': 'Mo-Sa 09:00-22:00; Su 10:00-20:00', 'shop': 'department_store', 'wheelchair': 'yes'}}"
"{'type': 'node', 'id': 313854847, 'lat': 49.0914573, 'lon': -123.0792612, 'tags': {'amenity': 'pharmacy', 'brand': 'London Drugs', 'brand:wikidata': 'Q3258955', 'brand:wikipedia': 'en:London Drugs', 'healthcare': 'pharmacy', 'name': 'London Drugs'}}"
"{'type': 'node', 'id': 338164223, 'lat': 49.1537636, 'lon': -123.1566444, 'tags': {'amenity': 'pharmacy', 'brand': 'Shoppers Drug Mart', 'brand:wikidata': 'Q1820137', 'brand:wikipedia': 'en:Shoppers Drug Mart', 'dispensing': 'yes', 'healthcare': 'pharmacy', 'name': 'Shoppers Drug Mart', 'website': 'https://www.shoppersdrugmart.ca/en/store-locator/store/236', 'website:en': 'https://www.shoppersdrugmart.ca/en/store-locator/store/236', 'website:fr': 'https://www.shoppersdrugmart.ca/fr/store-locator/store/236'}}"
"{'type': 'node', 'id': 338165888, 'lat': 49.1707458, 'lon': -123.1372362, 'tags': {'addr:housenumber': '5971', 'addr:street': 'Number 3 Road', 'amenity': 'pharmacy', 'brand': 'London Drugs', 'brand:wikidata': 'Q3258955', 'brand:wikipedia': 'en:London Drugs', 'healthcare': 'pharmacy', 'name': 'London Drugs'}}"
"{'type': 'node', 'id': 393933148, 'lat': 48.4413054, 'lon': -123.468618, 'tags': {'amenity': 'pharmacy', 'brand': 'London Drugs', 'brand:wikidata': 'Q3258955', 'brand:wikipedia': 'en:London Drugs', 'dispensing': 'yes', 'healthcare': 'pharmacy', 'name': 'London Drugs'}}"
"{'type': 'node', 'id': 429680042, 'lat': 48.4467786, 'lon': -123.487277, 'tags': {'amenity': 'pharmacy', 'dispensing': 'yes', 'name': ""Saint Anthony's Pharmacy""}}"
"{'type': 'node', 'id': 457011505, 'lat': 49.2507009, 'lon': -124.0768591, 'tags': {'amenity': 'pharmacy'}}"
"{'type': 'node', 'id': 466988572, 'lat': 48.4124149, 'lon': -123.337687, 'tags': {'addr:unit': '15', 'amenity': 'pharmacy', 'healthcare': 'pharmacy', 'name': 'Heart Pharmacy IDA', 'phone': '+1-250-598-9232', 'website': 'https://www.heartpharmacy.com'}}"
"{'type': 'node', 'id': 466996274, 'lat': 48.4139867, 'lon': -123.357004, 'tags': {'amenity': 'pharmacy', 'brand': 'Rexall', 'brand:wikidata': 'Q39045377', 'brand:wikipedia': 'en:Rexall (Canada)', 'healthcare': 'pharmacy', 'name': 'Rexall'}}"
"{'type': 'node', 'id': 505751680, 'lat': 49.2821143, 'lon': -123.118165, 'tags': {'addr:city': 'Vancouver', 'addr:housenumber': '710', 'addr:postcode': 'V6Z 1E4', 'addr:province': 'BC', 'addr:street': 'Granville Street', 'amenity': 'pharmacy', 'brand': 'London Drugs', 'brand:wikidata': 'Q3258955', 'brand:wikipedia': 'en:London Drugs', 'drive_through': 'no', 'healthcare': 'pharmacy', 'internet_access': 'wlan', 'internet_access:fee': 'no', 'name': 'London Drugs', 'opening_hours': 'Mo-Fr 08:00-22:00; Sa 09:00-22:00; Su 10:00-20:00', 'phone': '+1-604-448-4802', 'website': 'https://www.londondrugs.com/store-details/?StoreID=002', 'wheelchair': 'yes'}}"
"{'type': 'node', 'id': 512001915, 'lat': 48.4968094, 'lon': -123.382628, 'tags': {'amenity': 'pharmacy', 'brand': 'Pharmasave', 'brand:wikidata': 'Q17093822', 'healthcare': 'pharmacy', 'name': 'Pharmasave'}}"
"{'type': 'node', 'id': 513054172, 'lat': 49.277078, 'lon': -123.120121, 'tags': {'addr:city': 'Vancouver', 'addr:housenumber': '1006', 'addr:province': 'BC', 'addr:street': 'Homer Street', 'amenity': 'pharmacy', 'brand': 'Shoppers Drug Mart', 'brand:wikidata': 'Q1820137', 'brand:wikipedia': 'en:Shoppers Drug Mart', 'check_date:opening_hours': '2023-12-28', 'healthcare': 'pharmacy', 'name': 'Shoppers Drug Mart', 'opening_hours': 'Mo-Sa 08:00-24:00; Su 09:00-24:00', 'website': 'https://www.shoppersdrugmart.ca/en/store-locator/store/2246', 'website:en': 'https://www.shoppersdrugmart.ca/en/store-locator/store/2246', 'website:fr': 'https://www.shoppersdrugmart.ca/fr/store-locator/store/2246'}}"
"{'type': 'node', 'id': 536078393, 'lat': 49.2660917, 'lon': -123.245768, 'tags': {'addr:housenumber': '5940', 'addr:street': 'University Boulevard', 'alt_name': 'Shoppers on campus', 'amenity': 'pharmacy', 'brand': 'Shoppers Drug Mart', 'brand:wikidata': 'Q1820137', 'brand:wikipedia': 'en:Shoppers Drug Mart', 'dispensing': 'yes', 'healthcare': 'pharmacy', 'name': 'Shoppers Drug Mart', 'website': 'https://www.shoppersdrugmart.ca/en/store-locator/store/2273', 'website:en': 'https://www.shoppersdrugmart.ca/en/store-locator/store/2273', 'website:fr': 'https://www.shoppersdrugmart.ca/fr/store-locator/store/2273', 'wheelchair': 'yes'}}"
"{'type': 'node', 'id': 592862122, 'lat': 49.2625436, 'lon': -123.070704, 'tags': {'addr:housenumber': '1669', 'addr:street': 'East Broadway', 'amenity': 'clinic', 'emergency': 'no', 'healthcare': 'clinic', 'name': 'Robert and Lily Lee Family Community Health Center'}}"
"{'type': 'node', 'id': 638771015, 'lat': 49.2789586, 'lon': -123.1251318, 'tags': {'addr:city': 'Vancouver', 'addr:housenumber': '1070', 'addr:province': 'BC', 'addr:street': 'Howe Street', 'amenity': 'pharmacy', 'check_date:opening_hours': '2024-10-03', 'dispensing': 'yes', 'drive_through': 'no', 'healthcare': 'pharmacy', 'name': 'Howe Street Pharmacy', 'opening_hours': 'Mo-Fr 09:00-17:00; Sa,Su 09:00-13:00', 'wheelchair': 'yes'}}"
"{'type': 'node', 'id': 642902579, 'lat': 49.2652393, 'lon': -123.139671, 'tags': {'addr:housenumber': '1530', 'addr:street': 'West 7th Avenue', 'amenity': 'doctors', 'check_date': '2023-05-06', 'healthcare': 'doctor', 'name': 'The Seymour Medical Clinic', 'wheelchair': 'yes'}}"
"{'type': 'node', 'id': 652979860, 'lat': 49.2756562, 'lon': -123.126858, 'tags': {'addr:city': 'Vancouver', 'addr:housenumber': '1295', 'addr:province': 'BC', 'addr:street': 'Seymour Street', 'amenity': 'pharmacy', 'brand': 'Shoppers Drug Mart', 'brand:wikidata': 'Q1820137', 'brand:wikipedia': 'en:Shoppers Drug Mart', 'dispensing': 'yes', 'drive_through': 'no', 'healthcare': 'pharmacy', 'name': 'Shoppers Drug Mart', 'opening_hours': 'Mo-Su 08:00-24:00', 'payment:cash': 'yes', 'payment:credit_cards': 'yes', 'payment:debit_cards': 'yes', 'website': 'https://www.shoppersdrugmart.ca/en/store-locator/store/2292', 'website:en': 'https://www.shoppersdrugmart.ca/en/store-locator/store/2292', 'website:fr': 'https://www.shoppersdrugmart.ca/fr/store-locator/store/2292', 'wheelchair': 'yes'}}"
"{'type': 'node', 'id': 700544625, 'lat': 49.2333893, 'lon': -123.0664481, 'tags': {'addr:housenumber': '5639', 'addr:street': 'Victoria Drive', 'amenity': 'pharmacy', 'brand': 'London Drugs', 'brand:wikidata': 'Q3258955', 'brand:wikipedia': 'en:London Drugs', 'dispensing': 'yes', 'healthcare': 'pharmacy', 'name': 'London Drugs', 'url': 'http://www.londondrugs.com/Cultures/en-US/StoreLocator.htm?provid=1&cityid=13'}}"
"{'type': 'node', 'id': 704317959, 'lat': 49.2636175, 'lon': -123.129375, 'tags': {'addr:housenumber': '1111', 'addr:street': 'West Broadway', 'amenity': 'pharmacy', 'dispensing': 'yes', 'healthcare': 'pharmacy', 'name': 'Finlandia Pharmacy and Natural Health Centre', 'opening_hours': 'Mo-Sa 09:00-19:00; PH ""off""', 'phone': '+1-604-733-5323', 'website': 'https://www.finlandiahealthstore.com/'}}"
"{'type': 'node', 'id': 704317977, 'lat': 49.2635147, 'lon': -123.1236356, 'tags': {'addr:city': 'Vancouver', 'addr:housenumber': '885', 'addr:street': 'West Broadway', 'amenity': 'pharmacy', 'brand': 'Shoppers Drug Mart', 'brand:wikidata': 'Q1820137', 'brand:wikipedia': 'en:Shoppers Drug Mart', 'healthcare': 'pharmacy', 'name': 'Shoppers Drug Mart', 'opening_hours': 'Mo-Su 08:00-24:00', 'website': 'https://www.shoppersdrugmart.ca/en/store-locator/store/263', 'website:en': 'https://www.shoppersdrugmart.ca/en/store-locator/store/263', 'website:fr': 'https://www.shoppersdrugmart.ca/fr/store-locator/store/263', 'wheelchair': 'yes'}}"
"{'type': 'node', 'id': 704317999, 'lat': 49.2634842, 'lon': -123.120959, 'tags': {'addr:city': 'Vancouver', 'addr:housenumber': '745', 'addr:province': 'BC', 'addr:street': 'West Broadway', 'addr:unit': '201', 'amenity': 'dentist', 'check_date:opening_hours': '2023-09-27', 'healthcare': 'dentist', 'name': 'Tam Orthdontics & Pediatric Dentistry', 'opening_hours:signed': 'no'}}"
"{'type': 'node', 'id': 729123364, 'lat': 49.2635412, 'lon': -123.1159826, 'tags': {'addr:city': 'Vancouver', 'addr:housenumber': '525', 'addr:province': 'BC', 'addr:street': 'West Broadway', 'amenity': 'pharmacy', 'brand': 'London Drugs', 'brand:wikidata': 'Q3258955', 'brand:wikipedia': 'en:London Drugs', 'check_date:opening_hours': '2025-01-01', 'dispensing': 'yes', 'healthcare': 'pharmacy', 'level': '1', 'name': 'London Drugs', 'opening_hours': 'Mo-Fr 08:00-22:00; Sa 09:00-22:00; Su 10:00-21:00; PH 10:00-21:00', 'operator': 'London Drugs', 'website': 'https://www.londondrugs.com/london-drugs-store-004-vancouver/west-broadway-004.html'}}"
"{'type': 'node', 'id': 729130359, 'lat': 49.2634288, 'lon': -123.118532, 'tags': {'addr:city': 'Vancouver', 'addr:housenumber': 'U1 601', 'addr:street': 'West Broadway', 'amenity': 'pharmacy', 'check_date': '2024-10-01', 'healthcare': 'pharmacy', 'name': 'Landcaster Medical Supplies & Prescriptions', 'opening_hours': 'Mo-Fr 9:30-17:30; Sa 9:00-16:00'}}"
"{'type': 'node', 'id': 741850603, 'lat': 49.2337434, 'lon': -123.1543449, 'tags': {'addr:city': 'Vancouver', 'addr:housenumber': '2091', 'addr:postcode': 'V6M 2B4', 'addr:street': 'West 42nd Avenue', 'amenity': 'pharmacy', 'brand': 'London Drugs', 'brand:wikidata': 'Q3258955', 'brand:wikipedia': 'en:London Drugs', 'check_date:opening_hours': '2023-08-27', 'healthcare': 'pharmacy', 'name': 'London Drugs', 'note': 'London Drugs Compass Vending Machine (CVM) (Tickets for Public Transportation)', 'opening_hours': 'Mo-Sa 09:00-22:00, Su 10:00-20:00', 'phone': '+1-604-448-4810'}}"
"{'type': 'node', 'id': 768747964, 'lat': 49.1320114, 'lon': -123.0938785, 'tags': {'addr:housenumber': '11666', 'addr:street': 'Steveston Highway', 'addr:unit': '3200', 'amenity': 'pharmacy', 'brand': 'London Drugs', 'brand:wikidata': 'Q3258955', 'brand:wikipedia': 'en:London Drugs', 'check_date': '2023-06-20', 'dispensing': 'yes', 'healthcare': 'pharmacy', 'name': 'London Drugs'}}"
"{'type': 'node', 'id': 769442372, 'lat': 49.0850524, 'lon': -123.0647469, 'tags': {'amenity': 'pharmacy', 'healthcare': 'pharmacy', 'name': 'Harvest Drive Pharmacy'}}"
"{'type': 'node', 'id': 799580956, 'lat': 49.2328094, 'lon': -123.0351511, 'tags': {'addr:city': 'Vancouver', 'addr:housenumber': '3328', 'addr:postcode': 'V5R 5L1', 'addr:street': 'Kingsway', 'amenity': 'pharmacy', 'brand': 'London Drugs', 'brand:wikidata': 'Q3258955', 'brand:wikipedia': 'en:London Drugs', 'healthcare': 'pharmacy', 'name': 'London Drugs', 'opening_hours': 'Mo-Sa 09:00-22:00; Su 10:00-20:00; PH 10:00-20:00', 'phone': '+1-604-448-4828', 'shop': 'chemist', 'wheelchair': 'yes'}}"
"{'type': 'node', 'id': 811017690, 'lat': 49.2566724, 'lon': -123.115476, 'tags': {'addr:city': 'Vancouver', 'addr:province': 'BC', 'amenity': 'pharmacy', 'brand': 'Shoppers Drug Mart', 'brand:wikidata': 'Q1820137', 'brand:wikipedia': 'en:Shoppers Drug Mart', 'drive_through': 'no', 'healthcare': 'pharmacy', 'name': 'Shoppers Drug Mart', 'opening_hours': 'Mo-Su 08:00-00:00', 'website': 'https://www.shoppersdrugmart.ca/en/store-locator/store/2234', 'website:en': 'https://www.shoppersdrugmart.ca/en/store-locator/store/2234', 'website:fr': 'https://www.shoppersdrugmart.ca/fr/store-locator/store/2234'}}"
"{'type': 'node', 'id': 926024537, 'lat': 49.2883499, 'lon': -123.123879, 'tags': {'addr:city': 'Vancouver', 'addr:housenumber': '1202', 'addr:province': 'BC', 'addr:street': 'West Pender Street', 'amenity': 'pharmacy', 'brand': 'Shoppers Drug Mart', 'brand:wikidata': 'Q1820137', 'brand:wikipedia': 'en:Shoppers Drug Mart', 'drive_through': 'no', 'healthcare': 'pharmacy', 'name': 'Shoppers Drug Mart', 'opening_hours': 'Mo-Su 09:00-24:00', 'website': 'https://www.shoppersdrugmart.ca/en/store-locator/store/2275', 'website:en': 'https://www.shoppersdrugmart.ca/en/store-locator/store/2275', 'website:fr': 'https://www.shoppersdrugmart.ca/fr/store-locator/store/2275', 'wheelchair': 'yes'}}"
"{'type': 'node', 'id': 955340426, 'lat': 49.2680899, 'lon': -123.1576906, 'tags': {'addr:housenumber': '2302', 'addr:street': 'West 4th Avenue', 'amenity': 'pharmacy', 'brand': 'Shoppers Drug Mart', 'brand:wikidata': 'Q1820137', 'brand:wikipedia': 'en:Shoppers Drug Mart', 'dispensing': 'yes', 'healthcare': 'pharmacy', 'name': 'Shoppers Drug Mart', 'opening_hours': '24/7', 'website': 'https://www.shoppersdrugmart.ca/en/store-locator/store/234', 'website:en': 'https://www.shoppersdrugmart.ca/en/store-locator/store/234', 'website:fr': 'https://www.shoppersdrugmart.ca/fr/store-locator/store/234'}}"
"{'type': 'node', 'id': 990865463, 'lat': 49.2865698, 'lon': -123.118233, 'tags': {'addr:city': 'Vancouver', 'addr:province': 'BC', 'healthcare': 'alternative', 'healthcare:speciality': 'chiropractic', 'name': 'Vancouver Chiropractor, Massage therapy clinic', 'outdoor_seating': 'no', 'phone': '+1-604-688-0724', 'website': 'http://www.KilianChiropractic.com'}}"
"{'type': 'node', 'id': 1003363442, 'lat': 49.2855264, 'lon': -123.139408, 'tags': {'addr:city': 'Vancouver', 'addr:housenumber': '1650', 'addr:province': 'BC', 'addr:street': 'Davie Street', 'amenity': 'pharmacy', 'brand': 'London Drugs', 'brand:wikidata': 'Q3258955', 'brand:wikipedia': 'en:London Drugs', 'healthcare': 'pharmacy', 'name': 'London Drugs', 'opening_hours': 'Mo-Sa 09:00-22:00; Su 10:00-22:00', 'website': 'https://www.londondrugs.com/london-drugs-store-050-vancouver/davie-street-050.html', 'wheelchair': 'yes'}}"
"{'type': 'node', 'id': 1044303163, 'lat': 48.8604171, 'lon': -123.510961, 'tags': {'addr:housenumber': '374', 'addr:postcode': 'V8K 2V7', 'addr:street': 'Lower Ganges Road', 'amenity': 'pharmacy', 'dispensing': 'yes', 'name': 'Country Grocer Pharmacy', 'opening_hours': 'Mo-Fr 08:00-17:30; Sa 09:00-17:00; Su 11:00-17:00', 'phone': '+1 250 538 0323', 'wheelchair': 'yes'}}"
"{'type': 'node', 'id': 1044328602, 'lat': 48.8518393, 'lon': -123.5001264, 'tags': {'healthcare': 'optometrist'}}"
"{'type': 'node', 'id': 1044328711, 'lat': 48.851649, 'lon': -123.500399, 'tags': {'amenity': 'dentist', 'healthcare': 'dentist', 'name': 'Dental Clinic'}}"
"{'type': 'node', 'id': 1233278065, 'lat': 49.2546256, 'lon': -123.237058, 'tags': {'amenity': 'pharmacy', 'healthcare': 'pharmacy', 'name': 'Save-On-Foods Pharmacy'}}"
"{'type': 'node', 'id': 1241298324, 'lat': 49.2664917, 'lon': -123.2432266, 'tags': {'addr:housenumber': '5754', 'addr:postcode': 'V6T 1K6', 'addr:street': 'University Boulevard', 'amenity': 'pharmacy', 'dispensing': 'yes', 'healthcare': 'pharmacy', 'name': 'University Pharmacy', 'wheelchair': 'yes'}}"
"{'type': 'node', 'id': 1306280828, 'lat': 49.1491553, 'lon': -123.182557, 'tags': {'addr:housenumber': '8671', 'addr:street': 'Number 1 Road', 'addr:unit': '11', 'amenity': 'pharmacy', 'beauty': 'yes', 'brand': 'Shoppers Drug Mart', 'brand:wikidata': 'Q1820137', 'dispensing': 'yes', 'drive_through': 'no', 'healthcare': 'pharmacy', 'name': 'Shoppers Drug Mart', 'opening_hours': 'Mo-Sa 08:00-23:00; Su 10:00-18:00', 'phone': '+1-604-277-2611', 'post_office': 'yes', 'website': 'https://www.shoppersdrugmart.ca/en/store-locator/store/227', 'website:en': 'https://www.shoppersdrugmart.ca/en/store-locator/store/227', 'website:fr': 'https://www.shoppersdrugmart.ca/fr/store-locator/store/227'}}"
"{'type': 'node', 'id': 1333873695, 'lat': 48.8715029, 'lon': -123.3199232, 'tags': {'addr:city': 'Galiano', 'addr:housenumber': '908', 'addr:postcode': 'V0N 1P0', 'addr:province': 'BC', 'addr:street': 'Burrill Road', 'amenity': 'hospital', 'bed': '1', 'emergency': 'yes', 'healthcare': 'hospital', 'name': 'Galiano Health Clinic', 'name_1': 'Galiano Health Care Centre', 'note': 'limited emergency capable - will fly severe cases out', 'operator': 'Vancouver Island Health Authority'}}"
"{'type': 'node', 'id': 1335346918, 'lat': 49.2809572, 'lon': -123.131509, 'tags': {'addr:city': 'Vancouver', 'addr:housenumber': '1125', 'addr:postcode': 'V6E 1N2', 'addr:province': 'BC', 'addr:street': 'Davie Street', 'amenity': 'pharmacy', 'brand': 'Shoppers Drug Mart', 'brand:wikidata': 'Q1820137', 'brand:wikipedia': 'en:Shoppers Drug Mart', 'drive_through': 'no', 'healthcare': 'pharmacy', 'name': 'Shoppers Drug Mart', 'opening_hours': '24/7', 'phone': '+1-604-669-2424', 'source': 'survey', 'toilets:wheelchair': 'no', 'website': 'https://www.shoppersdrugmart.ca/en/store-locator/store/272', 'website:en': 'https://www.shoppersdrugmart.ca/en/store-locator/store/272', 'website:fr': 'https://www.shoppersdrugmart.ca/fr/store-locator/store/272', 'wheelchair': 'yes'}}"
"{'type': 'node', 'id': 1343865822, 'lat': 49.2634628, 'lon': -123.1453724, 'tags': {'healthcare': 'alternative', 'healthcare:speciality': 'naturopathy', 'name': 'Springs Eternal Natural Health Clinic', 'source': 'www.springseternal.com'}}"
"{'type': 'node', 'id': 1413899142, 'lat': 49.3504188, 'lon': -123.254493, 'tags': {'amenity': 'clinic', 'healthcare': 'clinic', 'name': 'Caulfeild Village Medical Clinic'}}"
"{'type': 'node', 'id': 1413899158, 'lat': 49.3505865, 'lon': -123.254572, 'tags': {'amenity': 'pharmacy', 'brand': 'Pharmasave', 'brand:wikidata': 'Q17093822', 'brand:wikipedia': 'en:Pharmasave', 'healthcare': 'pharmacy', 'name': 'Pharmasave'}}"
"{'type': 'node', 'id': 1415243440, 'lat': 49.3279251, 'lon': -123.1394703, 'tags': {'amenity': 'pharmacy', 'brand': 'London Drugs', 'brand:wikidata': 'Q3258955', 'brand:wikipedia': 'en:London Drugs', 'healthcare': 'pharmacy', 'name': 'London Drugs'}}"
"{'type': 'node', 'id': 1431514604, 'lat': 49.2272186, 'lon': -123.0909139, 'tags': {'addr:housenumber': '6303', 'addr:street': 'Fraser Street', 'amenity': 'pharmacy', 'brand': 'Shoppers Drug Mart', 'brand:wikidata': 'Q1820137', 'brand:wikipedia': 'en:Shoppers Drug Mart', 'healthcare': 'pharmacy', 'name': 'Shoppers Drug Mart', 'website': 'https://www.shoppersdrugmart.ca/en/store-locator/store/222', 'website:en': 'https://www.shoppersdrugmart.ca/en/store-locator/store/222', 'website:fr': 'https://www.shoppersdrugmart.ca/fr/store-locator/store/222'}}"
"{'type': 'node', 'id': 1445110467, 'lat': 48.7922629, 'lon': -123.1815323, 'tags': {'amenity': 'clinic', 'name': 'Saturna Medical Clinic'}}"
"{'type': 'node', 'id': 1492926905, 'lat': 49.280937, 'lon': -123.0483551, 'tags': {'addr:housenumber': '2748', 'addr:street': 'East Hastings Street', 'amenity': 'pharmacy', 'brand': 'Shoppers Drug Mart', 'brand:wikidata': 'Q1820137', 'brand:wikipedia': 'en:Shoppers Drug Mart', 'check_date': '2023-08-10', 'healthcare': 'pharmacy', 'name': 'Shoppers Drug Mart', 'opening_hours': 'Mo-Su 08:00-24:00', 'website': 'https://www.shoppersdrugmart.ca/en/store-locator/store/2294', 'website:en': 'https://www.shoppersdrugmart.ca/en/store-locator/store/2294', 'website:fr': 'https://www.shoppersdrugmart.ca/fr/store-locator/store/2294'}}"
"{'type': 'node', 'id': 1521664825, 'lat': 48.4326456, 'lon': -123.380311, 'tags': {'addr:housenumber': '172', 'addr:postcode': 'V9A 7N6', 'addr:street': 'Wilson Street', 'amenity': 'pharmacy', 'brand': 'Save-On-Foods', 'brand:wikidata': 'Q7427974', 'brand:wikipedia': 'en:Save-On-Foods', 'drive_through': 'no', 'healthcare': 'pharmacy', 'name': 'Save-On-Foods', 'shop': 'supermarket', 'wheelchair': 'yes'}}"
"{'type': 'node', 'id': 1682764810, 'lat': 49.2106081, 'lon': -123.1304668, 'tags': {'addr:housenumber': '8307', 'addr:street': 'Oak Street', 'amenity': 'dentist', 'healthcare': 'dentist', 'name': 'Love My Smile'}}"
"{'type': 'node', 'id': 1686633972, 'lat': 49.2344728, 'lon': -123.1609023, 'tags': {'amenity': 'doctors', 'healthcare': 'doctor', 'name': 'Dr. Timothy W.T. Kam Inc.'}}"
"{'type': 'node', 'id': 1686645776, 'lat': 49.249462, 'lon': -123.1278092, 'tags': {'amenity': 'doctors', 'healthcare': 'doctor', 'name': ""Westcoast Women's Clinic""}}"
"{'type': 'node', 'id': 1702181412, 'lat': 49.2345997, 'lon': -123.1834232, 'tags': {'amenity': 'pharmacy', 'healthcare': 'pharmacy', 'name': 'Southland Pharmacy'}}"
"{'type': 'node', 'id': 1702241230, 'lat': 49.2347002, 'lon': -123.15704, 'tags': {'addr:city': 'Vancouver', 'addr:housenumber': '2171', 'addr:province': 'BC', 'addr:street': 'West 41st Avenue', 'healthcare': 'optometrist', 'name': 'LensCrafters'}}"
"{'type': 'node', 'id': 1715730788, 'lat': 49.1774811, 'lon': -123.1277613, 'tags': {'addr:city': 'Richmond', 'addr:housenumber': '8580', 'addr:province': 'BC', 'addr:street': 'Alexandra Road', 'healthcare': 'alternative', 'healthcare:speciality': 'acupuncture', 'name': 'Sandre Acupressure & Acupuncture'}}"
"{'type': 'node', 'id': 1723404210, 'lat': 49.2635358, 'lon': -123.1446854, 'tags': {'addr:city': 'Vancouver', 'addr:housenumber': '1762', 'addr:street': 'West Broadway', 'amenity': 'dentist', 'healthcare': 'dentist', 'name': 'By Design'}}"
"{'type': 'node', 'id': 1723429856, 'lat': 49.2632624, 'lon': -123.128343, 'tags': {'addr:city': 'Vancouver', 'addr:housenumber': '1070', 'addr:street': 'West Broadway', 'amenity': 'dentist', 'healthcare': 'dentist', 'name': 'Urban Dental Clinic'}}"
"{'type': 'node', 'id': 1723485080, 'lat': 49.2623938, 'lon': -123.0980124, 'tags': {'amenity': 'pharmacy', 'brand': 'Shoppers Drug Mart', 'brand:wikidata': 'Q1820137', 'brand:wikipedia': 'en:Shoppers Drug Mart', 'healthcare': 'pharmacy', 'name': 'Shoppers Drug Mart', 'phone': '+1-604-873-3558', 'website': 'https://www.shoppersdrugmart.ca/en/store-locator/store/204', 'website:en': 'https://www.shoppersdrugmart.ca/en/store-locator/store/204', 'website:fr': 'https://www.shoppersdrugmart.ca/fr/store-locator/store/204'}}"
"{'type': 'node', 'id': 1723495780, 'lat': 49.2623812, 'lon': -123.0952839, 'tags': {'addr:city': 'Vancouver', 'addr:housenumber': '428', 'addr:street': 'East Broadway', 'amenity': 'pharmacy', 'name': 'La Madonna'}}"
"{'type': 'node', 'id': 1733760107, 'lat': 49.239691, 'lon': -124.054778, 'tags': {'amenity': 'pharmacy'}}"
"{'type': 'node', 'id': 1751879650, 'lat': 48.6522343, 'lon': -123.5587979, 'tags': {'addr:city': 'Mill Bay', 'addr:housenumber': '2720', 'addr:postcode': 'V0R 2P0', 'addr:street': 'Mill Bay Road', 'addr:unit': '11-A', 'amenity': 'pharmacy', 'dispensing': 'yes', 'name': 'Pharmasave', 'opening_hours': 'Su 11:00-17:00; Mo-Fr 09:00-19:00; Sa 09:00-18:00', 'phone': '+1-250-743-9011', 'website': 'https://www.pharmasave.com/'}}"
"{'type': 'node', 'id': 1793687678, 'lat': 49.2822589, 'lon': -123.107967, 'tags': {'addr:city': 'Vancouver', 'addr:housenumber': '351', 'addr:postcode': 'V6B 0G0', 'addr:province': 'BC', 'addr:street': 'Abbott Street', 'addr:unit': '150', 'amenity': 'pharmacy', 'brand': 'London Drugs', 'brand:wikidata': 'Q3258955', 'brand:wikipedia': 'en:London Drugs', 'healthcare': 'pharmacy', 'name': 'London Drugs', 'opening_hours': 'Mo-Sa 09:00-22:00; Su 10:00-20:00', 'phone': '+1-604-448-4878', 'website': 'https://www.londondrugs.com', 'wheelchair': 'yes'}}"
"{'type': 'node', 'id': 1887635499, 'lat': 49.2347894, 'lon': -123.1598489, 'tags': {'amenity': 'pharmacy', 'brand': 'Shoppers Drug Mart', 'brand:wikidata': 'Q1820137', 'brand:wikipedia': 'en:Shoppers Drug Mart', 'dispensing': 'yes', 'healthcare': 'pharmacy', 'name': 'Shoppers Drug Mart', 'website': 'https://www.shoppersdrugmart.ca/en/store-locator/store/232', 'website:en': 'https://www.shoppersdrugmart.ca/en/store-locator/store/232', 'website:fr': 'https://www.shoppersdrugmart.ca/fr/store-locator/store/232'}}"
"{'type': 'node', 'id': 1944629984, 'lat': 49.2620177, 'lon': -123.0695561, 'tags': {'addr:city': 'Vancouver', 'addr:housenumber': '2516', 'addr:street': 'Commercial Drive', 'amenity': 'pharmacy', 'healthcare': 'pharmacy', 'name': 'Alberto Pharmacy', 'opening_hours': 'Mo-Fr 09:00-19:00; Sa 09:30-17:00'}}"
"{'type': 'node', 'id': 2086186323, 'lat': 48.4545813, 'lon': -123.394938, 'tags': {'amenity': 'pharmacy', 'healthcare': 'pharmacy', 'level': '0', 'shop': 'chemist', 'wheelchair': 'yes'}}"
"{'type': 'node', 'id': 2089362753, 'lat': 49.3277014, 'lon': -123.071084, 'tags': {'amenity': 'pharmacy', 'brand': 'London Drugs', 'brand:wikidata': 'Q3258955', 'brand:wikipedia': 'en:London Drugs', 'dispensing': 'yes', 'healthcare': 'pharmacy', 'name': 'London Drugs'}}"
"{'type': 'node', 'id': 2089384857, 'lat': 49.3222469, 'lon': -123.0719686, 'tags': {'amenity': 'pharmacy', 'brand': 'Shoppers Drug Mart', 'brand:wikidata': 'Q1820137', 'brand:wikipedia': 'en:Shoppers Drug Mart', 'healthcare': 'pharmacy', 'name': 'Shoppers Drug Mart'}}"
"{'type': 'node', 'id': 2189311479, 'lat': 48.4549183, 'lon': -123.3586766, 'tags': {'amenity': 'pharmacy', 'healthcare': 'pharmacy', 'name': 'Thrifty Foods'}}"
"{'type': 'node', 'id': 2240944750, 'lat': 49.2347109, 'lon': -123.1157742, 'tags': {'addr:city': 'Vancouver', 'addr:housenumber': '5570', 'addr:province': 'BC', 'addr:street': 'Cambie Street', 'amenity': 'pharmacy', 'dispensing': 'yes', 'healthcare': 'pharmacy', 'name': 'yYoung Pharmacy', 'website': 'https://cambieflowers.com/'}}"
"{'type': 'node', 'id': 2290999204, 'lat': 49.233951, 'lon': -123.153439, 'tags': {'addr:housenumber': '2077', 'addr:street': 'West 42nd Avenue', 'amenity': 'clinic', 'healthcare': 'clinic', 'name': 'Kerrisdale Station Medical Clinic', 'note': 'Mo-Th 8-20;Fr 8-19;sa-su 9-15', 'phone': '+1-604-261-9494', 'wheelchair': 'yes'}}"
"{'type': 'node', 'id': 2321011538, 'lat': 49.2821643, 'lon': -123.1342101, 'tags': {'addr:housenumber': '1236', 'addr:street': 'Davie Street', 'amenity': 'dentist', 'healthcare': 'dentist', 'name': 'Davie Dental Clinic', 'opening_hours': 'Mo 09:30-17:30; Tu-Th 10:00-18:00; Fr 10:00-17:00', 'source': 'survey', 'wheelchair': 'yes'}}"
"{'type': 'node', 'id': 2377522998, 'lat': 48.5342103, 'lon': -123.017263, 'tags': {'addr:city': 'Friday Harbor', 'addr:housenumber': '210', 'addr:postcode': '98250', 'addr:street': 'Spring Street', 'amenity': 'pharmacy', 'healthcare': 'pharmacy', 'name': 'Friday Harbor Drug', 'phone': '+1-360-378-4421', 'shop': 'chemist'}}"
"{'type': 'node', 'id': 2377523004, 'lat': 48.5321056, 'lon': -123.021897, 'tags': {'amenity': 'clinic', 'healthcare': 'clinic'}}"
"{'type': 'node', 'id': 2459691646, 'lat': 48.5332529, 'lon': -123.020889, 'tags': {'amenity': 'dentist', 'healthcare': 'dentist', 'name': 'TheTooth Ferry'}}"
"{'type': 'node', 'id': 2465885998, 'lat': 49.2808178, 'lon': -123.131291, 'tags': {'addr:city': 'Vancouver', 'addr:housenumber': '1123', 'addr:province': 'BC', 'addr:street': 'Davie Street', 'amenity': 'doctors', 'healthcare': 'doctor', 'name': 'Care Point Medical Clinic', 'opening_hours': 'Mo,We,Th 08:00-16:00; Tu,Fr 08:00-15:00', 'phone': '+1-604-915-9517', 'toilets:wheelchair': 'yes', 'website': 'https://www.carepoint.ca/', 'wheelchair': 'yes'}}"
"{'type': 'node', 'id': 2536028331, 'lat': 49.336065, 'lon': -123.037617, 'tags': {'addr:city': 'North Vancouver', 'addr:housenumber': '2990', 'addr:province': 'BC', 'addr:street': 'Mountain Highway', 'amenity': 'dentist', 'healthcare': 'dentist', 'name': 'Howe Sound Dental Group'}}"
"{'type': 'node', 'id': 2577906499, 'lat': 49.2818683, 'lon': -123.105676, 'tags': {'addr:city': 'Vancouver', 'addr:housenumber': '29', 'addr:province': 'BC', 'addr:street': 'West Hastings Street', 'healthcare': 'yes', 'name': ""Vancouver Women's Health Collective""}}"
"{'type': 'node', 'id': 2611360463, 'lat': 49.2635364, 'lon': -123.1448045, 'tags': {'addr:city': 'Vancouver', 'addr:housenumber': '1780', 'addr:street': 'West Broadway', 'amenity': 'pharmacy', 'brand': 'Shoppers Drug Mart', 'brand:wikidata': 'Q1820137', 'brand:wikipedia': 'en:Shoppers Drug Mart', 'dispensing': 'yes', 'healthcare': 'pharmacy', 'name': 'Shoppers Drug Mart', 'opening_hours': 'Mo-Su 08:00-24:00', 'website': 'https://www.shoppersdrugmart.ca/en/store-locator/store/2221', 'website:en': 'https://www.shoppersdrugmart.ca/en/store-locator/store/2221', 'website:fr': 'https://www.shoppersdrugmart.ca/fr/store-locator/store/2221'}}"
"{'type': 'node', 'id': 2611893970, 'lat': 49.3358711, 'lon': -123.041228, 'tags': {'amenity': 'clinic', 'emergency': 'no', 'healthcare': 'clinic', 'name': 'Lynn Valley Medical Clinic'}}"
"{'type': 'node', 'id': 2611908285, 'lat': 49.3085901, 'lon': -123.040846, 'tags': {'amenity': 'clinic', 'emergency': 'no', 'healthcare': 'clinic', 'name': 'Park & Tilford Medical Clinic'}}"
"{'type': 'node', 'id': 2612805465, 'lat': 49.279289, 'lon': -123.128488, 'tags': {'addr:city': 'Vancouver', 'addr:province': 'BC', 'addr:street': 'Burrard Street', 'amenity': 'pharmacy', 'branch': 'Health Centre', 'brand': 'Pharmasave', 'brand:wikidata': 'Q17093822', 'brand:wikipedia': 'en:Pharmasave', 'check_date:opening_hours': '2024-08-03', 'dispensing': 'yes', 'drive_through': 'no', 'healthcare': 'pharmacy', 'name': 'Pharmasave', 'opening_hours': 'Mo-Fr 08:30-18:00; Sa 09:00-17:00', 'wheelchair': 'yes'}}"
"{'type': 'node', 'id': 2791800326, 'lat': 49.332636, 'lon': -123.0893218, 'tags': {'amenity': 'dentist', 'healthcare': 'dentist'}}"
"{'type': 'node', 'id': 2807280509, 'lat': 49.2320487, 'lon': -123.0258645, 'tags': {'addr:city': 'Vancouver', 'addr:housenumber': '3632', 'addr:postcode': 'V5R 5M2', 'addr:street': 'Kingsway', 'amenity': 'clinic', 'check_date': '2024-09-13', 'healthcare': 'alternative', 'healthcare:speciality': 'chiropractic', 'name': 'Spine + Muscle', 'opening_hours': 'Tu, Th 14:00-21:00; We, Fr 10:00-15:00; Sa, Su 12:00-17:00, Mo off', 'phone': '+1-604-431-6661', 'website': 'https://www.spinemuscle.ca/', 'wheelchair': 'yes'}}"
"{'type': 'node', 'id': 2882826678, 'lat': 49.2412186, 'lon': -123.0571089, 'tags': {'addr:city': 'Vancouver', 'addr:housenumber': '2330', 'addr:postcode': 'V5R 5G9', 'addr:street': 'Kingsway', 'amenity': 'pharmacy', 'brand': 'Shoppers Drug Mart', 'brand:wikidata': 'Q1820137', 'brand:wikipedia': 'en:Shoppers Drug Mart', 'dispensing': 'yes', 'healthcare': 'pharmacy', 'name': 'Shoppers Drug Mart', 'opening_hours': 'Mo-Su 08:00-22:00', 'phone': '+1-604-484-1470', 'website': 'https://www.shoppersdrugmart.ca/en/store-locator/store/2289', 'website:en': 'https://www.shoppersdrugmart.ca/en/store-locator/store/2289', 'website:fr': 'https://www.shoppersdrugmart.ca/fr/store-locator/store/2289'}}"
"{'type': 'node', 'id': 2933929710, 'lat': 49.2447251, 'lon': -123.101093, 'tags': {'addr:city': 'Vancouver', 'addr:housenumber': '4484', 'addr:province': 'BC', 'addr:street': 'Main Street', 'amenity': 'pharmacy', 'healthcare': 'pharmacy', 'name': 'Mednow Pharmacy'}}"
"{'type': 'node', 'id': 2970950796, 'lat': 49.2712237, 'lon': -123.1058535, 'tags': {'addr:city': 'Vancouver', 'addr:housenumber': '1622', 'addr:postcode': 'V5Y 0E4', 'addr:province': 'BC', 'addr:street': 'Salt Street', 'amenity': 'pharmacy', 'brand': 'London Drugs', 'brand:wikidata': 'Q3258955', 'brand:wikipedia': 'en:London Drugs', 'dispensing': 'yes', 'drive_through': 'no', 'gst_number': 'R103378972', 'healthcare': 'pharmacy', 'name': 'London Drugs', 'note': 'Pharmacy, Appliances, Electronics, Cameras, Computers, PhotoLab', 'opening_hours': 'Mo-Sa 09:00-21:00; Su 10:00-20:00', 'operator': 'London Drugs', 'payment:interac': 'yes', 'phone': '+1-604-448-4882', 'store_name': 'Olympic Village', 'website': 'https://www.londondrugs.com/'}}"
"{'type': 'node', 'id': 2975046888, 'lat': 49.1267917, 'lon': -123.1002764, 'tags': {'addr:city': 'Richmond', 'addr:housenumber': 'Suite 1105 - 11980', 'addr:postcode': 'V7A 0A4', 'addr:street': 'Hammersmith Way', 'healthcare': 'physiotherapist', 'phone': '+1-604-600-8591'}}"
"{'type': 'node', 'id': 3022544499, 'lat': 49.4743885, 'lon': -123.7568224, 'tags': {'addr:city': 'Sechelt', 'addr:housenumber': '5571', 'addr:street': 'Dolphin Street', 'amenity': 'doctors', 'healthcare': 'doctor', 'name': 'Sechelt Health Unit'}}"
"{'type': 'node', 'id': 3022675101, 'lat': 49.474512, 'lon': -123.756596, 'tags': {'addr:city': 'Sechelt', 'addr:housenumber': '5684', 'addr:street': 'Dolphin Street', 'amenity': 'dentist', 'check_date:opening_hours': '2024-08-15', 'healthcare': 'dentist', 'name': 'Sechelt Dental Centre', 'opening_hours:signed': 'no'}}"
"{'type': 'node', 'id': 3024880774, 'lat': 49.4731204, 'lon': -123.7565943, 'tags': {'amenity': 'pharmacy', 'branch': 'Suncoast Pharmacy', 'brand': 'Guardian', 'brand:wikidata': 'Q65553864', 'healthcare': 'pharmacy', 'name': 'Guardian', 'opening_hours': 'Mo-Fr 08:30-17:30; Sa 09:00-17:00', 'wheelchair': 'yes'}}"
"{'type': 'node', 'id': 3024880775, 'lat': 49.4726132, 'lon': -123.7566077, 'tags': {'amenity': 'clinic', 'check_date:opening_hours': '2024-07-25', 'name': 'Cowrie Dentistry Clinic', 'opening_hours:signed': 'no', 'wheelchair': 'no'}}"
"{'type': 'node', 'id': 3041660607, 'lat': 49.1405591, 'lon': -123.138323, 'tags': {'addr:housenumber': '7820', 'addr:postcode': 'V7A 1G3', 'addr:street': 'Williams Road', 'amenity': 'pharmacy', 'brand': 'Shoppers Drug Mart', 'brand:wikidata': 'Q1820137', 'brand:wikipedia': 'en:Shoppers Drug Mart', 'healthcare': 'pharmacy', 'name': 'Shoppers Drug Mart', 'opening_hours': 'Mo-Su 08:00-00:00', 'phone': '+1-778-296-4065', 'website': 'https://www.shoppersdrugmart.ca/en/store-locator/store/2109', 'website:en': 'https://www.shoppersdrugmart.ca/en/store-locator/store/2109', 'website:fr': 'https://www.shoppersdrugmart.ca/fr/store-locator/store/2109'}}"
"{'type': 'node', 'id': 3155509762, 'lat': 49.1265438, 'lon': -123.181547, 'tags': {'addr:city': 'Richmond', 'addr:housenumber': '3993', 'addr:postcode': 'V7E 2Z6', 'addr:street': 'Chatham Street', 'amenity': 'pharmacy', 'healthcare': 'pharmacy', 'name': 'Medicine Shoppe', 'website': 'http://www.medicineshoppesteveston.ca/'}}"
"{'type': 'node', 'id': 3209496497, 'lat': 49.3351473, 'lon': -123.040154, 'tags': {'amenity': 'pharmacy', 'brand': 'Shoppers Drug Mart', 'brand:wikidata': 'Q1820137', 'brand:wikipedia': 'en:Shoppers Drug Mart', 'dispensing': 'yes', 'healthcare': 'pharmacy', 'name': 'Shoppers Drug Mart', 'website': 'https://www.shoppersdrugmart.ca/en/store-locator/store/291', 'website:en': 'https://www.shoppersdrugmart.ca/en/store-locator/store/291', 'website:fr': 'https://www.shoppersdrugmart.ca/fr/store-locator/store/291'}}"
"{'type': 'node', 'id': 3219691299, 'lat': 48.4362657, 'lon': -123.3395067, 'tags': {'addr:housenumber': '1508', 'addr:street': 'Haultain Street', 'amenity': 'clinic', 'healthcare': 'alternative', 'healthcare:speciality': 'acupuncture', 'name': 'Hemma Community Acupuncture', 'opening_hours': 'Mo-Tu 09:00-18:00, We-Th 09:00-19:00, Fr 13:00-18:00, Sa 09:00-14:00, Su 11:00-16:00', 'phone': '+1 778 265-6666', 'website': 'https://hemma.ca/'}}"
"{'type': 'node', 'id': 3243475627, 'lat': 49.2384623, 'lon': -124.04255, 'tags': {'addr:city': 'Nanaimo', 'addr:housenumber': '6596', 'addr:postcode': 'V8W 2G5', 'addr:street': 'Applecross Road', 'amenity': 'clinic', 'brand': 'LASIK MD', 'brand:wikidata': 'Q3205934', 'email': 'info@lasikmd.com', 'fax': '+1-250-390-4937', 'healthcare': 'clinic', 'healthcare:speciality': 'ophthalmology', 'name': 'LASIK MD', 'phone': '+1-250-390-4948', 'website': 'http://www.lasikmd.com/nanaimo'}}"
"{'type': 'node', 'id': 3301490351, 'lat': 48.4290325, 'lon': -123.364191, 'tags': {'addr:city': 'Victoria', 'addr:housenumber': '1675', 'addr:postcode': 'V8W 2G5', 'addr:street': 'Douglas Street', 'amenity': 'clinic', 'brand': 'LASIK MD', 'brand:wikidata': 'Q3205934', 'healthcare': 'clinic', 'healthcare:speciality': 'ophthalmology', 'name': 'LASIK MD', 'phone': '+1-250-412-1111', 'website': 'http://www.lasikmd.com/victoria'}}"
"{'type': 'node', 'id': 3352266145, 'lat': 49.2782597, 'lon': -123.122245, 'tags': {'addr:city': 'Vancouver', 'addr:housenumber': '1018', 'addr:postcode': 'V6B 3M6', 'addr:province': 'BC', 'addr:street': 'Seymour Street', 'amenity': 'clinic', 'healthcare': 'clinic', 'name': 'Coast Medical', 'opening_hours': 'Mo-Th 09:00-21:00; Fr 09:00-16:00; Sa 10:00-16:00', 'opening_hours:signed': 'no'}}"
"{'type': 'node', 'id': 3443663179, 'lat': 49.3264963, 'lon': -123.0716789, 'tags': {'addr:city': 'North Vancouver', 'addr:country': 'CA', 'addr:housenumber': '1916', 'addr:postcode': 'V7M 2K1', 'addr:street': 'Lonsdale Avenue', 'brand': 'LifeLabs', 'brand:wikidata': 'Q109319451', 'healthcare': 'laboratory', 'healthcare:speciality': 'blood_check', 'name': 'LifeLabs', 'opening_hours': 'Mo-Fr 06:30-17:00; Sa 06:30-15:00; Su off'}}"
"{'type': 'node', 'id': 3477294758, 'lat': 49.2810001, 'lon': -123.050474, 'tags': {'addr:housenumber': '2656', 'addr:street': 'East Hastings Street', 'amenity': 'dentist', 'healthcare': 'dentist', 'name': 'Dr Bradley Mar'}}"
"{'type': 'node', 'id': 3477294760, 'lat': 49.2809901, 'lon': -123.049663, 'tags': {'addr:city': 'Vancouver', 'addr:housenumber': '2696', 'addr:province': 'BC', 'addr:street': 'East Hastings Street', 'amenity': 'pharmacy', 'brand': 'London Drugs', 'brand:wikidata': 'Q3258955', 'dispensing': 'yes', 'healthcare': 'pharmacy', 'name': 'London Drugs', 'note': 'Temporary location as of July 2023.', 'website': 'https://www.londondrugs.com/london-drugs-store-007-vancouver/east-hastings-007.html'}}"
"{'type': 'node', 'id': 3477330606, 'lat': 49.2807421, 'lon': -123.0489292, 'tags': {'addr:housenumber': '2724', 'addr:street': 'East Hastings Street', 'amenity': 'pharmacy', 'healthcare': 'pharmacy', 'name': 'Hastings Pharmacy'}}"
"{'type': 'node', 'id': 3477330608, 'lat': 49.2809328, 'lon': -123.0488379, 'tags': {'addr:housenumber': '2738', 'addr:street': 'East Hastings Street', 'amenity': 'doctors', 'healthcare': 'doctor', 'name': 'B Carlani & E Wong Physthrpy'}}"
"{'type': 'node', 'id': 3477330609, 'lat': 49.2808785, 'lon': -123.0488255, 'tags': {'addr:housenumber': '2736', 'addr:street': 'East Hastings Street', 'amenity': 'doctors', 'healthcare': 'doctor', 'name': 'BC Biomedical Laboratories', 'wheelchair': 'limited'}}"
"{'type': 'node', 'id': 3477330610, 'lat': 49.2807483, 'lon': -123.0486769, 'tags': {'addr:housenumber': '2732', 'addr:street': 'East Hastings Street', 'amenity': 'dentist', 'healthcare': 'dentist', 'name': 'Dr. Alex Libelich', 'note': 'Unit 101', 'phone': '+1-604-253-4567'}}"
"{'type': 'node', 'id': 3477330611, 'lat': 49.2808008, 'lon': -123.0488245, 'tags': {'addr:housenumber': '2728', 'addr:street': 'East Hastings Street', 'amenity': 'dentist', 'healthcare': 'dentist', 'name': 'Laurel Radiology - XRay'}}"
"{'type': 'node', 'id': 3477338129, 'lat': 49.2808716, 'lon': -123.0481885, 'tags': {'addr:housenumber': '2750', 'addr:street': 'East Hastings Street', 'amenity': 'doctors', 'healthcare': 'doctor', 'name': 'Northeast Mental Health Team'}}"
"{'type': 'node', 'id': 3477338137, 'lat': 49.280974, 'lon': -123.047228, 'tags': {'addr:housenumber': '2778', 'addr:street': 'East Hastings Street', 'addr:unit': '102', 'amenity': 'clinic', 'healthcare': 'clinic', 'healthcare:speciality': 'urgent', 'name': 'Northeast Urgent and Primary Care Centre', 'operator': 'Vancouver Coastal', 'operator:type': 'public', 'phone': '+1-604-675-2599', 'website': 'https://www.vch.ca/en/location/northeast-urgent-and-primary-care-centre-upcc'}}"
"{'type': 'node', 'id': 3483183543, 'lat': 49.2808218, 'lon': -123.0486287, 'tags': {'addr:housenumber': '2732', 'addr:street': 'East Hastings Street', 'amenity': 'doctors', 'healthcare': 'doctor', 'name': 'Dr. Gordon Stahl', 'note': 'Unit 100. Dr. Lynn Huff. Dr. Sylvia Ducceschi. Dr. Rozaliya Kim, Dr. Mihaela Lapuste'}}"
"{'type': 'node', 'id': 3489882132, 'lat': 48.4356751, 'lon': -123.387345, 'tags': {'addr:city': 'Victoria', 'addr:housenumber': '1008', 'addr:postcode': 'V9A 3X6', 'addr:street': 'Russell Street', 'amenity': 'clinic', 'healthcare': 'clinic', 'name': 'Stillpoint Community Acupuncture', 'opening_hours': 'Su 10:00-13:00; Mo 08:00-12:00; Tu 15:00-19:00; We 08:00-12:00,15:00-19:00; Th 15:00-19:00; Fr 15:00-19:00', 'phone': '+1-250-590-7818', 'website': 'https://stillpoint-clinic.com/'}}"
"{'type': 'node', 'id': 3489896323, 'lat': 48.4335461, 'lon': -123.515854, 'tags': {'addr:city': 'Langford', 'addr:housenumber': '3212', 'addr:postcode': 'V9B 0J5', 'addr:street': 'Jacklin Road', 'healthcare': 'acupuncture', 'name': 'Stillpoint Community Acupuncture', 'opening_hours': 'Mo 15:00-19:00; Tu 15:00-19:00; We 08:00-12:00; Th 15:00-19:00; Fr 08:00-12:00; Sa 10:00-13:00', 'phone': '+1-250-590-7818', 'website': 'https://stillpoint-clinic.com/'}}"
"{'type': 'node', 'id': 3518466460, 'lat': 49.3375593, 'lon': -123.101329, 'tags': {'amenity': 'clinic', 'healthcare': 'clinic', 'level': '1', 'name': 'Bodyside Laser Clinic'}}"
"{'type': 'node', 'id': 3524497359, 'lat': 49.3382179, 'lon': -123.102089, 'tags': {'amenity': 'dentist', 'healthcare': 'dentist', 'name': 'Edgemont Village Dental Care'}}"
"{'type': 'node', 'id': 3524497363, 'lat': 49.3380849, 'lon': -123.1013552, 'tags': {'healthcare': 'physiotherapist', 'name': 'Village Physiotherapy'}}"
"{'type': 'node', 'id': 3524572604, 'lat': 49.3374026, 'lon': -123.102463, 'tags': {'amenity': 'dentist', 'healthcare': 'dentist', 'name': 'Village Dental Group'}}"
"{'type': 'node', 'id': 3524687827, 'lat': 49.3379382, 'lon': -123.101476, 'tags': {'amenity': 'clinic', 'healthcare': 'clinic', 'name': 'Edgemont Chiropractic Clinic'}}"
"{'type': 'node', 'id': 3531137353, 'lat': 48.8516182, 'lon': -123.4991857, 'tags': {'addr:housenumber': '149', 'healthcare': 'alternative', 'name': 'Pathway to Wellness', 'opening_hours': 'Mo-We 09:00-18:00'}}"
"{'type': 'node', 'id': 3614110281, 'lat': 49.1250728, 'lon': -123.1809497, 'tags': {'addr:city': 'Richmond', 'addr:housenumber': '105 - 12420', 'addr:postcode': 'V7E 6N2', 'addr:street': 'Number 1 Road', 'amenity': 'pharmacy', 'brand': 'Pharmasave', 'brand:wikidata': 'Q17093822', 'brand:wikipedia': 'en:Pharmasave', 'healthcare': 'pharmacy', 'name': 'Pharmasave', 'phone': '+1-604-232-0159'}}"
"{'type': 'node', 'id': 3638072409, 'lat': 48.8524092, 'lon': -123.499581, 'tags': {'amenity': 'pharmacy', 'brand': 'Pharmasave', 'brand:wikidata': 'Q17093822', 'healthcare': 'pharmacy', 'name': 'Pharmasave', 'opening_hours': 'Mo-Fr 08:30-18:00; Sa 09:00-18:00; Su 11:00-17:00', 'wheelchair': 'yes'}}"
"{'type': 'node', 'id': 3705791014, 'lat': 49.283625, 'lon': -123.116121, 'tags': {'addr:city': 'Vancouver', 'addr:housenumber': '586', 'addr:postcode': 'V6C 1X5', 'addr:province': 'BC', 'addr:street': 'Dunsmuir Street', 'amenity': 'pharmacy', 'brand': 'Shoppers Drug Mart', 'brand:wikidata': 'Q1820137', 'brand:wikipedia': 'en:Shoppers Drug Mart', 'drive_through': 'no', 'healthcare': 'pharmacy', 'name': 'Shoppers Drug Mart', 'opening_hours': 'Mo-Fr 07:00-22:00; Sa 08:00-22:00; Su 10:00-22:00', 'phone': '+1-604-683-4063', 'website': 'https://www.shoppersdrugmart.ca/en/store-locator/store/2277', 'website:en': 'https://www.shoppersdrugmart.ca/en/store-locator/store/2277', 'website:fr': 'https://www.shoppersdrugmart.ca/fr/store-locator/store/2277', 'wheelchair': 'yes'}}"
"{'type': 'node', 'id': 3712940201, 'lat': 49.2848663, 'lon': -123.114852, 'tags': {'addr:city': 'Vancouver', 'addr:housenumber': '499', 'addr:province': 'BC', 'addr:street': 'Granville Street', 'amenity': 'pharmacy', 'branch': 'Drugstore', 'brand': 'Rexall', 'brand:wikidata': 'Q39045377', 'brand:wikipedia': 'en:Rexall (Canada)', 'check_date:opening_hours': '2024-08-19', 'drive_through': 'no', 'healthcare': 'pharmacy', 'name': 'Rexall', 'opening_hours': 'Mo-Fr 07:00-21:00; Sa,Su 09:00-20:00', 'shop': 'chemist', 'wheelchair': 'yes'}}"
"{'type': 'node', 'id': 3734934565, 'lat': 49.2792677, 'lon': -123.11946, 'tags': {'addr:city': 'Vancouver', 'addr:housenumber': '505', 'addr:postcode': 'V6B 6H1', 'addr:province': 'BC', 'addr:street': 'Smithe Street', 'amenity': 'pharmacy', 'drive_through': 'no', 'healthcare': 'pharmacy', 'name': 'Sina', 'opening_hours': 'Mo-Fr 08:00-19:00; Sa-Su 10:00-18:00', 'wheelchair': 'yes'}}"
"{'type': 'node', 'id': 3734942645, 'lat': 49.2789348, 'lon': -123.121852, 'tags': {'addr:city': 'Vancouver', 'addr:housenumber': '993', 'addr:postcode': 'V6B 3M1', 'addr:province': 'BC', 'addr:street': 'Seymour Street', 'amenity': 'dentist', 'check_date:opening_hours': '2024-05-18', 'healthcare': 'dentist', 'name': 'Aarm Dental Group', 'opening_hours': 'Mo-Th 08:00-20:00; Fr,Sa 09:00-17:00', 'phone': '+1-604-688-7607', 'website': 'https://www.aarm-dental.com/', 'wheelchair': 'yes'}}"
"{'type': 'node', 'id': 3736867777, 'lat': 49.2615538, 'lon': -123.0700967, 'tags': {'addr:housenumber': '2591', 'addr:street': 'Commercial Drive', 'amenity': 'pharmacy', 'healthcare': 'pharmacy', 'name': ""Maggie's Pharmacy"", 'opening_hours': 'Mo-Fr 09:00-18:00; Sa,Su 10:00-14:00', 'wheelchair': 'yes'}}"
"{'type': 'node', 'id': 3736867778, 'lat': 49.2614836, 'lon': -123.0696102, 'tags': {'addr:housenumber': '2590', 'addr:street': 'Commercial Drive', 'amenity': 'clinic', 'healthcare': 'clinic', 'name': 'Health Care Medical Center', 'opening_hours': 'Mo-Tu 09:00-21:00; We-Fr 09:00-17:00; Sa 10:00-17:00; Su 10:00-16:00'}}"
"{'type': 'node', 'id': 3736868279, 'lat': 49.2796139, 'lon': -123.108511, 'tags': {'addr:city': 'Vancouver', 'addr:housenumber': '178', 'addr:province': 'BC', 'addr:street': 'Keefer Place', 'amenity': 'dentist', 'healthcare': 'dentist', 'healthcare:speciality': 'chiropractic', 'name': 'Stadium Dental'}}"
"{'type': 'node', 'id': 3740792376, 'lat': 49.2728114, 'lon': -123.147385, 'tags': {'addr:city': 'Vancouver', 'addr:housenumber': '1891', 'addr:province': 'BC', 'addr:street': 'Cornwall Avenue', 'amenity': 'dentist', 'healthcare': 'dentist', 'name': 'Kits Point Dental Group', 'opening_hours': 'Mo-Th 8:00-17:00; Fr 8:00-15:00; Sa-Su off', 'phone': '+1-604-737-2101', 'website': 'https://kitspointdental.com/'}}"
"{'type': 'node', 'id': 3744771325, 'lat': 49.2834485, 'lon': -123.122167, 'tags': {'addr:city': 'Vancouver', 'addr:housenumber': '748', 'addr:postcode': 'V6Z 2V6', 'addr:province': 'BC', 'addr:street': 'Burrard Street', 'addr:unit': '104,201', 'amenity': 'pharmacy', 'brand': 'Shoppers Drug Mart', 'brand:wikidata': 'Q1820137', 'brand:wikipedia': 'en:Shoppers Drug Mart', 'dispensing': 'yes', 'drive_through': 'no', 'healthcare': 'pharmacy', 'name': 'Shoppers Drug Mart', 'opening_hours': 'Mo-Su 08:00-22:00', 'phone': '+1-778-330-4711', 'website': 'https://www.shoppersdrugmart.ca/en/store-locator/store/2245', 'website:en': 'https://www.shoppersdrugmart.ca/en/store-locator/store/2245', 'website:fr': 'https://www.shoppersdrugmart.ca/fr/store-locator/store/2245', 'wheelchair': 'yes'}}"
"{'type': 'node', 'id': 3753945313, 'lat': 49.2780027, 'lon': -123.127163, 'tags': {'addr:city': 'Vancouver', 'addr:housenumber': '803', 'addr:postcode': 'V6Z 1B7', 'addr:province': 'BC', 'addr:street': 'Davie Street', 'amenity': 'clinic', 'check_date:opening_hours': '2024-09-18', 'healthcare': 'clinic', 'healthcare:speciality': 'plastic_surgery', 'name': 'Dermal Laser', 'opening_hours': 'Mo-Fr 09:00-19:00; Sa 09:00-18:00'}}"
"{'type': 'node', 'id': 3753945316, 'lat': 49.2776264, 'lon': -123.1290883, 'tags': {'addr:housenumber': '1270', 'addr:street': 'Hornby Street', 'amenity': 'dentist', 'check_date:opening_hours': '2023-12-23', 'healthcare': 'dentist', 'name': 'Aarm Dental Group', 'opening_hours': 'Mo,Tu 07:30-18:30; We,Th 07:30-19:00; Fr 07:30-17:00; Sa 08:30-16:00', 'phone': '+1-604-681-8530', 'wheelchair': 'yes'}}"
"{'type': 'node', 'id': 3755195843, 'lat': 49.2800673, 'lon': -123.125911, 'tags': {'addr:city': 'Vancouver', 'addr:housenumber': '1065', 'addr:province': 'BC', 'addr:street': 'Hornby Street', 'amenity': 'dentist', 'check_date:opening_hours': '2023-05-20', 'healthcare': 'dentist', 'name': 'Wall Centre Dental', 'opening_hours': 'Mo-Fr 08:00-17:00', 'phone': '+1-604-879-3333', 'wheelchair': 'yes'}}"
"{'type': 'node', 'id': 3755320528, 'lat': 49.2858242, 'lon': -123.126404, 'tags': {'addr:city': 'Vancouver', 'addr:housenumber': '1187', 'addr:province': 'BC', 'addr:street': 'Robson Street', 'amenity': 'pharmacy', 'brand': 'London Drugs', 'brand:wikidata': 'Q3258955', 'brand:wikipedia': 'en:London Drugs', 'drive_through': 'no', 'healthcare': 'pharmacy', 'name': 'London Drugs', 'opening_hours': 'Mo-Fr 08:00-21:00; Sa 09:00-21:00; PH,Su 10:00-20:00', 'website': 'https://www.londondrugs.com/london-drugs-store-019-vancouver/robson-street-019.html', 'wheelchair': 'yes'}}"
"{'type': 'node', 'id': 3762702828, 'lat': 48.442482, 'lon': -123.469811, 'tags': {'addr:housenumber': '1880', 'addr:street': 'Island Highway', 'addr:unit': '102', 'amenity': 'pharmacy', 'brand': 'Rexall', 'brand:wikidata': 'Q39045377', 'brand:wikipedia': 'en:Rexall (Canada)', 'healthcare': 'pharmacy', 'name': 'Rexall'}}"
"{'type': 'node', 'id': 3772793987, 'lat': 49.2626206, 'lon': -123.070703, 'tags': {'addr:city': 'Vancouver', 'addr:housenumber': '#210-1669', 'addr:postcode': 'V5N 1V9', 'addr:street': 'East Broadway', 'amenity': 'dentist', 'healthcare': 'dentist', 'name': 'Public Health Dental Health Program', 'operator': 'Vancouver Coastal Health', 'phone': '+1-604-675-3981'}}"
"{'type': 'node', 'id': 3779150668, 'lat': 49.1839061, 'lon': -123.0930897, 'tags': {'addr:city': 'Richmond', 'addr:housenumber': '11700', 'addr:postcode': 'V6X 1L5', 'addr:province': 'BC', 'addr:street': 'Cambie Road', 'addr:unit': '180', 'amenity': 'clinic', 'healthcare': 'clinic', 'name': 'HealthVue Medical Clinic'}}"
"{'type': 'node', 'id': 3783873901, 'lat': 48.6491991, 'lon': -123.404749, 'tags': {'amenity': 'pharmacy', 'brand': 'Pharmasave', 'brand:wikidata': 'Q17093822', 'healthcare': 'pharmacy', 'name': 'Pharmasave'}}"
"{'type': 'node', 'id': 3870325218, 'lat': 49.2723202, 'lon': -123.0697877, 'tags': {'addr:housenumber': '1397', 'addr:street': 'Commercial Drive', 'healthcare': 'alternative', 'healthcare:speciality': 'chiropractic', 'name': 'Alpine Sport + Spine', 'phone': '+1-604-253-2515', 'website': 'http://www.alpinesportandspine.com/'}}"
"{'type': 'node', 'id': 3870325224, 'lat': 49.2728909, 'lon': -123.0693614, 'tags': {'addr:housenumber': '1308', 'addr:street': 'Commercial Drive', 'amenity': 'pharmacy', 'brand': 'Pharmasave', 'brand:wikidata': 'Q17093822', 'brand:wikipedia': 'en:Pharmasave', 'dispensing': 'yes', 'drive_through': 'no', 'healthcare': 'pharmacy', 'name': 'Pharmasave', 'opening_hours': 'Mo-Fr 10:00-18:00', 'phone': '+1-604-215-5500', 'website': 'https://pharmasave.com/vancouver-commercial/'}}"
"{'type': 'node', 'id': 3875934382, 'lat': 49.133034, 'lon': -123.0931323, 'tags': {'addr:housenumber': '11700', 'addr:postcode': 'V7A 1N6', 'addr:street': 'Steveston Highway', 'addr:unit': '130', 'amenity': 'dentist', 'healthcare': 'dentist', 'name': 'Spectrum Dental Centre', 'opening_hours': 'Mo-Sa 09:30-17:00', 'phone': '+1-604-271-5225'}}"
"{'type': 'node', 'id': 3930939216, 'lat': 49.2746225, 'lon': -123.123982, 'tags': {'addr:city': 'Vancouver', 'addr:housenumber': '1258', 'addr:province': 'BC', 'addr:street': 'Homer Street', 'amenity': 'dentist', 'healthcare': 'dentist', 'name': 'Homer Dental Centre', 'opening_hours': 'Mo,Th,Fr 09:00-17:00; Tu,We 11:00-19:00; Sa 09:00-16:00'}}"
"{'type': 'node', 'id': 3930946750, 'lat': 49.2747843, 'lon': -123.123738, 'tags': {'addr:city': 'Vancouver', 'addr:province': 'BC', 'addr:street': 'Homer Street', 'healthcare': 'alternative', 'healthcare:speciality': 'chiropractic', 'name': 'Yaletown Chiropractic'}}"
"{'type': 'node', 'id': 3932734948, 'lat': 49.2758558, 'lon': -123.123889, 'tags': {'addr:housenumber': '499', 'addr:street': 'Davie Street', 'healthcare': 'alternative', 'name': 'Cybin Wellness', 'opening_hours': 'Mo-Fr 10:00-13:00,14:00-18:00', 'wheelchair': 'yes'}}"
"{'type': 'node', 'id': 3932734949, 'lat': 49.2757821, 'lon': -123.123784, 'tags': {'addr:housenumber': '487', 'addr:street': 'Davie Street', 'healthcare': 'alternative', 'name': 'Yaletown Integrative', 'opening_hours': 'Mo-Fr 10:00-13:00, 14:00-18:00', 'phone': '+1-604-697-0397', 'website': 'https://www.yaletownintegrative.com/'}}"
"{'type': 'node', 'id': 3934597058, 'lat': 49.2766564, 'lon': -123.120912, 'tags': {'addr:city': 'Vancouver', 'addr:housenumber': '1060', 'addr:province': 'BC', 'addr:street': 'Homer Street', 'amenity': 'clinic', 'check_date:opening_hours': '2023-12-28', 'healthcare': 'clinic', 'name': 'IV', 'opening_hours': 'Mo-Fr 10:00-19:30; Sa 09:00-17:00; Su 09:00-16:00', 'wheelchair': 'yes'}}"
"{'type': 'node', 'id': 3935122714, 'lat': 49.280469, 'lon': -123.1308116, 'tags': {'addr:city': 'Vancouver', 'addr:housenumber': '1190', 'addr:province': 'BC', 'addr:street': 'Thurlow Street', 'amenity': 'clinic', 'check_date:opening_hours': '2021-10-24', 'healthcare': 'clinic', 'name': 'Naturopathic Medical Centre', 'opening_hours': 'Mo 09:00-18:00, Tu 09:00-19:00, We 09:00-17:00, Th 10:00-19:00, Fr 09:00-18:00'}}"
"{'type': 'node', 'id': 3940619793, 'lat': 49.2815809, 'lon': -123.107223, 'tags': {'addr:city': 'Vancouver', 'addr:housenumber': '420', 'addr:province': 'BC', 'addr:street': 'Abbott Street', 'amenity': 'pharmacy', 'drive_through': 'no', 'healthcare': 'pharmacy', 'name': 'Wellness Pharmacy', 'phone': '+1-604-681-2272', 'website': 'https://www.wellpharmacy.com'}}"
"{'type': 'node', 'id': 3940619798, 'lat': 49.2829949, 'lon': -123.107939, 'tags': {'addr:city': 'Vancouver', 'addr:housenumber': '126', 'addr:province': 'BC', 'addr:street': 'West Cordova Street', 'amenity': 'dentist', 'healthcare': 'dentist', 'name': 'W Dental', 'phone': '+1-604-682-2000', 'website': 'http://w-dental.ca'}}"
"{'type': 'node', 'id': 3940620194, 'lat': 49.281653, 'lon': -123.107188, 'tags': {'addr:housenumber': '418', 'addr:street': 'Abbott Street', 'amenity': 'clinic', 'healthcare': 'clinic', 'name': 'Pacific Oak Clinic'}}"
"{'type': 'node', 'id': 3942204317, 'lat': 49.2818309, 'lon': -123.107013, 'tags': {'addr:city': 'Vancouver', 'addr:housenumber': '84', 'addr:province': 'BC', 'addr:street': 'West Hastings Street', 'amenity': 'clinic', 'healthcare': 'clinic', 'name': 'Providence Crosstown Clinic', 'operator': 'Providence'}}"
"{'type': 'node', 'id': 3945297356, 'lat': 49.2799403, 'lon': -123.1261533, 'tags': {'addr:city': 'Vancouver', 'addr:housenumber': '1083', 'addr:province': 'BC', 'addr:street': 'Hornby Street', 'healthcare': 'alternative', 'healthcare:speciality': 'chiropractic', 'name': 'Wall Centre Chiropractic', 'opening_hours': 'Mo,Tu,Th 12:00-18:30; We,Fr,Sa 07:30-13:30', 'wheelchair': 'yes'}}"
"{'type': 'node', 'id': 3945298595, 'lat': 49.2863386, 'lon': -123.1151579, 'tags': {'addr:city': 'Vancouver', 'addr:housenumber': '817', 'addr:province': 'BC', 'addr:street': 'West Hastings Street', 'amenity': 'clinic', 'healthcare': 'clinic', 'name': 'Choice Medical Clinic', 'opening_hours': 'Mo-Fr 10:00-18:00', 'wheelchair': 'yes'}}"
"{'type': 'node', 'id': 3951063631, 'lat': 49.2762936, 'lon': -123.127194, 'tags': {'addr:city': 'Vancouver', 'addr:housenumber': '1278', 'addr:province': 'BC', 'addr:street': 'Granville Street', 'amenity': 'clinic', 'check_date:opening_hours': '2022-11-05', 'healthcare': 'clinic', 'name': 'Yaletown Medical Centre', 'opening_hours:signed': 'no', 'wheelchair': 'yes'}}"
"{'type': 'node', 'id': 3951063740, 'lat': 49.2762244, 'lon': -123.127278, 'tags': {'addr:city': 'Vancouver', 'addr:housenumber': '1284', 'addr:province': 'BC', 'addr:street': 'Granville Street', 'amenity': 'pharmacy', 'drive_through': 'no', 'healthcare': 'pharmacy', 'name': 'Yale I.D.A. Pharmacy', 'opening_hours': 'Mo-Fr 08:00-17:00; PH 08:00-14:00; Sa,Su 09:00-17:00', 'phone': '+1 604-692-0211', 'wheelchair': 'yes'}}"
"{'type': 'node', 'id': 3956042826, 'lat': 49.2764359, 'lon': -123.123087, 'tags': {'addr:city': 'Vancouver', 'addr:housenumber': '1138', 'addr:postcode': 'V6B 3E6', 'addr:province': 'BC', 'addr:street': 'Richards Street', 'healthcare': 'alternative', 'name': 'The Neuro Lounge', 'opening_hours': 'Mo-Fr 11:00-19:00; Sa-Su 11:00-15:00', 'phone': '+1-604-336-9247', 'website': 'https://theneurolounge.com/'}}"
"{'type': 'node', 'id': 3956042827, 'lat': 49.2765456, 'lon': -123.1229213, 'tags': {'addr:city': 'Vancouver', 'addr:housenumber': '1126', 'addr:province': 'BC', 'addr:street': 'Richards Street', 'healthcare': 'alternative', 'healthcare:speciality': 'chiropractic', 'name': 'Urban Chiropractic', 'opening_hours': 'Mo,We 11:30-18:00; Tu,Th 07:30-11:30', 'wheelchair': 'yes'}}"
"{'type': 'node', 'id': 3957328667, 'lat': 49.2775903, 'lon': -123.125281, 'tags': {'addr:city': 'Vancouver', 'addr:housenumber': '1146', 'addr:province': 'BC', 'addr:street': 'Granville Street', 'amenity': 'pharmacy', 'healthcare': 'pharmacy', 'name': 'Granville Pharmacy', 'opening_hours': 'Mo-Fr 08:00-17:00; Sa,Su 09:00-14:00', 'wheelchair': 'yes'}}"
"{'type': 'node', 'id': 3957621976, 'lat': 49.2793859, 'lon': -123.10666, 'tags': {'addr:city': 'Vancouver', 'addr:housenumber': '66', 'addr:province': 'BC', 'addr:street': 'Keefer Street', 'amenity': 'dentist', 'healthcare': 'dentist', 'name': 'Dr Serge Agafontsev'}}"
"{'type': 'node', 'id': 3957622058, 'lat': 49.2797566, 'lon': -123.106938, 'tags': {'addr:city': 'Vancouver', 'addr:province': 'BC', 'amenity': 'pharmacy', 'brand': 'Rexall', 'brand:wikidata': 'Q39045377', 'brand:wikipedia': 'en:Rexall', 'drive_through': 'no', 'healthcare': 'pharmacy', 'level': '0', 'name': 'Rexall', 'opening_hours': 'Mo-Su 08:00-22:00'}}"
"{'type': 'node', 'id': 3957622059, 'lat': 49.2794752, 'lon': -123.107095, 'tags': {'addr:city': 'Vancouver', 'addr:housenumber': '88', 'addr:province': 'BC', 'addr:street': 'Keefer Street', 'healthcare': 'alternative', 'name': 'J.E.D Chinese Medical Clinic', 'phone': '+1-604-974-1188', 'website': 'https://www.jedclinic.com/'}}"
"{'type': 'node', 'id': 3957622061, 'lat': 49.2794131, 'lon': -123.106862, 'tags': {'addr:city': 'Vancouver', 'addr:housenumber': '80', 'addr:province': 'BC', 'addr:street': 'Keefer Street', 'amenity': 'dentist', 'healthcare': 'dentist', 'name': 'Tinseltown Dental'}}"
"{'type': 'node', 'id': 3992894498, 'lat': 49.2682086, 'lon': -123.146618, 'tags': {'addr:housenumber': '1845', 'addr:street': 'West 4th Avenue', 'amenity': 'dentist', 'healthcare': 'dentist', 'name': 'Cyprus Dental'}}"
"{'type': 'node', 'id': 3992894635, 'lat': 49.2684729, 'lon': -123.1567007, 'tags': {'addr:housenumber': '2259', 'addr:street': 'West 4th Avenue', 'amenity': 'dentist', 'healthcare': 'dentist', 'name': 'La Vita Dental'}}"
"{'type': 'node', 'id': 3992895469, 'lat': 49.2703278, 'lon': -123.145783, 'tags': {'addr:housenumber': '1735', 'addr:street': 'Burrard Street', 'check_date:opening_hours': '2024-03-16', 'healthcare': 'podiatrist', 'name': 'Burrard Podiatry', 'opening_hours:signed': 'no', 'wheelchair': 'yes'}}"
"{'type': 'node', 'id': 3992895757, 'lat': 49.2683613, 'lon': -123.159255, 'tags': {'addr:housenumber': '2385', 'addr:street': 'West 4th Avenue', 'amenity': 'dentist', 'healthcare': 'dentist', 'name': 'Accord Dental'}}"
"{'type': 'node', 'id': 3994476662, 'lat': 49.2679249, 'lon': -123.148803, 'tags': {'amenity': 'dentist', 'email': 'info@smilevancouver.ca', 'healthcare': 'dentist', 'name': 'Arbutus North Dental', 'phone': '+1-604-733-3325', 'website': 'https://smilevancouver.ca/'}}"
"{'type': 'node', 'id': 3994476665, 'lat': 49.2682438, 'lon': -123.1482452, 'tags': {'addr:housenumber': '1905', 'addr:street': 'West 4th Avenue', 'amenity': 'dentist', 'check_date': '2024-10-13', 'healthcare': 'dentist', 'name': 'Fourth Avenue Dental Clinic'}}"
"{'type': 'node', 'id': 4018992398, 'lat': 49.2330342, 'lon': -123.016069, 'tags': {'addr:city': 'Burnaby', 'addr:housenumber': '3999', 'addr:postcode': 'V5H 1Y8', 'addr:street': 'Kingsway', 'amenity': 'dentist', 'check_date': '2024-07-09', 'email': 'info@artadental.com', 'healthcare': 'dentist', 'name': 'ARTA Dental', 'phone': '+1-604-437-7723', 'website': 'https://www.artadental.com/'}}"
"{'type': 'node', 'id': 4076764082, 'lat': 48.4443669, 'lon': -123.369127, 'tags': {'amenity': 'pharmacy', 'brand': 'Rexall', 'brand:wikidata': 'Q39045377', 'brand:wikipedia': 'en:Rexall (Canada)', 'healthcare': 'pharmacy', 'name': 'Rexall', 'opening_hours': 'Mo-Fr 08:30-17:00; Sa 09:00-17:00'}}"
"{'type': 'node', 'id': 4076921068, 'lat': 48.4328916, 'lon': -123.380329, 'tags': {'addr:housenumber': '173', 'addr:street': 'Wilson Street', 'amenity': 'dentist', 'healthcare': 'dentist', 'name': 'Westside Dentistry'}}"
"{'type': 'node', 'id': 4076987139, 'lat': 48.4330299, 'lon': -123.3803987, 'tags': {'healthcare': 'physiotherapist', 'name': 'Physiotherapy'}}"
"{'type': 'node', 'id': 4129477990, 'lat': 49.2190169, 'lon': -123.0401561, 'tags': {'amenity': 'pharmacy', 'brand': 'Shoppers Drug Mart', 'brand:wikidata': 'Q1820137', 'brand:wikipedia': 'en:Shoppers Drug Mart', 'healthcare': 'pharmacy', 'name': 'Shoppers Drug Mart', 'operator': 'Loblaw Companies Limited', 'website': 'https://www.shoppersdrugmart.ca/en/store-locator/store/2228', 'website:en': 'https://www.shoppersdrugmart.ca/en/store-locator/store/2228', 'website:fr': 'https://www.shoppersdrugmart.ca/fr/store-locator/store/2228'}}"
"{'type': 'node', 'id': 4129652289, 'lat': 49.2340993, 'lon': -123.1167083, 'tags': {'addr:housenumber': '5566, Suite 320', 'addr:street': 'West 41st Avenue', 'amenity': 'dentist', 'healthcare': 'dentist', 'name': 'Modern Dental', 'opening_hours': 'Mo-Fr 09:00-18:00; Sa 09:00-17:00', 'phone': '+1-604-263-8413'}}"
"{'type': 'node', 'id': 4139774089, 'lat': 49.2612427, 'lon': -123.0684144, 'tags': {'amenity': 'pharmacy', 'healthcare': 'pharmacy', 'name': 'Shoppers Simply Pharmacy'}}"
"{'type': 'node', 'id': 4176887276, 'lat': 49.2808906, 'lon': -123.116948, 'tags': {'addr:city': 'Vancouver', 'addr:housenumber': '711', 'addr:postcode': 'V6B 3A6', 'addr:province': 'BC', 'addr:street': 'Richards Street', 'amenity': 'dentist', 'check_date:opening_hours': '2023-06-17', 'healthcare': 'dentist', 'name': 'Vancouver City Centre Dental', 'opening_hours:signed': 'no', 'phone': '+1-604-682-1601'}}"
"{'type': 'node', 'id': 4208246525, 'lat': 49.0906336, 'lon': -123.085693, 'tags': {'addr:housenumber': '4827', 'addr:street': 'Delta Street', 'amenity': 'dentist', 'healthcare': 'dentist', 'name': 'Ladner Village Dental', 'website': 'https://www.ladnervillagedental.com'}}"
"{'type': 'node', 'id': 4208246804, 'lat': 49.0890871, 'lon': -123.0842056, 'tags': {'addr:housenumber': '5028', 'addr:street': '47A Avenue', 'amenity': 'dentist', 'healthcare': 'dentist', 'name': 'Ladner Dental Clinic', 'opening_hours': 'Mo-Tu,Th 08:00-17:00; We 08:30-20:00; Fr 08:00-15:00', 'phone': '+1-604-946-2511', 'website': 'https://www.ladnerdental.com'}}"
"{'type': 'node', 'id': 4216853629, 'lat': 49.0245282, 'lon': -123.070566, 'tags': {'addr:city': 'Delta', 'addr:housenumber': '5550', 'addr:postcode': 'V4M4C2', 'addr:province': 'BC', 'addr:street': '12 Avenue', 'addr:town': 'Tsawwassen', 'alt_name': 'Tsawwassen Dental Clinic', 'amenity': 'dentist', 'contact:email': 'reception@robertsdental.ca', 'contact:facebook': 'https://www.facebook.com/tsawwassendentalclinic', 'contact:instagram': 'robertsdental', 'contact:twitter': '@DentalRoberts', 'contact:website': 'https://robertsdental.ca/contact/', 'contact:yelp': 'https://www.yelp.ca/biz/roberts-dental-and-facial-rejuvenation-tsawwassen-2', 'contact:youtube': 'https://www.youtube.com/channel/UCK-f_m8qBBwFSw1bzCPsqKg', 'email': 'reception@robertsdental.ca', 'healthcare': 'dentist', 'healthcare:speciality': 'general;cosmetic;dentist;dentistry;cosmetic_dentistry;General_&_Esthetic_Dentistry;Sleep_/_Snoring_Assessment;Childrens_Routine_Dentistry;Cosmetic_&_Therapeutic_Injectables;Microneedling;Tsawwassen_Dental_Clinic', 'image': 'https://robertsdental.ca/wp-content/uploads/2019/10/cropped-Roberts-Dental-01-3.png', 'level': '0', 'lgbtq': 'welcome', 'name': 'Roberts Dental & Facial Rejuvenation', 'opening_hours': 'Mo 09:00-17:00; Tu 09:00-17:00; We 09:00-17:00; Th 09:00-17:00; Fr 09:00-17:00; Sa 09:00-15:00', 'operator': 'Dr. Janet Roberts', 'payment:cash': 'yes', 'payment:credit_cards': 'yes', 'payment:debit_cards': 'yes', 'payment:mastercard': 'yes', 'payment:visa': 'yes', 'phone': '+1-604-943-3343', 'website': 'https://robertsdental.ca', 'wheelchair': 'yes'}}"
"{'type': 'node', 'id': 4232366391, 'lat': 49.2476826, 'lon': -123.1849924, 'tags': {'amenity': 'pharmacy', 'brand': 'Shoppers Drug Mart', 'brand:wikidata': 'Q1820137', 'brand:wikipedia': 'en:Shoppers Drug Mart', 'healthcare': 'pharmacy', 'name': 'Shoppers Drug Mart', 'opening_hours': 'Mo-Su 08:00-00:00', 'website': 'https://www.shoppersdrugmart.ca/en/store-locator/store/288', 'website:en': 'https://www.shoppersdrugmart.ca/en/store-locator/store/288', 'website:fr': 'https://www.shoppersdrugmart.ca/fr/store-locator/store/288', 'wheelchair': 'yes'}}"
"{'type': 'node', 'id': 4249863776, 'lat': 48.6515701, 'lon': -123.5590003, 'tags': {'healthcare': 'alternative', 'healthcare:speciality': 'chiropractic'}}"
"{'type': 'node', 'id': 4249863777, 'lat': 48.6514979, 'lon': -123.5581925, 'tags': {'healthcare': 'optometrist'}}"
"{'type': 'node', 'id': 4249863780, 'lat': 48.6516443, 'lon': -123.5589907, 'tags': {'healthcare': 'alternative', 'healthcare:speciality': 'cosmetology', 'name': 'Renu Laser & Skin Care'}}"
"{'type': 'node', 'id': 4251837508, 'lat': 48.5771777, 'lon': -123.4478899, 'tags': {'amenity': 'pharmacy', 'name': 'Pharmasave'}}"
"{'type': 'node', 'id': 4258009519, 'lat': 48.6475426, 'lon': -123.397506, 'tags': {'brand': 'LifeLabs', 'brand:wikidata': 'Q109319451', 'healthcare': 'laboratory', 'healthcare:speciality': 'blood_check', 'name': 'LifeLabs'}}"
"{'type': 'node', 'id': 4270712590, 'lat': 49.248822, 'lon': -123.1850364, 'tags': {'addr:housenumber': '4210', 'addr:street': 'Dunbar Street', 'amenity': 'dentist', 'healthcare': 'dentist', 'name': 'Dunbar Family Dental', 'website': 'https://www.dunbarfamilydental.com/'}}"
"{'type': 'node', 'id': 4285276478, 'lat': 49.3255581, 'lon': -123.1384411, 'tags': {'brand': 'Le Chteau', 'brand:wikipedia': 'en:Le Chteau', 'healthcare': 'optometrist', 'indoor': 'yes', 'layer': '0', 'level': '0', 'name': 'Park Royal Eyecare'}}"
"{'type': 'node', 'id': 4285278363, 'lat': 49.3261057, 'lon': -123.139919, 'tags': {'addr:housenumber': '802', 'addr:street': 'Main Street', 'amenity': 'pharmacy', 'brand': 'Shoppers Drug Mart', 'brand:wikidata': 'Q1820137', 'brand:wikipedia': 'en:Shoppers Drug Mart', 'dispensing': 'yes', 'healthcare': 'pharmacy', 'level': '1;2', 'name': 'Shoppers Drug Mart', 'opening_hours': 'Mo-Fr 09:00-21:00; Su 00:00-17:00; Sa 10:00-17:00', 'website': 'https://www.shoppersdrugmart.ca/en/store-locator/store/243', 'website:en': 'https://www.shoppersdrugmart.ca/en/store-locator/store/243', 'website:fr': 'https://www.shoppersdrugmart.ca/fr/store-locator/store/243'}}"
"{'type': 'node', 'id': 4308189297, 'lat': 48.6498214, 'lon': -123.4004366, 'tags': {'amenity': 'dentist', 'healthcare': 'dentist', 'name': 'Fine Dentistry'}}"
"{'type': 'node', 'id': 4308216454, 'lat': 48.6500938, 'lon': -123.3963921, 'tags': {'amenity': 'doctors', 'healthcare': 'doctor', 'healthcare:speciality': 'chiropractor', 'name': 'Mark A Galloway'}}"
"{'type': 'node', 'id': 4308216455, 'lat': 48.6498977, 'lon': -123.3963938, 'tags': {'healthcare': 'audiologist', 'name': 'McNeill Audiology'}}"
"{'type': 'node', 'id': 4308252347, 'lat': 48.6475563, 'lon': -123.3995453, 'tags': {'amenity': 'clinic', 'healthcare': 'clinic', 'name': 'Associated Physicians Walk-In Clinic'}}"
"{'type': 'node', 'id': 4308252352, 'lat': 48.6475563, 'lon': -123.399362, 'tags': {'addr:city': 'Sidney', 'addr:housenumber': '2425B', 'addr:postcode': 'V8L 4R7', 'addr:province': 'BC', 'addr:street': 'Bevan Avenue', 'amenity': 'pharmacy', 'dispensing': 'yes', 'drive_through': 'no', 'email': 'sidney@heartpharmacy.com', 'fax': '+1-250-656-0757', 'healthcare': 'pharmacy', 'name': 'Sidney Pharmacy', 'opening_hours': 'Mo-Fr 09:00-17:00', 'phone': '+1-250-656-0744', 'website': 'https://sidneypharmacy.ca/'}}"
"{'type': 'node', 'id': 4308257273, 'lat': 48.6480839, 'lon': -123.3998774, 'tags': {'amenity': 'dentist', 'healthcare': 'dentist', 'name': 'Denture Clinic'}}"
"{'type': 'node', 'id': 4308297308, 'lat': 48.6480837, 'lon': -123.4031679, 'tags': {'amenity': 'pharmacy', 'brand': 'Shoppers Drug Mart', 'brand:wikidata': 'Q1820137', 'healthcare': 'pharmacy', 'name': 'Shoppers Drug Mart', 'website': 'https://www.shoppersdrugmart.ca/en/store-locator/store/242', 'website:en': 'https://www.shoppersdrugmart.ca/en/store-locator/store/242', 'website:fr': 'https://www.shoppersdrugmart.ca/fr/store-locator/store/242'}}"
"{'type': 'node', 'id': 4308297703, 'lat': 48.6475522, 'lon': -123.4009068, 'tags': {'amenity': 'clinic', 'healthcare': 'clinic', 'name': 'Bevan Avenue Walk-In Medical Clinic'}}"
"{'type': 'node', 'id': 4336460110, 'lat': 48.4233201, 'lon': -123.3545838, 'tags': {'addr:housenumber': '1089', 'addr:street': 'Fort Street', 'amenity': 'pharmacy', 'description': 'Pharmacy, sterile laboratory, veterinary compounding', 'healthcare': 'pharmacy', 'name': 'Victoria Compounding Pharmacy', 'website': 'www.WeCompound.com'}}"
"{'type': 'node', 'id': 4337952872, 'lat': 48.4488194, 'lon': -123.398274, 'tags': {'addr:housenumber': '2947', 'addr:street': 'Tillicum Road', 'amenity': 'pharmacy', 'brand': 'Shoppers Drug Mart', 'brand:wikidata': 'Q1820137', 'check_date:opening_hours': '2024-05-28', 'dispensing': 'yes', 'healthcare': 'pharmacy', 'opening_hours': 'Mo-Fr 08:00-21:00; Sa 09:00-19:00; Su 10:00-18:00; Dec 24-25 08:00-21:00 unknown', 'operator': 'Shoppers Drug Mart', 'phone': '+1-250-383-7702', 'website': 'https://www.shoppersdrugmart.ca/en/store-locator/store/257', 'website:en': 'https://www.shoppersdrugmart.ca/en/store-locator/store/257', 'website:fr': 'https://www.shoppersdrugmart.ca/fr/store-locator/store/257', 'wheelchair': 'yes'}}"
"{'type': 'node', 'id': 4339349393, 'lat': 49.2348961, 'lon': -123.1699097, 'tags': {'addr:city': 'Vancouver', 'addr:housenumber': '2899', 'addr:street': 'West 41st Avenue', 'amenity': 'dentist', 'healthcare': 'dentist', 'name': '123 Kerrisdale Dental Centre', 'opening_hours': 'Mo-Tu 09:00-18:00; We 08:00-20:00; Th 10:00-20:00; Fr 08:00-16:00; Sa,Su,PH off', 'website': 'https://kerrisdaledentist.com/'}}"
"{'type': 'node', 'id': 4341939689, 'lat': 48.9256164, 'lon': -123.7273793, 'tags': {'amenity': 'pharmacy', 'name': 'Pharmasave'}}"
"{'type': 'node', 'id': 4343692351, 'lat': 48.4295053, 'lon': -123.411182, 'tags': {'amenity': 'dentist', 'healthcare': 'dentist', 'name': 'Anchor Dental'}}"
"{'type': 'node', 'id': 4343692591, 'lat': 48.4296068, 'lon': -123.411131, 'tags': {'amenity': 'clinic', 'healthcare': 'clinic', 'name': 'Esquimalt Optical'}}"
"{'type': 'node', 'id': 4343692592, 'lat': 48.4292238, 'lon': -123.4100003, 'tags': {'amenity': 'pharmacy', 'brand': 'Pharmasave', 'brand:wikidata': 'Q17093822', 'brand:wikipedia': 'en:Pharmasave', 'healthcare': 'pharmacy', 'name': 'Pharmasave'}}"
"{'type': 'node', 'id': 4356805009, 'lat': 48.447096, 'lon': -123.3709845, 'tags': {'amenity': 'dentist', 'healthcare': 'dentist', 'level': '0', 'name': 'Mayfair Dental Centre'}}"
"{'type': 'node', 'id': 4382790389, 'lat': 49.1266217, 'lon': -123.1830951, 'tags': {'addr:city': 'Richmond', 'addr:housenumber': '3811', 'addr:street': 'Chatham Street', 'addr:unit': '101', 'amenity': 'pharmacy', 'dispensing': 'yes', 'healthcare': 'pharmacy', 'name': 'Steveston Pharmacy'}}"
"{'type': 'node', 'id': 4384435078, 'lat': 49.1561505, 'lon': -123.95007, 'tags': {'amenity': 'pharmacy', 'brand': 'Shoppers Drug Mart', 'brand:wikidata': 'Q1820137', 'brand:wikipedia': 'en:Shoppers Drug Mart', 'healthcare': 'pharmacy', 'name': 'Shoppers Drug Mart', 'opening_hours': 'Mo-Su 08:00-22:00', 'operator': 'Loblaw Companies Limited', 'website': 'https://www.shoppersdrugmart.ca/en/store-locator/store/2218', 'website:en': 'https://www.shoppersdrugmart.ca/en/store-locator/store/2218', 'website:fr': 'https://www.shoppersdrugmart.ca/fr/store-locator/store/2218'}}"
"{'type': 'node', 'id': 4387500087, 'lat': 49.2399254, 'lon': -124.055881, 'tags': {'amenity': 'pharmacy', 'brand': 'Shoppers Drug Mart', 'brand:wikidata': 'Q1820137', 'healthcare': 'pharmacy', 'name': 'Shoppers Drug Mart', 'operator': 'Loblaw Companies Limited', 'website': 'https://www.shoppersdrugmart.ca/en/store-locator/store/281', 'website:en': 'https://www.shoppersdrugmart.ca/en/store-locator/store/281', 'website:fr': 'https://www.shoppersdrugmart.ca/fr/store-locator/store/281'}}"
"{'type': 'node', 'id': 4387506781, 'lat': 49.2190642, 'lon': -124.0284879, 'tags': {'addr:housenumber': '4750', 'addr:postcode': 'V2T 4K6', 'addr:street': 'Rutherford Road', 'amenity': 'pharmacy', 'brand': 'London Drugs', 'brand:wikidata': 'Q3258955', 'brand:wikipedia': 'en:London Drugs', 'healthcare': 'pharmacy', 'name': 'London Drugs', 'opening_hours': 'Mo-Fr 08:00-22:00; Su 10:00-20:00; Sa 09:00-22:00'}}"
"{'type': 'node', 'id': 4394390128, 'lat': 48.653936, 'lon': -123.62276, 'tags': {'addr:housenumber': '1769', 'addr:street': 'Shawnigan Lake-Mill Bay Road', 'amenity': 'pharmacy', 'healthcare': 'pharmacy', 'name': 'Island Pharmacy IDA', 'source': 'CVRD'}}"
"{'type': 'node', 'id': 4396878713, 'lat': 49.2315388, 'lon': -123.0653462, 'tags': {'addr:city': 'Vancouver', 'addr:housenumber': '5786', 'addr:postcode': 'V5P 3W7', 'addr:street': 'Victoria Drive', 'amenity': 'clinic', 'brand': 'LifeLabs', 'brand:wikidata': 'Q109319451', 'healthcare': 'laboratory', 'healthcare:speciality': 'blood_check', 'name': 'LifeLabs', 'opening_hours': 'Mo-Fr 06:00-16:30; Sa 07:00-15:00; Su 07:00-12:00'}}"
"{'type': 'node', 'id': 4402102247, 'lat': 48.4683687, 'lon': -123.3641174, 'tags': {'addr:unit': '101', 'amenity': 'clinic', 'healthcare': 'clinic', 'name': 'Island Sexual Health', 'phone': '+1-250-592-3479', 'website': 'http://IslandSexualHealth.com'}}"
"{'type': 'node', 'id': 4434847231, 'lat': 49.2763088, 'lon': -123.125815, 'tags': {'addr:city': 'Vancouver', 'addr:housenumber': '1225', 'addr:street': 'Seymour Street', 'amenity': 'clinic', 'healthcare': 'clinic', 'name': 'Coast Mental Health Resource Centre', 'opening_hours': 'Tu-Sa 09:00-10:00, 14:15-16:00'}}"
"{'type': 'node', 'id': 4435420472, 'lat': 49.2755875, 'lon': -123.118865, 'tags': {'addr:city': 'Vancouver', 'addr:housenumber': '1065', 'addr:postcode': 'V6B 5L7', 'addr:province': 'BC', 'addr:street': 'Cambie Street', 'check_date:opening_hours': '2023-02-02', 'healthcare': 'alternative', 'healthcare:speciality': 'chiropractic;massage_therapy;orthopaedics', 'name': 'Pacific Chiropractic and Massage Therapy', 'opening_hours': 'Mo 11:30-18:00; Tu 11:00-20:00; We 08:30-18:00; Th 11:00-20:00; Fr 08:30-18:00; Sa 09:00-14:00', 'opening_hours:signed': 'no', 'phone': '+1-604-687-2900', 'website': 'https://thebackdoc.ca', 'wheelchair': 'no'}}"
"{'type': 'node', 'id': 4444861489, 'lat': 49.1666633, 'lon': -123.133457, 'tags': {'addr:housenumber': '8211', 'addr:street': 'Cook Road', 'amenity': 'dentist', 'healthcare': 'dentist', 'name': 'Richmond Dental Centre'}}"
"{'type': 'node', 'id': 4444861663, 'lat': 49.1667899, 'lon': -123.133477, 'tags': {'addr:housenumber': '101-6480', 'addr:street': 'Buswell Street', 'amenity': 'dentist', 'healthcare': 'dentist', 'name': 'Buswell Dental Centre'}}"
"{'type': 'node', 'id': 4451474456, 'lat': 49.2389146, 'lon': -123.0512427, 'tags': {'addr:housenumber': '2651', 'addr:postcode': 'V5R 5H4', 'addr:street': 'Kingsway', 'amenity': 'pharmacy', 'dispensing': 'yes', 'drive_through': 'no', 'healthcare': 'pharmacy', 'name': 'Pacific Care Pharmacy', 'phone': '+1 604 438 6200'}}"
"{'type': 'node', 'id': 4454416390, 'lat': 49.1261406, 'lon': -123.1833408, 'tags': {'addr:street': 'Chatham Street', 'amenity': 'clinic', 'healthcare': 'physiotherapist', 'name': 'Empower Physiotherapy Clinic', 'name:en': 'Empower Physiotherapy Clinic'}}"
"{'type': 'node', 'id': 4461277198, 'lat': 49.2800324, 'lon': -123.0999895, 'tags': {'addr:housenumber': '515', 'addr:street': 'Main Street', 'amenity': 'pharmacy', 'healthcare': 'pharmacy', 'name': 'Corning Drugs', 'name:en': 'Corning Drugs'}}"
"{'type': 'node', 'id': 4461291589, 'lat': 49.2798664, 'lon': -123.099996, 'tags': {'addr:housenumber': '535', 'addr:street': 'Main Street', 'amenity': 'pharmacy', 'healthcare': 'pharmacy', 'name': 'Low Cost Western Pharmacy', 'name:en': 'Low Cost Western Pharmacy'}}"
"{'type': 'node', 'id': 4469119437, 'lat': 49.177712, 'lon': -123.1205729, 'tags': {'addr:city': 'Richmond', 'addr:country': 'CA', 'addr:housenumber': '9251', 'addr:postcode': 'V6X 0N1', 'addr:state': 'BC', 'addr:street': 'Alderbridge Way', 'amenity': 'pharmacy', 'brand': 'Walmart', 'brand:wikidata': 'Q483551', 'brand:wikipedia': 'en:Walmart', 'check_date': '2024-11-12', 'healthcare': 'pharmacy', 'name': 'Walmart Pharmacy', 'operator': 'Walmart', 'phone': '+1 604-288-4395', 'website': 'https://www.walmart.ca/en/stores-near-me/richmond-n-bc-3652', 'website:en': 'https://www.walmart.ca/en/stores-near-me/richmond-n-bc-3652', 'website:fr': 'https://www.walmart.ca/fr/magasins-pres-de-chez-moi/richmond-n-bc-3652'}}"
"{'type': 'node', 'id': 4484587102, 'lat': 49.1697163, 'lon': -123.1814868, 'tags': {'addr:city': 'Richmond', 'addr:housenumber': '6011', 'addr:province': 'BC', 'addr:street': 'Number 1 Road', 'addr:unit': '140', 'amenity': 'clinic', 'healthcare': 'clinic', 'name': 'Terra Nova Medical Clinic', 'phone': '+1-604-285-2263', 'website': 'https://www.terranovamedical.ca/'}}"
"{'type': 'node', 'id': 4484592493, 'lat': 49.1667117, 'lon': -123.134349, 'tags': {'addr:housenumber': '8171', 'addr:street': 'Cook Road', 'addr:unit': '100', 'amenity': 'clinic', 'healthcare': 'clinic', 'name': 'Cook Road Medical Clinic', 'phone': '+1-604-279-1942'}}"
"{'type': 'node', 'id': 4493494754, 'lat': 49.1550557, 'lon': -123.156468, 'tags': {'brand': 'LifeLabs', 'brand:wikidata': 'Q109319451', 'healthcare': 'laboratory', 'healthcare:speciality': 'blood_check', 'name': 'LifeLabs'}}"
"{'type': 'node', 'id': 4505059396, 'lat': 49.2636907, 'lon': -123.1549389, 'tags': {'addr:city': 'Vancouver', 'addr:province': 'BC', 'amenity': 'pharmacy', 'drive_through': 'no', 'healthcare': 'pharmacy', 'name': ""MacDonald's Prescriptions"", 'opening_hours': 'Mo-Fr 09:00-18:00; Sa 09:00-16:00; PH,Su off'}}"
"{'type': 'node', 'id': 4505059397, 'lat': 49.2636869, 'lon': -123.1547667, 'tags': {'addr:city': 'Vancouver', 'addr:province': 'BC', 'amenity': 'dentist', 'healthcare': 'dentist', 'name': 'Regent Dental Centre'}}"
"{'type': 'node', 'id': 4535984742, 'lat': 49.3795142, 'lon': -123.338642, 'tags': {'addr:city': 'Bowen Island', 'addr:housenumber': '495', 'addr:street': 'Bowen Island Trunk Road', 'amenity': 'pharmacy', 'healthcare': 'pharmacy', 'name': 'Cates Pharmacy', 'opening_hours': 'Mo-Sa 09:30-17:30'}}"
"{'type': 'node', 'id': 4558902039, 'lat': 49.2359729, 'lon': -123.0408185, 'tags': {'addr:city': 'Vancouver', 'addr:housenumber': '3039', 'addr:street': 'Kingsway', 'amenity': 'pharmacy', 'brand': 'The Medicine Shoppe', 'brand:wikidata': 'Q121815130', 'dispensing': 'yes', 'healthcare': 'pharmacy', 'name': 'The Medicine Shoppe', 'phone': '+1-604-437-5442', 'survey:date': '2021-11-06'}}"
"{'type': 'node', 'id': 4564504075, 'lat': 48.711043, 'lon': -123.6069418, 'tags': {'amenity': 'dentist', 'healthcare': 'dentist', 'level': '2', 'name': 'Cobble Hill Dental'}}"
"{'type': 'node', 'id': 4564504080, 'lat': 48.7110534, 'lon': -123.607565, 'tags': {'healthcare': 'physiotherapist', 'level': '2', 'name': 'South Cowichan Physiotherapy'}}"
"{'type': 'node', 'id': 4564504081, 'lat': 48.7109864, 'lon': -123.6077786, 'tags': {'amenity': 'pharmacy', 'name': 'Island Pharmacy', 'operator': 'IDA'}}"
"{'type': 'node', 'id': 4639384796, 'lat': 49.2102423, 'lon': -123.116153, 'tags': {'addr:city': 'Vancouver', 'addr:housenumber': '432', 'addr:postcode': 'V5X 0C4', 'addr:province': 'British Columbia', 'addr:street': 'Southwest Marine Drive', 'amenity': 'pharmacy', 'brand': 'Shoppers Drug Mart', 'brand:wikidata': 'Q1820137', 'brand:wikipedia': 'en:Shoppers Drug Mart', 'check_date:opening_hours': '2024-01-30', 'dispensing': 'yes', 'drive_through': 'no', 'email': 'asdm2227@shoppersdrugmart.ca', 'fax': '+1-604-235-7099', 'healthcare': 'pharmacy', 'level': '1', 'name': 'Shoppers Drug Mart', 'opening_hours': 'Mo-Su 08:00-24:00', 'payment:cash': 'yes', 'payment:coins': 'yes', 'payment:contactless': 'yes', 'payment:credit_cards': 'yes', 'payment:debit_cards': 'yes', 'phone': '+1-604-235-7095', 'website': 'https://www.shoppersdrugmart.ca/en/store-locator/store/2227', 'website:en': 'https://www.shoppersdrugmart.ca/en/store-locator/store/2227', 'website:fr': 'https://www.shoppersdrugmart.ca/fr/store-locator/store/2227'}}"
"{'type': 'node', 'id': 4639384801, 'lat': 49.2096678, 'lon': -123.1165809, 'tags': {'addr:city': 'Vancouver', 'addr:housenumber': '482', 'addr:postcode': 'V5X 0C4', 'addr:province': 'British Columbia', 'addr:street': 'Southwest Marine Drive', 'amenity': 'dentist', 'healthcare': 'dentist', 'name': 'Marine Cambie Dental', 'phone': '+1-604-428-8078'}}"
"{'type': 'node', 'id': 4680520557, 'lat': 48.4234306, 'lon': -123.361139, 'tags': {'addr:unit': '101', 'healthcare': 'optometrist', 'name': 'Victoria Vision Eye Care', 'opening_hours': 'Mo 08:00-17:00; Tu 08:30-17:00; We,Th 08:30-18:00; Fr 09:00-17:00', 'phone': '+1-250-383-2821', 'shop': 'optician', 'website': 'https://www.victoriavisioneyecare.ca/'}}"
"{'type': 'node', 'id': 4681148891, 'lat': 48.4264605, 'lon': -123.369277, 'tags': {'amenity': 'clinic', 'healthcare': 'clinic', 'internet_access': 'wlan', 'name': 'Victoria Youth Clinic', 'name:en': 'Victoria Youth Clinic'}}"
"{'type': 'node', 'id': 4728753599, 'lat': 49.2540898, 'lon': -123.083535, 'tags': {'addr:city': 'Vancouver', 'addr:housenumber': '1001', 'addr:street': 'Kingsway', 'check_date': '2023-06-13', 'disused:amenity': 'dentist', 'healthcare': 'dentist', 'name': 'Windsor Dental Clinic'}}"
"{'type': 'node', 'id': 4728754110, 'lat': 49.2393408, 'lon': -123.0521505, 'tags': {'addr:housenumber': '2611', 'addr:postcode': 'V5R 5H4', 'addr:street': 'Kingsway', 'amenity': 'dentist', 'healthcare': 'dentist', 'name': 'Dr. Moses LO, inc', 'phone': '+1 604 430 3161'}}"
"{'type': 'node', 'id': 4750151928, 'lat': 49.2331235, 'lon': -123.0167841, 'tags': {'addr:housenumber': '3965', 'addr:street': 'Kingsway', 'addr:unit': '200', 'amenity': 'dentist', 'healthcare': 'dentist', 'name': 'Central Park Dental Clinic', 'phone': '+1-604-438-5261', 'website': 'https://www.centralparkdental.com/'}}"
"{'type': 'node', 'id': 4794315121, 'lat': 49.2891552, 'lon': -123.138644, 'tags': {'addr:city': 'Vancouver', 'addr:housenumber': '1020', 'addr:province': 'BC', 'addr:street': 'Denman Street', 'amenity': 'pharmacy', 'brand': 'Shoppers Drug Mart', 'brand:wikidata': 'Q1820137', 'brand:wikipedia': 'en:Shoppers Drug Mart', 'drive_through': 'no', 'healthcare': 'pharmacy', 'name': 'Shoppers Drug Mart', 'name:en': 'Shoppers Drug Mart', 'opening_hours': 'Mo-Sa 08:00-24:00; Su 09:00-24:00', 'website': 'https://www.shoppersdrugmart.ca/en/store-locator/store/201', 'website:en': 'https://www.shoppersdrugmart.ca/en/store-locator/store/201', 'website:fr': 'https://www.shoppersdrugmart.ca/fr/store-locator/store/201', 'wheelchair': 'yes'}}"
"{'type': 'node', 'id': 4804990501, 'lat': 49.1921383, 'lon': -123.9677974, 'tags': {'addr:unit': '230', 'amenity': 'dentist', 'healthcare': 'dentist', 'name': 'Brooks Landing Dental Clinic'}}"
"{'type': 'node', 'id': 4804990623, 'lat': 49.1918379, 'lon': -123.967237, 'tags': {'addr:unit': '270', 'healthcare': 'yes', 'name': 'Lulu Chinese Health Centre'}}"
"{'type': 'node', 'id': 4826443829, 'lat': 48.4933166, 'lon': -123.388381, 'tags': {'addr:housenumber': '4480', 'addr:street': 'West Saanich Road', 'addr:unit': '102', 'brand': 'LifeLabs', 'brand:wikidata': 'Q109319451', 'healthcare': 'laboratory', 'healthcare:speciality': 'blood_check', 'name': 'LifeLabs'}}"
"{'type': 'node', 'id': 4842907226, 'lat': 49.2763417, 'lon': -123.119189, 'tags': {'addr:city': 'Vancouver', 'addr:housenumber': '1010', 'addr:province': 'BC', 'addr:street': 'Mainland Street', 'amenity': 'dentist', 'healthcare': 'dentist', 'name': 'Yaletown Laser Centre', 'opening_hours': 'Mo-Fr 08:00-17:00'}}"
"{'type': 'node', 'id': 4842907231, 'lat': 49.2761127, 'lon': -123.1195363, 'tags': {'addr:city': 'Vancouver', 'addr:housenumber': '1026', 'addr:province': 'BC', 'addr:street': 'Mainland Street', 'amenity': 'dentist', 'healthcare': 'dentist', 'name': 'Enamel'}}"
"{'type': 'node', 'id': 4871251465, 'lat': 49.154137, 'lon': -123.123293, 'tags': {'amenity': 'pharmacy', 'brand': 'Shoppers Drug Mart', 'brand:wikidata': 'Q1820137', 'brand:wikipedia': 'en:Shoppers Drug Mart', 'healthcare': 'pharmacy', 'name': 'Shoppers Drug Mart', 'website': 'https://www.shoppersdrugmart.ca/en/store-locator/store/228', 'website:en': 'https://www.shoppersdrugmart.ca/en/store-locator/store/228', 'website:fr': 'https://www.shoppersdrugmart.ca/fr/store-locator/store/228'}}"
"{'type': 'node', 'id': 4900671639, 'lat': 49.1321624, 'lon': -123.0991947, 'tags': {'amenity': 'dentist', 'healthcare': 'dentist', 'name': 'Coppersmith Dental'}}"
"{'type': 'node', 'id': 4914905365, 'lat': 49.1319739, 'lon': -123.0931553, 'tags': {'amenity': 'dentist', 'healthcare': 'dentist', 'name': 'Ironwood Dental Centre'}}"
"{'type': 'node', 'id': 4937598279, 'lat': 49.2352414, 'lon': -123.065287, 'tags': {'addr:city': 'Vancouver', 'addr:housenumber': '5470', 'addr:street': 'Victoria Drive', 'amenity': 'dentist', 'healthcare': 'dentist', 'name': 'Brush Dental Clinic'}}"
"{'type': 'node', 'id': 4937624926, 'lat': 49.242781, 'lon': -123.0596349, 'tags': {'addr:housenumber': '2249', 'addr:postcode': 'V5N 2T6', 'addr:street': 'Kingsway', 'amenity': 'dentist', 'email': 'info@dentistonkingsway.com', 'healthcare': 'dentist', 'name': 'Dentist on Kingsway', 'opening_hours': 'We 08:00-16:00; Th 12:00-20:00; Fr-Sa 09:00-16:00', 'phone': '+1 604 558 2442', 'website': 'https://dentistonkingsway.com'}}"
"{'type': 'node', 'id': 4956134022, 'lat': 49.227145, 'lon': -123.065865, 'tags': {'addr:city': 'Vancouver', 'addr:housenumber': '6255', 'addr:street': 'Victoria Drive', 'amenity': 'pharmacy', 'healthcare': 'pharmacy', 'name': ""MJ's Natural Pharmacy""}}"
"{'type': 'node', 'id': 4956134023, 'lat': 49.2274766, 'lon': -123.065864, 'tags': {'addr:city': 'Vancouver', 'addr:housenumber': '6201', 'addr:street': 'Victoria Drive', 'amenity': 'dentist', 'healthcare': 'dentist', 'name': 'Victoria Drive Dental Clinic'}}"
"{'type': 'node', 'id': 4957714313, 'lat': 49.2248519, 'lon': -123.090587, 'tags': {'addr:city': 'Vancouver', 'addr:housenumber': '6580', 'addr:street': 'Fraser Street', 'amenity': 'pharmacy', 'brand': 'Rexall', 'brand:wikidata': 'Q39045377', 'brand:wikipedia': 'en:Rexall (Canada)', 'check_date': '2024-08-27', 'healthcare': 'pharmacy', 'name': 'Rexall'}}"
"{'type': 'node', 'id': 4957825540, 'lat': 49.2430107, 'lon': -123.1011575, 'tags': {'addr:city': 'Vancouver', 'addr:housenumber': '4628', 'addr:street': 'Main Street', 'amenity': 'pharmacy', 'brand': 'Pharmasave', 'brand:wikidata': 'Q17093822', 'brand:wikipedia': 'en:Pharmasave', 'healthcare': 'pharmacy', 'name': 'Pharmasave', 'opening_hours': 'Mo-Fr 09:00-19:00; Sa 10:00-17:00'}}"
"{'type': 'node', 'id': 4971491094, 'lat': 49.2371034, 'lon': -123.032718, 'tags': {'addr:city': 'Vancouver', 'addr:housenumber': '5258', 'addr:street': 'Joyce Street', 'amenity': 'dentist', 'healthcare': 'dentist', 'name': 'Joyce Station Dental Clinic', 'phone': '+1-604-437-7073', 'survey:date': '2022-01-21', 'website': 'https://www.joycestationdental.ca/'}}"
"{'type': 'node', 'id': 4971491097, 'lat': 49.2374044, 'lon': -123.0320476, 'tags': {'addr:city': 'Vancouver', 'addr:housenumber': '3425', 'addr:street': 'Crowley Drive', 'amenity': 'clinic', 'healthcare': 'clinic', 'name': 'Evergreen Community Health Centre', 'phone': '+1-604-872-2511', 'website': 'https://www.vch.ca/Locations-Services/result?res_id=1361'}}"
"{'type': 'node', 'id': 4976315088, 'lat': 49.25458, 'lon': -123.023314, 'tags': {'addr:city': 'Burnaby', 'addr:housenumber': '3300', 'addr:street': 'Boundary Road', 'addr:unit': '100A', 'amenity': 'pharmacy', 'dispensing': 'yes', 'healthcare': 'pharmacy', 'name': 'Burnaby Guardian Pharmacy', 'opening_hours': 'Mo-Fr 09:00-18:00; Sa 10:00-16:00', 'phone': '+1-604-453-0136', 'survey:date': '2022-04-29', 'website': 'https://www.guardian-ida-remedysrx.ca/en/british-columbia/burnaby/burnaby-pharmacy-7045100'}}"
"{'type': 'node', 'id': 4981064352, 'lat': 49.1667757, 'lon': -123.133918, 'tags': {'addr:city': 'Richmond', 'addr:housenumber': '170-6451', 'addr:street': 'Buswell Street', 'amenity': 'clinic', 'brand': 'LifeLabs', 'brand:wikidata': 'Q109319451', 'healthcare': 'laboratory', 'healthcare:speciality': 'blood_check', 'name': 'LifeLabs'}}"
"{'type': 'node', 'id': 4987439024, 'lat': 48.4234448, 'lon': -123.365988, 'tags': {'amenity': 'pharmacy', 'brand': 'Rexall', 'brand:wikidata': 'Q39045377', 'brand:wikipedia': 'en:Rexall (Canada)', 'healthcare': 'pharmacy', 'name': 'Rexall'}}"
"{'type': 'node', 'id': 4988523390, 'lat': 48.4300512, 'lon': -123.367622, 'tags': {'addr:housenumber': '555', 'addr:street': 'Herald Street', 'amenity': 'doctors', 'healthcare': 'doctor', 'name': 'Victoria Chinatown Care Centre'}}"
"{'type': 'node', 'id': 4993885807, 'lat': 49.247505, 'lon': -123.0904211, 'tags': {'addr:city': 'Vancouver', 'addr:housenumber': '4207', 'addr:province': 'BC', 'addr:street': 'Fraser Street', 'amenity': 'pharmacy', 'healthcare': 'pharmacy', 'name': 'Fraser PharmaChoice Pharmacy'}}"
"{'type': 'node', 'id': 4993891284, 'lat': 49.2409756, 'lon': -123.0901209, 'tags': {'addr:city': 'Vancouver', 'addr:housenumber': '4850', 'addr:street': 'Fraser Street', 'amenity': 'dentist', 'healthcare': 'dentist', 'name': 'Family First Dental'}}"
"{'type': 'node', 'id': 5004169221, 'lat': 49.2764587, 'lon': -123.120588, 'tags': {'addr:city': 'Vancouver', 'addr:housenumber': '1061', 'addr:province': 'BC', 'addr:street': 'Hamilton Street', 'amenity': 'clinic', 'healthcare': 'clinic', 'name': 'Mainland Clinic', 'name:en': 'Mainland Clinic'}}"
"{'type': 'node', 'id': 5004189423, 'lat': 49.2763346, 'lon': -123.1202702, 'tags': {'addr:housenumber': '1050', 'addr:street': 'Hamilton Street', 'amenity': 'dentist', 'check_date:opening_hours': '2023-12-20', 'healthcare': 'dentist', 'name': 'Yaletown Dentistry', 'name:en': 'Yaletown Dentistry', 'opening_hours:signed': 'no', 'phone': '+1-604-801-6669'}}"
"{'type': 'node', 'id': 5021105528, 'lat': 49.2265082, 'lon': -123.101369, 'tags': {'addr:city': 'Vancouver', 'addr:housenumber': '6410', 'addr:street': 'Main Street', 'amenity': 'pharmacy', 'healthcare': 'pharmacy', 'name': ""Naz's Pharmacy""}}"
"{'type': 'node', 'id': 5028020396, 'lat': 49.2427927, 'lon': -123.060502, 'tags': {'addr:city': 'Vancouver', 'addr:housenumber': '2224', 'addr:postcode': 'V5N 2T7', 'addr:province': 'BC', 'addr:street': 'Kingsway', 'amenity': 'dentist', 'healthcare': 'dentist', 'name': 'Dr. Aaron K. Lee, Inc.', 'opening_hours': '09:00-12:30, 13:30-17:00; Su, Mo off', 'phone': '+1 604 438 1927'}}"
"{'type': 'node', 'id': 5031559280, 'lat': 49.225311, 'lon': -123.0543435, 'tags': {'addr:city': 'Vancouver', 'addr:housenumber': '2607', 'addr:province': 'BC', 'addr:street': 'East 49th Avenue', 'addr:unit': '102', 'amenity': 'pharmacy', 'brand': 'Shoppers Drug Mart', 'brand:wikidata': 'Q1820137', 'brand:wikipedia': 'en:Shoppers Drug Mart', 'dispensing': 'yes', 'drive_through': 'no', 'healthcare': 'pharmacy', 'name': 'Shoppers Drug Mart', 'website': 'https://www.shoppersdrugmart.ca/en/store-locator/store/2274', 'website:en': 'https://www.shoppersdrugmart.ca/en/store-locator/store/2274', 'website:fr': 'https://www.shoppersdrugmart.ca/fr/store-locator/store/2274'}}"
"{'type': 'node', 'id': 5044010600, 'lat': 49.1663419, 'lon': -123.135067, 'tags': {'addr:city': 'Richmond', 'addr:housenumber': '8120', 'addr:street': 'Cook Road', 'amenity': 'pharmacy', 'healthcare': 'pharmacy', 'name': 'McCue Pharmacy'}}"
"{'type': 'node', 'id': 5049998930, 'lat': 49.2276827, 'lon': -123.1168099, 'tags': {'addr:city': 'Vancouver', 'addr:housenumber': '6317', 'addr:street': 'Cambie Street', 'healthcare': 'physiotherapist', 'leisure': 'fitness_centre', 'name': 'Oakridge Physiotherapy Centre'}}"
"{'type': 'node', 'id': 5054819257, 'lat': 49.2500071, 'lon': -123.0187378, 'tags': {'amenity': 'doctors', 'healthcare': 'doctor', 'name': 'Dr Luongo', 'name:en': 'Dr Luongo'}}"
"{'type': 'node', 'id': 5062559588, 'lat': 49.2074564, 'lon': -123.1408518, 'tags': {'addr:city': 'Vancouver', 'addr:housenumber': '8675', 'addr:province': 'BC', 'addr:street': 'Granville Street', 'brand': 'LifeLabs', 'brand:wikidata': 'Q109319451', 'healthcare': 'laboratory', 'healthcare:speciality': 'blood_check', 'name': 'LifeLabs'}}"
"{'type': 'node', 'id': 5063531419, 'lat': 49.2682847, 'lon': -123.1867206, 'tags': {'addr:city': 'Vancouver', 'addr:housenumber': '2083', 'addr:street': 'Alma Street', 'amenity': 'pharmacy', 'healthcare': 'pharmacy', 'name': 'Jericho Pharmacy & Health Food Store'}}"
"{'type': 'node', 'id': 5063531622, 'lat': 49.2686885, 'lon': -123.182622, 'tags': {'addr:city': 'Vancouver', 'addr:housenumber': '3533', 'addr:street': 'West 4th Avenue', 'amenity': 'pharmacy', 'healthcare': 'pharmacy', 'name': 'Pure Integrative Pharmacy'}}"
"{'type': 'node', 'id': 5125502427, 'lat': 49.2656312, 'lon': -123.115058, 'tags': {'amenity': 'dentist', 'healthcare': 'dentist', 'name': 'Playtime pediatric dentistry'}}"
"{'type': 'node', 'id': 5127253528, 'lat': 49.226383, 'lon': -123.0909753, 'tags': {'amenity': 'dentist', 'healthcare': 'dentist', 'name': 'Fraserview Dentist'}}"
"{'type': 'node', 'id': 5127543622, 'lat': 49.2484896, 'lon': -123.1252218, 'tags': {'addr:housenumber': '936', 'addr:street': 'West King Edward Avenue', 'healthcare': 'alternative', 'healthcare:speciality': 'chiropractic', 'name': 'Shaughnessy Chiropractic'}}"
"{'type': 'node', 'id': 5127543625, 'lat': 49.2485293, 'lon': -123.1258709, 'tags': {'addr:housenumber': '972', 'addr:street': 'West King Edward Avenue', 'amenity': 'clinic', 'brand': 'LifeLabs', 'brand:wikidata': 'Q109319451', 'healthcare': 'laboratory', 'healthcare:speciality': 'blood_check', 'name': 'LifeLabs', 'opening_hours': 'Mo-Fr 07:30-15:30'}}"
"{'type': 'node', 'id': 5206919485, 'lat': 49.2327632, 'lon': -123.117116, 'tags': {'addr:city': 'Vancouver', 'addr:housenumber': '650', 'addr:postcode': 'V5Z 2M9', 'addr:street': 'West 41st Avenue', 'addr:unit': '218', 'amenity': 'dentist', 'contact:facebook': 'https://www.facebook.com/pg/DrWilson-J-Kwong-Inc-183542696325/about/', 'contact:linkedin': 'https://www.linkedin.com/in/wilson-kwong-0321a243', 'contact:twitter': 'https://twitter.com/drwilsonkwong', 'email': 'oakridge@inspiredental.ca', 'healthcare': 'dentist', 'healthcare:speciality': 'dentist', 'name': 'Inspire Dental Group - Oakridge', 'opening_hours': 'Mo-Fr 08:00-16:00', 'operator': 'Dr. Wilson Kwong Inc.', 'payment:cash': 'yes', 'payment:cheque': 'yes', 'payment:debit_cards': 'yes', 'payment:mastercard': 'yes', 'payment:visa': 'yes', 'phone': '+1-604-261-9111', 'website': 'https://www.inspiredental.ca/dentist-oakridge/'}}"
"{'type': 'node', 'id': 5209483127, 'lat': 49.3180415, 'lon': -123.07211, 'tags': {'addr:city': 'North Vancouver City', 'addr:housenumber': '1100', 'addr:postcode': 'V7M 2H3', 'addr:street': 'Lonsdale Avenue', 'addr:unit': '120', 'amenity': 'pharmacy', 'healthcare': 'pharmacy', 'name': 'Northview Compounding Pharmacy'}}"
"{'type': 'node', 'id': 5220322908, 'lat': 49.2796171, 'lon': -123.118852, 'tags': {'addr:city': 'Vancouver', 'addr:housenumber': '853', 'addr:postcode': 'V6B 3B4', 'addr:province': 'BC', 'addr:street': 'Richards Street', 'addr:unit': '103', 'contact:facebook': 'skinmethod', 'contact:instagram': 'skin.method', 'contact:twitter': 'skinmethodvan', 'email': 'info@skinmethod.ca', 'established': '2016', 'healthcare': 'Cosmetic_Clinic', 'healthcare:speciality': 'cosmetic_physicians;medical_clinicians;gynaecology', 'name': 'Skin Method', 'opening_hours': 'Tu-Th 11:00-19:00; Fr 11:00-18:00; Sa 11:00-16:00', 'operator': 'Skin Method', 'payment:american_express': 'yes', 'payment:cash': 'yes', 'payment:debit_cards': 'yes', 'payment:mastercard': 'yes', 'payment:visa': 'yes', 'phone': '+1-778-379-7546', 'website': 'https://www.skinmethod.ca/'}}"
"{'type': 'node', 'id': 5221871355, 'lat': 49.3130055, 'lon': -123.077785, 'tags': {'addr:city': 'North Vancouver', 'addr:housenumber': '215', 'addr:province': 'BC', 'addr:street': 'Lonsdale Avenue', 'amenity': 'dentist', 'healthcare': 'dentist', 'name': 'Radiance Dental Centre'}}"
"{'type': 'node', 'id': 5304513663, 'lat': 49.2782739, 'lon': -123.1154182, 'tags': {'addr:city': 'Vancouver', 'addr:housenumber': '238', 'addr:province': 'BC', 'addr:street': 'Robson Street', 'amenity': 'pharmacy', 'healthcare': 'pharmacy', 'name': 'Pure Integrative Pharmacy', 'opening_hours': 'Mo-Fr 09:00-19:00; Sa 10:00-17:00; Su 10:00-16:00; PH off', 'wheelchair': 'yes'}}"
"{'type': 'node', 'id': 5310060972, 'lat': 49.3131903, 'lon': -123.0769684, 'tags': {'addr:housenumber': '250', 'amenity': 'dentist', 'healthcare': 'dentist', 'name': 'Peak Dental Arts', 'opening_hours': 'Mo,Tu,Th 10:00-19:00; We 07:00-19:00; Fr-Su 09:00-19:00', 'phone': '+1-604-770-2222', 'website': 'https://peakdentalarts.com/'}}"
"{'type': 'node', 'id': 5311278978, 'lat': 49.2630059, 'lon': -123.1211953, 'tags': {'addr:city': 'Vancouver', 'addr:housenumber': '750', 'addr:postcode': 'V5Z 1H2', 'addr:street': 'West Broadway', 'addr:unit': '309', 'amenity': 'clinic', 'healthcare': 'clinic', 'name': 'Vancouver Laser & Skin Care Centre', 'phone': '+1-604-708-9891', 'website': 'https://www.vancouverlaser.com/'}}"
"{'type': 'node', 'id': 5384154810, 'lat': 49.2496643, 'lon': -123.0758136, 'tags': {'addr:city': 'Vancouver', 'addr:housenumber': '4018', 'addr:postcode': 'V5N 5Y7', 'addr:street': 'Knight Street', 'amenity': 'doctors', 'healthcare': 'doctor', 'healthcare:speciality': 'general', 'name': 'LOTUS Medical'}}"
