OSM_Data
"{'type': 'node', 'id': 530638958, 'lat': -18.59204, 'lon': -39.7314733, 'tags': {'amenity': 'pharmacy', 'healthcare': 'pharmacy', 'name': 'Drogabarra'}}"
"{'type': 'node', 'id': 2482497525, 'lat': -18.4810188, 'lon': -39.9267355, 'tags': {'amenity': 'clinic', 'emergency': 'no', 'healthcare': 'clinic', 'name': 'Posto de Saúde'}}"
"{'type': 'node', 'id': 2880899650, 'lat': -18.5822355, 'lon': -39.7386345, 'tags': {'amenity': 'clinic', 'healthcare': 'clinic'}}"
"{'type': 'node', 'id': 2880899657, 'lat': -18.5930367, 'lon': -39.7322011, 'tags': {'amenity': 'clinic', 'healthcare': 'clinic'}}"
"{'type': 'node', 'id': 2882807544, 'lat': -18.4353936, 'lon': -39.931236, 'tags': {'amenity': 'clinic', 'healthcare': 'clinic'}}"
"{'type': 'node', 'id': 2888097266, 'lat': -18.9893505, 'lon': -39.9992369, 'tags': {'addr:city': 'Jaguaré', 'addr:suburb': 'Barra Seca', 'amenity': 'clinic', 'healthcare': 'clinic'}}"
"{'type': 'node', 'id': 3058562492, 'lat': -18.4156771, 'lon': -41.0340548, 'tags': {'amenity': 'clinic', 'healthcare': 'clinic'}}"
"{'type': 'node', 'id': 3196331189, 'lat': -18.319016, 'lon': -40.4037602, 'tags': {'amenity': 'clinic', 'healthcare': 'clinic'}}"
"{'type': 'node', 'id': 3327287421, 'lat': -19.0689378, 'lon': -40.9674453, 'tags': {'amenity': 'clinic', 'healthcare': 'clinic', 'name': 'Unidade Sanitária Doutor Alois Gobbo', 'operator': 'PMARN', 'source': 'IJSN'}}"
"{'type': 'node', 'id': 3327287422, 'lat': -19.0603925, 'lon': -41.0155889, 'tags': {'amenity': 'clinic', 'healthcare': 'clinic', 'name': 'Unidade Sanitária Santa Bárbara', 'operator': 'PMARN', 'source': 'IJSN'}}"
"{'type': 'node', 'id': 3327287423, 'lat': -19.0588989, 'lon': -41.0236335, 'tags': {'amenity': 'clinic', 'healthcare': 'clinic', 'name': 'Unidade de Saúde da Família Padre Pedro', 'operator': 'PMARN', 'source': 'IJSN'}}"
"{'type': 'node', 'id': 3327287424, 'lat': -18.9578595, 'lon': -40.971668, 'tags': {'amenity': 'clinic', 'healthcare': 'clinic', 'name': 'Unidade de Saúde da Família Vila Palmerino', 'operator': 'PMARN', 'source': 'IJSN'}}"
"{'type': 'node', 'id': 3327287425, 'lat': -19.0556986, 'lon': -41.0161469, 'tags': {'amenity': 'clinic', 'healthcare': 'clinic', 'name': 'Unidade do Programa Saúde da Família', 'operator': 'PMARN', 'source': 'IJSN'}}"
"{'type': 'node', 'id': 3491299251, 'lat': -18.1956886, 'lon': -40.2646062, 'tags': {'IJSN:tipoUnidad': 'Hospital Geral', 'addr:city': 'Montanha', 'addr:place': 'Comunidade Vinhático', 'addr:postcode': '29890-000', 'addr:street': 'Rua Presidente Kennedy', 'amenity': 'clinic', 'contact:phone': '(27) 3754-5158', 'healthcare': 'clinic', 'name': 'Casa Nossa Senhora da Saúde'}}"
"{'type': 'node', 'id': 3491299258, 'lat': -18.3757078, 'lon': -40.8288365, 'tags': {'IJSN:tipoUnidad': 'Hospital Geral', 'addr:housenumber': '279', 'addr:postcode': '29850-000', 'addr:street': 'Rua Floriano Rubim', 'amenity': 'hospital', 'contact:phone': '(27) 3755-1025', 'healthcare': 'hospital', 'name': 'Clínica Santa Paula'}}"
"{'type': 'node', 'id': 3491299262, 'lat': -19.0204664, 'lon': -40.5333735, 'tags': {'IJSN:tipoUnidad': 'Hospital Geral', 'addr:city': 'São Gabriel da Palha', 'addr:housenumber': '90', 'addr:place': 'Glória', 'addr:postcode': '29780-000', 'addr:street': 'Rua 14 de Maio', 'amenity': 'hospital', 'contact:phone': '(27) 3727-1387', 'healthcare': 'hospital', 'name': 'Hospital Doutor Fernando Serra'}}"
"{'type': 'node', 'id': 3491299263, 'lat': -18.7552225, 'lon': -40.8936085, 'tags': {'IJSN:tipoUnidad': 'Hospital Geral', 'addr:city': 'Barra de São Francisco', 'addr:country': 'BR', 'addr:housenumber': '825', 'addr:place': 'Centro', 'addr:postcode': '29800-000', 'addr:state': 'ES', 'addr:street': 'Avenida Prefeito Manoel Gonçalves', 'addr:suburb': 'Centro', 'amenity': 'hospital', 'contact:phone': '(27) 3756-1211', 'healthcare': 'hospital', 'healthcare:speciality': 'general;gynaecology;paediatrics;orthopaedics', 'name': 'Hospital Doutora Rita de Cássia - HDRC', 'operator': 'Secretaria de Estado da Saúde', 'operator:type': 'public'}}"
"{'type': 'node', 'id': 3491299264, 'lat': -18.3688722, 'lon': -40.8305962, 'tags': {'IJSN:tipoUnidad': 'Hospital Geral', 'addr:city': 'Ecoporanga', 'addr:housenumber': '195', 'addr:place': 'Nossa Senhora de Aparecida', 'addr:postcode': '29850-000', 'addr:street': 'Rua Idalino Monteiro', 'addr:suburb': 'Nossa Senhora Aparecida', 'alt_name': 'Fundação Médico Assistencial do Trabalhador Rural', 'amenity': 'hospital', 'contact:phone': '(27) 3755-1131', 'healthcare': 'hospital', 'name': 'Hospital FUMATRE', 'operator': 'Fundação Médico Assistêncial do Trabalhadores Rurais de Ecoporanga - Fumatre', 'operator:type': 'private', 'short_name': 'FUMATRE'}}"
"{'type': 'node', 'id': 3491299273, 'lat': -19.0131413, 'lon': -40.5434247, 'tags': {'IJSN:tipoUnidad': 'Hospital Geral', 'addr:city': 'São Gabriel da Palha', 'addr:housenumber': '25', 'addr:place': 'Santa Rita', 'addr:postcode': '29780-000', 'addr:street': 'Praça Maria da Penha do Nascimento', 'amenity': 'hospital', 'contact:phone': '(27) 3727-1200', 'healthcare': 'hospital', 'name': 'Hospital Santa Rita'}}"
"{'type': 'node', 'id': 3491299278, 'lat': -19.2728742, 'lon': -40.3229178, 'tags': {'IJSN:tipoUnidad': 'Hospital Geral', 'addr:city': 'Rio Bananal', 'addr:housenumber': '500', 'addr:place': 'São Sebastião', 'addr:postcode': '29920-000', 'addr:street': 'Rua João Cipriano', 'amenity': 'hospital', 'contact:phone': '(27) 3265-1101', 'healthcare': 'hospital', 'name': 'Hospital e Maternidade Alfredo Pinto Santana'}}"
"{'type': 'node', 'id': 3491299290, 'lat': -18.9076222, 'lon': -40.0711188, 'tags': {'IJSN:tipoUnidad': 'Unidade Mista', 'addr:city': 'Jaguaré', 'addr:housenumber': '313', 'addr:place': 'Centro', 'addr:postcode': '29950-000', 'addr:street': 'Rua Paschoal Briochi', 'amenity': 'clinic', 'healthcare': 'clinic', 'name': 'Unidade Mista de Internação', 'short_name': 'UMI'}}"
"{'type': 'node', 'id': 4264336148, 'lat': -18.9833174, 'lon': -40.7381836, 'tags': {'amenity': 'pharmacy', 'name': 'Farmácia Maciel'}}"
"{'type': 'node', 'id': 4456452404, 'lat': -19.1621223, 'lon': -40.7724574, 'tags': {'addr:street': 'Rua Alagoas', 'amenity': 'clinic', 'healthcare': 'clinic', 'name': 'Posto de Saúde de Laginha'}}"
"{'type': 'node', 'id': 5124281702, 'lat': -18.3775911, 'lon': -40.8290403, 'tags': {'amenity': 'pharmacy', 'name': 'Drogaria Cunha'}}"
"{'type': 'node', 'id': 5218160021, 'lat': -18.714458, 'lon': -39.8522045, 'tags': {'addr:postcode': '29930010', 'addr:street': 'Rua Coronel Cunha Júnior', 'amenity': 'clinic', 'healthcare': 'clinic', 'name': 'Clínica Salles', 'opening_hours': 'Mo-Fr 00:00-24:00', 'operator': 'Nova Unidade Bio Scan', 'phone': '27 37632999'}}"
"{'type': 'node', 'id': 5305311746, 'lat': -19.3664277, 'lon': -40.0525037, 'tags': {'addr:city': 'Linhares', 'addr:postcode': '29905-110', 'addr:street': 'Avenida João Bonicenha', 'addr:suburb': 'São José', 'amenity': 'clinic', 'healthcare': 'clinic', 'name': 'Unidade da Família do Bairro São José'}}"
"{'type': 'node', 'id': 5305311755, 'lat': -19.3673952, 'lon': -40.0518252, 'tags': {'addr:city': 'Linhares', 'addr:postcode': '29905-110', 'addr:street': 'Rua Crescencio Firmino dos Santos', 'addr:suburb': 'São José', 'amenity': 'pharmacy', 'drive_through': 'no', 'healthcare': 'pharmacy', 'name': 'Drogaria São José'}}"
"{'type': 'node', 'id': 6381450087, 'lat': -18.7765057, 'lon': -40.9851201, 'tags': {'addr:city': 'Mantena', 'addr:housenumber': '185', 'addr:postcode': '35290-000', 'addr:street': 'Rua José Romério Duque', 'addr:suburb': 'Centro', 'amenity': 'hospital', 'healthcare': 'hospital', 'name': 'Hospital Evangélico de Mantena'}}"
"{'type': 'node', 'id': 6407316973, 'lat': -18.7701711, 'lon': -40.9746412, 'tags': {'amenity': 'clinic', 'healthcare': 'clinic', 'healthcare:speciality': 'general', 'name': 'PSF - Bela Vista'}}"
"{'type': 'node', 'id': 6437094192, 'lat': -18.7785582, 'lon': -40.9957546, 'tags': {'amenity': 'doctors', 'healthcare': 'doctor', 'name': 'Unidade Básica de Saúde Vila Nova -UBS'}}"
"{'type': 'node', 'id': 8361777563, 'lat': -19.2727884, 'lon': -40.3442865, 'tags': {'addr:city': 'Rio Bananal', 'addr:postcode': '29920-000', 'addr:suburb': 'Santo Antônio', 'amenity': 'clinic', 'healthcare': 'clinic', 'healthcare:speciality': 'general', 'name': 'Unidade Basica de Saúde Santo Antônio', 'opening_hours': 'Mo-Su 7:00-16:00'}}"
"{'type': 'node', 'id': 9655202911, 'lat': -19.3816316, 'lon': -40.0620583, 'tags': {'amenity': 'pharmacy', 'dispensing': 'yes', 'healthcare': 'pharmacy', 'name': 'Drogaria Garcia'}}"
"{'type': 'node', 'id': 9656307195, 'lat': -19.3758046, 'lon': -40.0640135, 'tags': {'amenity': 'pharmacy', 'dispensing': 'yes', 'healthcare': 'pharmacy', 'name': 'Drogaria Lagoa do Meio'}}"
"{'type': 'node', 'id': 9656557509, 'lat': -19.3212268, 'lon': -40.071562, 'tags': {'amenity': 'clinic', 'healthcare': 'clinic', 'name': 'Unidade de Saúde Dr. José Antônio Palmeira'}}"
"{'type': 'node', 'id': 9853688419, 'lat': -19.2192264, 'lon': -40.5906576, 'tags': {'addr:city': 'Governador Lindenberg', 'addr:district': 'Novo Brasil', 'addr:postcode': '29720-000', 'addr:street': 'Travessa São José', 'amenity': 'clinic', 'healthcare': 'clinic', 'healthcare:speciality': 'general', 'name': 'Centro de Saúde Arlindo Stocco', 'opening_hours': '24/7'}}"
"{'type': 'node', 'id': 10271225571, 'lat': -18.721941, 'lon': -39.8700241, 'tags': {'addr:city': 'São Mateus', 'addr:postcode': '29941-380', 'addr:street': 'Avenida Vitória', 'addr:suburb': 'Vila Nova', 'amenity': 'clinic', 'healthcare': 'clinic', 'healthcare:speciality': 'general', 'name': 'Unidade Básica de Saúde do Bairro Vila Nova Dois', 'operator': 'Município de São Mateus', 'operator:type': 'public'}}"
"{'type': 'node', 'id': 10276351508, 'lat': -18.7281202, 'lon': -40.2214239, 'tags': {'addr:city': 'São Mateus', 'addr:postcode': '29949-065', 'addr:street': 'Rua Cachoeira do Cravo', 'addr:suburb': 'Nestor Gomes', 'amenity': 'clinic', 'healthcare': 'clinic', 'healthcare:speciality': 'general', 'name': 'Unidade de Saúde da Família de Nestor Gomes Um e Dois', 'operator': 'Secretaria Municipal de Saúde - Semsa', 'operator:type': 'public'}}"
"{'type': 'node', 'id': 10278600796, 'lat': -18.5536862, 'lon': -40.2234068, 'tags': {'addr:city': 'Boa Esperança', 'addr:postcode': '29845-000', 'addr:street': 'Avenida João Kletli', 'addr:suburb': 'Bela Vista', 'amenity': 'clinic', 'healthcare': 'clinic', 'healthcare:speciality': 'general', 'name': 'Unidade Básica de Saúde João Marchiori', 'operator': 'Município de Boa Esperaça', 'operator:type': 'public'}}"
"{'type': 'node', 'id': 10279935734, 'lat': -18.6887379, 'lon': -40.3912325, 'tags': {'addr:city': 'Nova Venécia', 'addr:postcode': '29830-000', 'addr:street': 'Rua Ernesto Geisel', 'addr:suburb': 'Altoé', 'amenity': 'clinic', 'healthcare': 'clinic', 'healthcare:speciality': 'general', 'name': 'Estratégia de Saúde da Família do Bairro Altoé', 'operator': 'Secretaria Municipal de Saúde de Nova Venécia Semsa', 'operator:type': 'public', 'phone': '+55 27 3752 9053'}}"
"{'type': 'node', 'id': 10287950544, 'lat': -19.0881158, 'lon': -40.1394679, 'tags': {'addr:city': 'Sooretama', 'addr:postcode': '29927-000', 'addr:street': 'Rua Sete', 'addr:suburb': 'Juncado', 'amenity': 'clinic', 'healthcare': 'clinic', 'healthcare:speciality': 'general', 'name': 'Estratégia de Saúde da Família de Juncado', 'operator': 'Muncípio de Juncado', 'operator:type': 'public'}}"
"{'type': 'node', 'id': 10288033680, 'lat': -19.116928, 'lon': -40.1908045, 'tags': {'addr:city': 'Sooretama', 'addr:postcode': '29927-000', 'addr:street': 'Rua Principal', 'addr:suburb': 'Chumbado', 'amenity': 'clinic', 'healthcare': 'clinic', 'healthcare:speciality': 'general', 'name': 'Estratégia de Saúde da Família de Chumbado', 'operator': 'Município de Sooretama', 'operator:type': 'public'}}"
"{'type': 'node', 'id': 10304350255, 'lat': -18.993129, 'lon': -40.2731672, 'tags': {'addr:city': 'Vila Valério', 'addr:district': 'Jurama', 'addr:postcode': '297885-000', 'addr:state': 'Espírito Santo', 'addr:street': 'Rua Principal', 'amenity': 'clinic', 'healthcare': 'clinic', 'healthcare:speciality': 'general', 'name': 'Unidade de Saúde Lúcia Moro Franco', 'operator': 'Município de Vila Valério', 'operator:type': 'public'}}"
"{'type': 'node', 'id': 10310808737, 'lat': -19.23457, 'lon': -40.1453167, 'tags': {'addr:city': 'Linhares', 'addr:postcode': '29905-983', 'addr:street': 'Rua Principal', 'addr:suburb': 'Patrimônio do Guaxe', 'amenity': 'clinic', 'healthcare': 'clinic', 'healthcare:speciality': 'general', 'name': 'Unidade de Saúde da Família Alcides Correia', 'operator': 'Município de Linhares', 'operator:type': 'public', 'phone': '+55 27 3274 7035;+55 27 99608 2250'}}"
"{'type': 'node', 'id': 10310808748, 'lat': -19.264033, 'lon': -40.0380599, 'tags': {'addr:city': 'Linhares', 'addr:postcode': '29911-020', 'addr:street': 'Avenida João Soprani', 'addr:suburb': 'Farias', 'amenity': 'clinic', 'healthcare': 'clinic', 'healthcare:speciality': 'general', 'name': 'Unidade de Saúde Rodolfo Bitti', 'operator': 'Município de Linhares', 'operator:type': 'public'}}"
"{'type': 'node', 'id': 10554569633, 'lat': -18.2959491, 'lon': -39.9596307, 'tags': {'addr:city': 'Pedro Canário', 'addr:postcode': '29970-000', 'addr:street': 'Avenida Alberto dos Reis Castro', 'addr:suburb': 'Novo Horizonte', 'amenity': 'clinic', 'healthcare': 'clinic', 'healthcare:speciality': 'general', 'name': 'Unidade de Saúde Central', 'operator': 'Município de Pedro Canário', 'operator:type': 'public', 'phone': '+55 27 3764 0815'}}"
"{'type': 'node', 'id': 11275941820, 'lat': -18.1383445, 'lon': -39.736081, 'tags': {'amenity': 'clinic', 'healthcare': 'clinic'}}"
"{'type': 'node', 'id': 11335957310, 'lat': -18.3716881, 'lon': -40.8328524, 'tags': {'addr:city': 'Ecoporanga', 'addr:housenumber': '676', 'addr:postcode': '29850-000', 'addr:street': 'Avenida Milton Mota', 'addr:suburb': 'Centro', 'amenity': 'dentist', 'healthcare': 'dentist', 'healthcare:speciality': 'orthodontics', 'name': 'Consultório Odontológico Dr Artur Cirilo', 'opening_hours': 'Mo-Su 08:00-22:00', 'operator': 'Dr Artur Cirilo'}}"
"{'type': 'node', 'id': 12056084989, 'lat': -19.3628364, 'lon': -40.0523347, 'tags': {'amenity': 'pharmacy', 'healthcare': 'pharmacy', 'name': 'Farmavocê'}}"
"{'type': 'node', 'id': 12073301754, 'lat': -18.1728915, 'lon': -39.9188156, 'tags': {'addr:housenumber': '3', 'addr:postcode': '45930-000', 'addr:street': 'Avenida Carlos Chagas', 'addr:suburb': '31 de Março', 'building': 'yes', 'healthcare': 'yes', 'name': 'Atendimento Odontológico'}}"
"{'type': 'node', 'id': 12073303046, 'lat': -18.1726273, 'lon': -39.9188476, 'tags': {'addr:housenumber': '14', 'addr:postcode': '45930-000', 'addr:street': 'Avenida Carlos Chagas', 'addr:suburb': '31 de Março', 'amenity': 'clinic', 'building': 'yes', 'healthcare': 'yes', 'name': 'Unidade de Saúde'}}"
"{'type': 'node', 'id': 12264563443, 'lat': -18.9968557, 'lon': -40.3896721, 'tags': {'addr:city': 'Vila Valério', 'addr:housenumber': '284', 'addr:postcode': '29785-000', 'addr:street': 'Rua José Antônio Carminatti', 'addr:suburb': 'Centro', 'healthcare': 'physiotherapist', 'healthcare:speciality': 'chiropractic', 'name': 'Clínica OrtoFisio', 'phone': '(27) 99714-1605', 'website': 'https://www.instagram.com/clinicaortofisio_kr/'}}"
"{'type': 'node', 'id': 12450102491, 'lat': -19.2508571, 'lon': -40.4633161, 'tags': {'amenity': 'pharmacy', 'healthcare': 'pharmacy', 'name': 'Farmácia Dias'}}"
