OSM_Data
"{'type': 'node', 'id': 1993232033, 'lat': -1.4671177, 'lon': -56.3760895, 'tags': {'addr:city': 'Porto Trombetas', 'addr:postcode': '68275-000', 'addr:street': 'Rua Rio Amazonas', 'addr:suburb': 'Centro', 'amenity': 'hospital', 'emergency': 'yes', 'healthcare': 'hospital', 'name': 'Hospital de Porto Trombetas', 'operator:ref:vatin': 'BR04932216000146', 'ref:CNES': '6312314', 'ref:vatin': 'BR04547278000215'}}"
"{'type': 'node', 'id': 4165806714, 'lat': -1.9120954, 'lon': -55.5157382, 'tags': {'amenity': 'pharmacy', 'name': 'Farmácia Bandeira Branca'}}"
"{'type': 'node', 'id': 4165806715, 'lat': -1.9124562, 'lon': -55.5156749, 'tags': {'addr:city': 'Óbidos', 'addr:postcode': '68250000', 'addr:street': 'Rua Doutor Picanço Diniz', 'addr:suburb': 'Centro', 'amenity': 'pharmacy', 'name': 'Droga Mais'}}"
"{'type': 'node', 'id': 4165806719, 'lat': -1.9187477, 'lon': -55.5147244, 'tags': {'amenity': 'pharmacy', 'name': 'Famácia Parente'}}"
"{'type': 'node', 'id': 4165806720, 'lat': -1.9184404, 'lon': -55.5157856, 'tags': {'amenity': 'pharmacy'}}"
"{'type': 'node', 'id': 4165806721, 'lat': -1.9182817, 'lon': -55.5158101, 'tags': {'amenity': 'pharmacy'}}"
"{'type': 'node', 'id': 4165806724, 'lat': -1.9065157, 'lon': -55.5178348, 'tags': {'amenity': 'pharmacy'}}"
"{'type': 'node', 'id': 4229082105, 'lat': -1.9166693, 'lon': -55.5166598, 'tags': {'addr:street': 'Travessa Eloy Simões', 'amenity': 'clinic', 'name': 'Espaço Médico'}}"
"{'type': 'node', 'id': 4241632419, 'lat': -1.9132624, 'lon': -55.5146047, 'tags': {'addr:city': 'Óbidos', 'addr:postcode': '68250000', 'addr:street': 'Rua Doutor Picanço Diniz', 'addr:suburb': 'Centro', 'amenity': 'pharmacy', 'name': 'Farmacia Parente'}}"
"{'type': 'node', 'id': 4261824190, 'lat': -1.9124002, 'lon': -55.5156911, 'tags': {'addr:street': 'Rua Doutor Picanço Diniz', 'amenity': 'pharmacy', 'name': 'Farmácia Droga Mais'}}"
"{'type': 'node', 'id': 4263672990, 'lat': -1.9188116, 'lon': -55.5151177, 'tags': {'addr:street': 'Avenida Siqueira Campos', 'amenity': 'clinic', 'name': 'Lacob'}}"
"{'type': 'node', 'id': 4266321890, 'lat': -1.9171052, 'lon': -55.5149638, 'tags': {'amenity': 'pharmacy', 'name': 'Farmácia do Trabalhador'}}"
"{'type': 'node', 'id': 5321784423, 'lat': -1.919176, 'lon': -55.5135848, 'tags': {'addr:postcode': '68250000', 'addr:street': 'Avenida Siqueira Campos', 'amenity': 'pharmacy', 'name': 'Farmacia do porto', 'opening_hours': 'Mo-Sa 08:00-18:00'}}"
"{'type': 'node', 'id': 7019188187, 'lat': -1.9190771, 'lon': -55.5148254, 'tags': {'addr:housenumber': '32', 'addr:postcode': '68250000', 'addr:street': 'Rua Almirante Tamandaré', 'amenity': 'pharmacy', 'name': 'Farmácia Beira Mar', 'opening_hours': 'Mo-Sa 08:00-12:00, 14:30-18:00'}}"
"{'type': 'node', 'id': 7019188289, 'lat': -1.901838, 'lon': -55.5208703, 'tags': {'addr:postcode': '68250000', 'addr:street': 'Rua Presidente Washington Luís', 'amenity': 'pharmacy', 'name': 'Farmácia popular', 'opening_hours': 'Mo-Sa 08:00-18:00'}}"
"{'type': 'node', 'id': 7029954885, 'lat': -1.9104067, 'lon': -55.5176043, 'tags': {'addr:street': 'Rua Doutor Picanço Diniz', 'amenity': 'pharmacy', 'name': 'Farmácia popular', 'opening_hours': 'Mo-Sa 08:00-21:00; Su 08:00-12:00'}}"
"{'type': 'node', 'id': 7076622785, 'lat': -1.8967804, 'lon': -55.5176378, 'tags': {'addr:postcode': '68250000', 'addr:street': 'Avenida Prefeito Nelson Souza', 'amenity': 'pharmacy', 'name': 'Farmácia 24H', 'opening_hours': '24/7'}}"
"{'type': 'node', 'id': 10691488200, 'lat': -1.7728052, 'lon': -55.8639781, 'tags': {'amenity': 'clinic', 'healthcare': 'clinic', 'name': 'policlinica da Amazonia'}}"
"{'type': 'node', 'id': 11820351069, 'lat': -1.8976718, 'lon': -55.5138587, 'tags': {'addr:postcode': '68250-000', 'addr:street': 'Rua Frei Edmundo', 'amenity': 'hospital', 'name': 'Unidade Saúde da Família Helena Ferreira Ribeiro', 'opening_hours': 'Mo-Fr 07:00-17:00'}}"
"{'type': 'node', 'id': 12488719998, 'lat': -1.6433296, 'lon': -55.6096034, 'tags': {'amenity': 'clinic', 'healthcare': 'clinic', 'name': 'UNIDADE DE SAÚDE MARIA MADALENA ALVES DE AZEVEDO'}}"
"{'type': 'node', 'id': 12488724203, 'lat': -1.8477062, 'lon': -55.1919287, 'tags': {'amenity': 'clinic', 'healthcare': 'clinic', 'name': 'UNIDADE BÁSICA DE SAÚDE RISETE P VENÂNCIO'}}"
