OSM_Data
"{'type': 'node', 'id': 530313758, 'lat': -27.4786576, 'lon': -53.4056658, 'tags': {'addr:housenumber': '73', 'addr:postcode': '98380-000', 'addr:street': 'Travessa Roberto Schimidt', 'addr:suburb': 'Centro', 'amenity': 'hospital', 'email': 'fundacaopioxii@gmail.com', 'healthcare': 'hospital', 'name': 'Fundação Hospitalar Pio XII', 'phone': '+55 55 3746 1022', 'ref:CNES': '2228610', 'ref:vatin': 'BR89286249000119'}}"
"{'type': 'node', 'id': 581423130, 'lat': -28.2095797, 'lon': -53.4890276, 'tags': {'addr:city': 'Condor', 'addr:housenumber': '66', 'addr:postcode': '98290-000', 'addr:street': 'Rua Germano Keller', 'addr:suburb': 'Centro', 'amenity': 'hospital', 'healthcare': 'hospital', 'name': 'Hospital Beneficente de Condor', 'ref:CNES': '2261111', 'ref:vatin': 'BR91983874000161'}}"
"{'type': 'node', 'id': 598666734, 'lat': -27.4713597, 'lon': -53.1687579, 'tags': {'addr:city': 'Rodeio Bonito', 'addr:housenumber': '290', 'addr:postcode': '98360-000', 'addr:street': 'Rua Júlio de Castilhos', 'addr:suburb': 'Centro', 'amenity': 'hospital', 'email': 'ahsj@mksnet.com.br', 'healthcare': 'hospital', 'name': 'Hospital São José Rodeio Bonito', 'phone': '+55 55 3798 1433', 'ref:CNES': '2228734', 'ref:vatin': 'BR01884775000130'}}"
"{'type': 'node', 'id': 598666735, 'lat': -27.3653006, 'lon': -53.1718649, 'tags': {'addr:city': 'Ametista do Sul', 'addr:housenumber': '339', 'addr:postcode': '98465-000', 'addr:street': 'Rua João de Luca', 'addr:suburb': 'João de Luca', 'amenity': 'hospital', 'healthcare': 'hospital', 'name': 'Hospital São Gabriel Ametista do Sul', 'phone': '+55 55 3752 1246', 'ref:CNES': '2228629', 'ref:vatin': 'BR01979048000156'}}"
"{'type': 'node', 'id': 696595476, 'lat': -28.2088788, 'lon': -53.4888551, 'tags': {'amenity': 'pharmacy', 'name': 'Farmacia do Tiago'}}"
"{'type': 'node', 'id': 1978976594, 'lat': -27.359811, 'lon': -53.3941531, 'tags': {'amenity': 'pharmacy', 'healthcare': 'pharmacy'}}"
"{'type': 'node', 'id': 1978978380, 'lat': -27.3556855, 'lon': -53.4012229, 'tags': {'amenity': 'pharmacy', 'healthcare': 'pharmacy', 'name': 'Farmácia Botânica Farma'}}"
"{'type': 'node', 'id': 1978978393, 'lat': -27.3587538, 'lon': -53.3987874, 'tags': {'amenity': 'pharmacy', 'healthcare': 'pharmacy'}}"
"{'type': 'node', 'id': 1978978395, 'lat': -27.3581436, 'lon': -53.3995124, 'tags': {'amenity': 'pharmacy', 'healthcare': 'pharmacy'}}"
"{'type': 'node', 'id': 2044331920, 'lat': -28.3938416, 'lon': -53.9100967, 'tags': {'addr:housenumber': '152', 'addr:postcode': '98700-000', 'addr:street': 'Avenida David José Martins', 'addr:suburb': 'Centro', 'amenity': 'hospital', 'email': 'fdinkoski@hci.org.br', 'emergency': 'yes', 'fax': '+55 55 3331 9301', 'healthcare': 'hospital', 'name': 'Hospital de Caridade de Ijui', 'phone': '+55 55 3331 9300', 'ref:CNES': '2261057', 'ref:vatin': 'BR90730508000138'}}"
"{'type': 'node', 'id': 2045561733, 'lat': -28.3940681, 'lon': -53.8994752, 'tags': {'amenity': 'hospital', 'name': 'Hospital Bom Pastor'}}"
"{'type': 'node', 'id': 2046436575, 'lat': -28.3891705, 'lon': -53.9159756, 'tags': {'amenity': 'pharmacy', 'healthcare': 'pharmacy', 'name': 'Farmacia MB'}}"
"{'type': 'node', 'id': 2060111513, 'lat': -27.3615885, 'lon': -53.3946278, 'tags': {'amenity': 'pharmacy', 'healthcare': 'pharmacy'}}"
"{'type': 'node', 'id': 2060111517, 'lat': -27.3558046, 'lon': -53.3949551, 'tags': {'amenity': 'pharmacy', 'healthcare': 'pharmacy', 'name': 'Bela Vita Farmácia'}}"
"{'type': 'node', 'id': 2060111521, 'lat': -27.3559618, 'lon': -53.3950302, 'tags': {'amenity': 'pharmacy', 'healthcare': 'pharmacy'}}"
"{'type': 'node', 'id': 2060111528, 'lat': -27.3569052, 'lon': -53.3954271, 'tags': {'amenity': 'pharmacy', 'branch': 'Famácias', 'brand': 'Panvel', 'brand:wikidata': 'Q10344254', 'healthcare': 'pharmacy', 'name': 'Panvel'}}"
"{'type': 'node', 'id': 2060111529, 'lat': -27.3568242, 'lon': -53.3953896, 'tags': {'amenity': 'pharmacy', 'healthcare': 'pharmacy', 'name': 'Farma Centro - Filial'}}"
"{'type': 'node', 'id': 2060111531, 'lat': -27.3569766, 'lon': -53.3954486, 'tags': {'amenity': 'pharmacy', 'brand': 'Farmácia São João', 'brand:wikidata': 'Q65164556', 'healthcare': 'pharmacy', 'name': 'Farmácia São João'}}"
"{'type': 'node', 'id': 2060111535, 'lat': -27.3568909, 'lon': -53.3960601, 'tags': {'amenity': 'pharmacy', 'healthcare': 'pharmacy', 'name': 'Cruz Azul Farmácias'}}"
"{'type': 'node', 'id': 2060111537, 'lat': -27.3558046, 'lon': -53.3951804, 'tags': {'amenity': 'pharmacy', 'healthcare': 'pharmacy', 'name': 'Farma Centro - Matriz 24h'}}"
"{'type': 'node', 'id': 2060119700, 'lat': -27.3603022, 'lon': -53.3979806, 'tags': {'amenity': 'pharmacy', 'healthcare': 'pharmacy'}}"
"{'type': 'node', 'id': 2061050922, 'lat': -27.3564948, 'lon': -53.3972317, 'tags': {'amenity': 'pharmacy', 'healthcare': 'pharmacy', 'name': 'Farmácia Carati'}}"
"{'type': 'node', 'id': 2102759930, 'lat': -27.3573603, 'lon': -53.3956364, 'tags': {'amenity': 'pharmacy', 'healthcare': 'pharmacy', 'name': 'Farmácia Dermapele'}}"
"{'type': 'node', 'id': 2102759934, 'lat': -27.3555833, 'lon': -53.3948693, 'tags': {'amenity': 'pharmacy', 'healthcare': 'pharmacy', 'name': 'Farmácia Dermatobel'}}"
"{'type': 'node', 'id': 2103186527, 'lat': -27.3565563, 'lon': -53.5566017, 'tags': {'addr:city': 'Palmitinho', 'addr:housenumber': '320', 'addr:postcode': '98430-000', 'addr:street': 'Rua Carlos Gomes', 'addr:suburb': 'Centro', 'amenity': 'hospital', 'healthcare': 'hospital', 'name': 'Hospital Santa Terezinha', 'phone': '+55 55 3791 1150', 'ref:CNES': '2228580', 'ref:vatin': 'BR87664793000121'}}"
"{'type': 'node', 'id': 2393054806, 'lat': -27.3603763, 'lon': -53.3976576, 'tags': {'amenity': 'hospital', 'healthcare': 'hospital'}}"
"{'type': 'node', 'id': 2492244593, 'lat': -27.9409581, 'lon': -52.9221653, 'tags': {'amenity': 'pharmacy', 'name': 'Farmácia São João'}}"
"{'type': 'node', 'id': 2492273793, 'lat': -27.945011, 'lon': -52.9180233, 'tags': {'amenity': 'hospital'}}"
"{'type': 'node', 'id': 2496880323, 'lat': -27.455004, 'lon': -53.9324794, 'tags': {'addr:housenumber': '788', 'addr:postcode': '98600-000', 'addr:street': 'Avenida Júlio de Castilhos', 'amenity': 'pharmacy', 'branch': 'Farmácias', 'brand': 'Panvel', 'brand:wikidata': 'Q10344254', 'ele': '450', 'healthcare': 'pharmacy', 'name': 'Panvel', 'phone': '+55 55 3522-1280', 'website': 'https://www.panvel.com/'}}"
"{'type': 'node', 'id': 2496882933, 'lat': -27.4513904, 'lon': -53.9405314, 'tags': {'addr:housenumber': '231', 'addr:postcode': '98600-000', 'addr:street': 'Rua Almirante Tamandaré', 'amenity': 'pharmacy', 'ele': '440', 'healthcare': 'pharmacy', 'name': 'Mirian Pharma', 'phone': '+55 55 3522-8876'}}"
"{'type': 'node', 'id': 2496884694, 'lat': -27.4524469, 'lon': -53.9370268, 'tags': {'addr:housenumber': '1301', 'addr:postcode': '98600-000', 'addr:street': 'Avenida Júlio de Castilhos', 'amenity': 'pharmacy', 'brand': 'Farmácia São João', 'brand:wikidata': 'Q65164556', 'ele': '448', 'healthcare': 'pharmacy', 'name': 'Farmácia São João', 'phone': '+55 55 3522-3050', 'website': 'https://www.saojoaofarmacias.com.br/'}}"
"{'type': 'node', 'id': 3255565639, 'lat': -27.7721765, 'lon': -53.2480263, 'tags': {'amenity': 'pharmacy'}}"
"{'type': 'node', 'id': 3655403120, 'lat': -27.6921489, 'lon': -53.183282, 'tags': {'addr:city': 'Lajeado do Bugre', 'amenity': 'clinic', 'emergency': 'no', 'name': 'Posto de Saúde', 'source': 'Bing;IBGE'}}"
"{'type': 'node', 'id': 3905343294, 'lat': -28.2833353, 'lon': -52.795632, 'tags': {'addr:housenumber': '831', 'addr:postcode': '99500-000', 'addr:street': 'Avenida Pátria', 'addr:suburb': 'Centro', 'amenity': 'clinic', 'email': 'prontocarazinho@annex.com.br', 'healthcare': 'clinic', 'name': 'Prontoclinica Carazinho', 'ref:CNES': '7292945', 'ref:vatin': 'BR03044492000296'}}"
"{'type': 'node', 'id': 3905343295, 'lat': -28.2849937, 'lon': -52.7946848, 'tags': {'amenity': 'clinic', 'healthcare': 'clinic', 'healthcare:speciality': 'orthopaedics', 'name': 'Clinica Ortopédica', 'opening_hours': '08:00-17:00'}}"
"{'type': 'node', 'id': 4257762789, 'lat': -28.3675576, 'lon': -53.7709998, 'tags': {'amenity': 'clinic'}}"
"{'type': 'node', 'id': 4286192692, 'lat': -27.7843418, 'lon': -52.8042793, 'tags': {'amenity': 'hospital', 'name': 'Atra'}}"
"{'type': 'node', 'id': 4376443498, 'lat': -28.3095772, 'lon': -52.790849, 'tags': {'amenity': 'pharmacy', 'name': 'Farmácia Glória'}}"
"{'type': 'node', 'id': 4376443499, 'lat': -28.3062901, 'lon': -52.7931772, 'tags': {'amenity': 'pharmacy', 'name': 'Farmácia Saudefar'}}"
"{'type': 'node', 'id': 4547023974, 'lat': -28.3909915, 'lon': -53.0986529, 'tags': {'addr:housenumber': '591', 'addr:postcode': '98250-000', 'addr:street': 'Rua Prestes Guimarães', 'addr:suburb': 'Centro', 'amenity': 'hospital', 'email': 'hmsaldanhamarinho@hotmail.com', 'fax': '+55 55 3373 1068', 'healthcare': 'hospital', 'name': 'Hospital Municipal Saldanha Marinho', 'operator:ref:vatin': 'BR92399153000171', 'phone': '+55 55 3373 1068', 'ref:CNES': '2263874'}}"
"{'type': 'node', 'id': 4604249991, 'lat': -28.0589952, 'lon': -53.0693556, 'tags': {'amenity': 'hospital', 'name:pt': 'Posto de saúde , CAIS'}}"
"{'type': 'node', 'id': 4604255991, 'lat': -28.059516, 'lon': -53.0658811, 'tags': {'amenity': 'hospital', 'name:pt': 'Hospital São José'}}"
"{'type': 'node', 'id': 4611812290, 'lat': -27.9005917, 'lon': -53.3181565, 'tags': {'amenity': 'clinic', 'name': 'Oftalmoclinica'}}"
"{'type': 'node', 'id': 4648791476, 'lat': -27.3669347, 'lon': -52.7724019, 'tags': {'amenity': 'hospital'}}"
"{'type': 'node', 'id': 4648949424, 'lat': -27.3547073, 'lon': -52.7744121, 'tags': {'addr:housenumber': '395', 'addr:postcode': '99600-000', 'addr:street': 'Rua Padre Manoel Gomes Gonzales', 'addr:suburb': 'Operario', 'amenity': 'hospital', 'fax': '+55 54 362 1077', 'healthcare': 'hospital', 'name': 'Hospital Comunitário Nonoai', 'phone': '+55 54 362 1212', 'ref:CNES': '2228688', 'ref:vatin': 'BR90894221000143'}}"
"{'type': 'node', 'id': 4649967010, 'lat': -27.6840251, 'lon': -53.8072397, 'tags': {'addr:housenumber': '105', 'addr:postcode': '98570-000', 'addr:street': 'Rua Hermógenes Pahins', 'addr:suburb': 'Centro', 'amenity': 'hospital', 'email': 'hospitalcamponovo@hotmail.com', 'fax': '+55 55 3528 1414', 'healthcare': 'hospital', 'name': 'Hospital de Caridade Campo Novo', 'phone': '+55 55 3528 1200', 'ref:CNES': '2261154', 'ref:vatin': 'BR90167107000111'}}"
"{'type': 'node', 'id': 4816666847, 'lat': -27.5668142, 'lon': -53.9717625, 'tags': {'addr:city': 'Humaitá', 'addr:housenumber': '399', 'addr:postcode': '98670-000', 'addr:street': 'Avenida João Pessoa', 'addr:suburb': 'Centro', 'amenity': 'hospital', 'healthcare': 'hospital', 'name': 'Associacao de Desenvolvimento Comunitário de Humaitá', 'ref:CNES': '2265893', 'ref:vatin': 'BR91996074000185', 'source': 'IBGE;IEDE/RS', 'source:geometry': 'IEDE/RS'}}"
"{'type': 'node', 'id': 4823051179, 'lat': -27.6704151, 'lon': -52.6496984, 'tags': {'amenity': 'hospital', 'healthcare': 'hospital', 'name': 'Posto de Saúde'}}"
"{'type': 'node', 'id': 4826286448, 'lat': -27.6799754, 'lon': -52.8397802, 'tags': {'amenity': 'clinic', 'healthcare': 'clinic', 'source': 'IBGE'}}"
"{'type': 'node', 'id': 4826292431, 'lat': -27.7829317, 'lon': -52.8018002, 'tags': {'addr:city': 'Ronda Alta', 'addr:housenumber': '38', 'addr:postcode': '99670-000', 'addr:street': 'Travessa São Jorge', 'addr:suburb': 'Centro', 'amenity': 'hospital', 'healthcare': 'hospital', 'name': 'Associação Hospitalar de Ronda Alta', 'phone': '+55 54 364 1077', 'ref:CNES': '2235420', 'ref:vatin': 'BR97319487000101', 'source': 'IEDE/RS'}}"
"{'type': 'node', 'id': 4834767919, 'lat': -27.6579968, 'lon': -53.5278378, 'tags': {'amenity': 'hospital', 'name': 'Posto de Saúde'}}"
"{'type': 'node', 'id': 4852816574, 'lat': -27.5473549, 'lon': -53.5064546, 'tags': {'amenity': 'clinic', 'source': 'IBGE'}}"
"{'type': 'node', 'id': 4958865236, 'lat': -27.3238928, 'lon': -53.0571476, 'tags': {'amenity': 'hospital'}}"
"{'type': 'node', 'id': 5127667004, 'lat': -28.3145382, 'lon': -52.8091889, 'tags': {'amenity': 'clinic', 'healthcare': 'clinic', 'name': 'Posto de saude Passo da Areia', 'operator': 'Municipio de Carazinho', 'operator:type': 'public'}}"
"{'type': 'node', 'id': 5127667010, 'lat': -28.3087939, 'lon': -52.8011975, 'tags': {'amenity': 'clinic', 'name': 'Posto de Saúde Conceição'}}"
"{'type': 'node', 'id': 5127667012, 'lat': -28.2975562, 'lon': -52.8054752, 'tags': {'amenity': 'clinic', 'name': 'Posto de Saúde Sassi'}}"
"{'type': 'node', 'id': 5172021574, 'lat': -27.3546753, 'lon': -53.395615, 'tags': {'amenity': 'hospital', 'healthcare': 'hospital', 'name': 'Hospital Santo Antônio'}}"
"{'type': 'node', 'id': 5191012088, 'lat': -28.3892952, 'lon': -53.9271163, 'tags': {'amenity': 'pharmacy', 'healthcare': 'pharmacy', 'name': 'Farmácia São João'}}"
"{'type': 'node', 'id': 5216028179, 'lat': -28.3851552, 'lon': -53.9298999, 'tags': {'amenity': 'hospital', 'healthcare': 'hospital', 'name': 'Novo Hospital Bom Pastor'}}"
"{'type': 'node', 'id': 5254758497, 'lat': -27.7775363, 'lon': -53.1162303, 'tags': {'amenity': 'clinic', 'healthcare': 'clinic'}}"
"{'type': 'node', 'id': 5445765322, 'lat': -27.4017117, 'lon': -53.4679095, 'tags': {'amenity': 'hospital', 'healthcare': 'hospital', 'name': 'Hospital São Roque'}}"
"{'type': 'node', 'id': 5676229648, 'lat': -28.5661591, 'lon': -52.7474403, 'tags': {'amenity': 'hospital', 'healthcare': 'hospital'}}"
"{'type': 'node', 'id': 5676229649, 'lat': -28.5666791, 'lon': -52.7469687, 'tags': {'amenity': 'clinic', 'healthcare': 'clinic'}}"
"{'type': 'node', 'id': 5744405094, 'lat': -27.5358648, 'lon': -52.7283884, 'tags': {'amenity': 'clinic', 'healthcare': 'clinic'}}"
"{'type': 'node', 'id': 5764783298, 'lat': -27.8948697, 'lon': -53.2959706, 'tags': {'amenity': 'clinic', 'healthcare': 'clinic', 'source': 'IBGE'}}"
"{'type': 'node', 'id': 5764783299, 'lat': -27.8990631, 'lon': -53.2999215, 'tags': {'healthcare': 'blood_donation', 'name': 'Hemonúcleo', 'source': 'IBGE'}}"
"{'type': 'node', 'id': 5764783339, 'lat': -27.9014383, 'lon': -53.3104813, 'tags': {'amenity': 'clinic', 'source': 'IBGE'}}"
"{'type': 'node', 'id': 5854985744, 'lat': -27.451032, 'lon': -53.9367211, 'tags': {'addr:city': 'Três Passos', 'addr:housenumber': '157', 'addr:postcode': '98600-000', 'addr:street': 'Rua Mario Totta', 'addr:suburb': 'Centro', 'amenity': 'hospital', 'fax': '+55 55 3522 2468', 'healthcare': 'hospital', 'name': 'Hospital de Caridade de Três Passos', 'phone': '+55 55 3522-2468', 'ref:CNES': '2228726', 'ref:vatin': 'BR98110000000149'}}"
"{'type': 'node', 'id': 5857198561, 'lat': -27.5220087, 'lon': -52.8871599, 'tags': {'addr:city': 'Trindade do Sul', 'addr:housenumber': '82', 'addr:postcode': '99615-000', 'addr:street': 'Rua Cabiuna', 'addr:suburb': 'Centro', 'amenity': 'hospital', 'healthcare': 'hospital', 'name': 'Aspiazu Filhas Cia Ltda', 'ref:CNES': '2235366', 'ref:vatin': 'BR97441307000160'}}"
"{'type': 'node', 'id': 5859527780, 'lat': -27.8669085, 'lon': -52.9951346, 'tags': {'amenity': 'clinic', 'healthcare': 'clinic'}}"
"{'type': 'node', 'id': 5859527781, 'lat': -27.8260737, 'lon': -52.9078827, 'tags': {'amenity': 'clinic', 'healthcare': 'clinic'}}"
"{'type': 'node', 'id': 5859589892, 'lat': -27.5733911, 'lon': -52.8800197, 'tags': {'amenity': 'clinic', 'healthcare': 'clinic'}}"
"{'type': 'node', 'id': 5921494141, 'lat': -28.5239076, 'lon': -52.9941523, 'tags': {'amenity': 'clinic', 'source': 'IBGE'}}"
"{'type': 'node', 'id': 6011030668, 'lat': -28.4250685, 'lon': -53.6559715, 'tags': {'addr:housenumber': '1017', 'addr:postcode': '98270-000', 'addr:street': 'Luigi Basso', 'addr:suburb': 'Centro', 'amenity': 'hospital', 'email': 'cbsrb@comnet.com.br', 'fax': '+55 55 3377 1212', 'healthcare': 'hospital', 'name': 'Hospital Pejucara', 'official_name': 'Associacao Hospitalar Rio Branco De Pejucara', 'ref:CNES': '2261138', 'ref:vatin': 'BR89129217000100'}}"
"{'type': 'node', 'id': 6067262138, 'lat': -27.6266565, 'lon': -53.2765085, 'tags': {'amenity': 'clinic', 'source': 'IBGE'}}"
"{'type': 'node', 'id': 6124382907, 'lat': -27.4316819, 'lon': -53.962594, 'tags': {'amenity': 'clinic', 'healthcare': 'clinic', 'name': 'Posto Estratégia Saúde da Família'}}"
"{'type': 'node', 'id': 6124382969, 'lat': -27.4492744, 'lon': -53.9378204, 'tags': {'healthcare': 'rehabilitation', 'name': 'CAPS - Centro de Atenção Psicossocial', 'phone': '+55 55 3522-0442'}}"
"{'type': 'node', 'id': 6124382970, 'lat': -27.449418, 'lon': -53.9380345, 'tags': {'amenity': 'clinic', 'healthcare': 'clinic', 'name': 'NASF - Núcleo de Apoio à Saúde da Família', 'phone': '+55 55 3522-0441'}}"
"{'type': 'node', 'id': 6153642776, 'lat': -27.4544025, 'lon': -53.9343601, 'tags': {'amenity': 'pharmacy', 'dispensing': 'yes', 'healthcare': 'pharmacy', 'name': 'Farmácias Associadas'}}"
"{'type': 'node', 'id': 6154417113, 'lat': -27.4548481, 'lon': -53.9341036, 'tags': {'healthcare': 'laboratory', 'name': 'São José'}}"
"{'type': 'node', 'id': 6159990809, 'lat': -27.4579873, 'lon': -53.925185, 'tags': {'amenity': 'pharmacy', 'dispensing': 'yes', 'healthcare': 'pharmacy', 'name': 'BS Farmácias'}}"
"{'type': 'node', 'id': 6159990812, 'lat': -27.4562045, 'lon': -53.9303314, 'tags': {'amenity': 'pharmacy', 'brand': 'São João', 'brand:wikidata': 'Q62663306', 'dispensing': 'yes', 'healthcare': 'pharmacy', 'name': 'São João'}}"
"{'type': 'node', 'id': 6166934028, 'lat': -27.4563857, 'lon': -53.9290292, 'tags': {'amenity': 'dentist', 'healthcare': 'dentist', 'name': 'Oral Live', 'phone': '+55 55 3522-3280'}}"
"{'type': 'node', 'id': 6177386692, 'lat': -27.5515946, 'lon': -53.864295, 'tags': {'amenity': 'pharmacy', 'dispensing': 'yes', 'healthcare': 'pharmacy', 'name': 'Vida e Saúde'}}"
"{'type': 'node', 'id': 6184170608, 'lat': -27.4628773, 'lon': -53.9242919, 'tags': {'amenity': 'pharmacy', 'dispensing': 'yes', 'healthcare': 'pharmacy', 'name': 'Farmácias Associadas'}}"
"{'type': 'node', 'id': 6184587111, 'lat': -27.456522, 'lon': -53.9306282, 'tags': {'healthcare': 'laboratory', 'name': 'Laboratório Análises Clínicas Caridade'}}"
"{'type': 'node', 'id': 6184587112, 'lat': -27.4566401, 'lon': -53.9306854, 'tags': {'amenity': 'clinic', 'healthcare': 'clinic', 'name': 'Rafael Wayss', 'phone': '+55 55 3522-2324'}}"
"{'type': 'node', 'id': 6184587147, 'lat': -27.433998, 'lon': -53.9594244, 'tags': {'amenity': 'pharmacy', 'dispensing': 'yes', 'healthcare': 'pharmacy'}}"
"{'type': 'node', 'id': 6185130714, 'lat': -27.4563549, 'lon': -53.9299393, 'tags': {'amenity': 'pharmacy', 'dispensing': 'yes', 'healthcare': 'pharmacy', 'name': 'Sinal Verde'}}"
"{'type': 'node', 'id': 6185130715, 'lat': -27.4562984, 'lon': -53.9300895, 'tags': {'amenity': 'dentist', 'healthcare': 'dentist', 'name': 'Marlise Beatriz Grolli', 'phone': '+55 55 3522-1713'}}"
"{'type': 'node', 'id': 6258548933, 'lat': -27.4538335, 'lon': -53.935336, 'tags': {'amenity': 'pharmacy', 'dispensing': 'yes', 'healthcare': 'pharmacy', 'name': 'São José'}}"
"{'type': 'node', 'id': 6287524940, 'lat': -27.3722355, 'lon': -53.7560249, 'tags': {'amenity': 'pharmacy', 'dispensing': 'yes', 'healthcare': 'pharmacy', 'name': 'Agafarma'}}"
"{'type': 'node', 'id': 6287524942, 'lat': -27.3719549, 'lon': -53.7558483, 'tags': {'amenity': 'pharmacy', 'dispensing': 'yes', 'healthcare': 'pharmacy', 'name': 'Associadas'}}"
"{'type': 'node', 'id': 6287524945, 'lat': -27.3711306, 'lon': -53.7560735, 'tags': {'amenity': 'pharmacy', 'dispensing': 'yes', 'healthcare': 'pharmacy', 'name': 'Vida'}}"
"{'type': 'node', 'id': 6294637761, 'lat': -27.4559312, 'lon': -53.9309367, 'tags': {'amenity': 'pharmacy', 'dispensing': 'yes', 'healthcare': 'pharmacy', 'name': 'BS Farmácias'}}"
"{'type': 'node', 'id': 6294638294, 'lat': -27.4550826, 'lon': -53.9289191, 'tags': {'healthcare': 'laboratory', 'name': 'Bio Diagnóstico', 'phone': '+55 55 3522-3361', 'website': 'http://labbiodiagnostico.com.br/cms/inicio'}}"
"{'type': 'node', 'id': 6351124296, 'lat': -27.4567543, 'lon': -53.9282003, 'tags': {'amenity': 'pharmacy', 'dispensing': 'yes', 'healthcare': 'pharmacy', 'name': 'Nice'}}"
"{'type': 'node', 'id': 6351124302, 'lat': -27.4551832, 'lon': -53.9320328, 'tags': {'amenity': 'dentist', 'healthcare': 'dentist', 'name': 'Lucimári da Costa', 'phone': '+55 55 98110-6105'}}"
"{'type': 'node', 'id': 6369430789, 'lat': -27.6920126, 'lon': -53.1801776, 'tags': {'amenity': 'clinic', 'healthcare': 'clinic'}}"
"{'type': 'node', 'id': 6540567159, 'lat': -28.3883572, 'lon': -53.9147319, 'tags': {'amenity': 'pharmacy', 'dispensing': 'yes', 'healthcare': 'pharmacy', 'name': 'Farmacias MB'}}"
"{'type': 'node', 'id': 6540591301, 'lat': -28.3896975, 'lon': -53.9156975, 'tags': {'amenity': 'pharmacy', 'dispensing': 'yes', 'healthcare': 'pharmacy', 'name': 'Farmácia Diana'}}"
"{'type': 'node', 'id': 6540654760, 'lat': -28.3878231, 'lon': -53.915969, 'tags': {'amenity': 'pharmacy', 'dispensing': 'yes', 'healthcare': 'pharmacy', 'name': 'FharmaIjui'}}"
"{'type': 'node', 'id': 6540681609, 'lat': -28.3888884, 'lon': -53.9144291, 'tags': {'amenity': 'pharmacy', 'dispensing': 'yes', 'healthcare': 'pharmacy', 'name': 'Farmacias Associadas'}}"
"{'type': 'node', 'id': 6540806479, 'lat': -28.3891632, 'lon': -53.9144817, 'tags': {'amenity': 'pharmacy', 'brand': 'Panvel', 'brand:wikidata': 'Q10344254', 'brand:wikipedia': 'pt:Panvel', 'dispensing': 'yes', 'healthcare': 'pharmacy', 'name': 'Panvel'}}"
"{'type': 'node', 'id': 6540812112, 'lat': -28.3899953, 'lon': -53.9147089, 'tags': {'amenity': 'pharmacy', 'brand': 'São João', 'brand:wikidata': 'Q62663306', 'dispensing': 'yes', 'healthcare': 'pharmacy', 'name': 'São João'}}"
"{'type': 'node', 'id': 6554120521, 'lat': -28.3912836, 'lon': -53.9073018, 'tags': {'amenity': 'dentist', 'healthcare': 'dentist'}}"
"{'type': 'node', 'id': 6554143826, 'lat': -28.2407691, 'lon': -53.7708601, 'tags': {'amenity': 'dentist', 'healthcare': 'dentist', 'name': 'Jairo Montagner'}}"
"{'type': 'node', 'id': 6606236204, 'lat': -27.2672787, 'lon': -53.8614515, 'tags': {'amenity': 'pharmacy', 'dispensing': 'yes', 'healthcare': 'pharmacy'}}"
"{'type': 'node', 'id': 6878146028, 'lat': -28.422971, 'lon': -53.6563138, 'tags': {'addr:city': 'Pejuçara', 'addr:housenumber': '1293', 'addr:postcode': '98270-000', 'addr:street': 'Rua Antônio Alves Ramos', 'addr:suburb': 'centro', 'amenity': 'hospital', 'emergency': 'no', 'healthcare': 'hospital', 'name': 'Laboratório São José - Análises Clínicas', 'operator': 'Laboratório', 'operator:type': 'private', 'ref:CNES': '2260352', 'ref:vatin': 'BR01944136000112'}}"
"{'type': 'node', 'id': 6916775880, 'lat': -28.3898875, 'lon': -53.9119124, 'tags': {'amenity': 'pharmacy', 'brand': 'São João', 'brand:wikidata': 'Q62663306', 'dispensing': 'yes', 'healthcare': 'pharmacy', 'name': 'São João'}}"
"{'type': 'node', 'id': 7057973961, 'lat': -28.3935897, 'lon': -53.8965808, 'tags': {'addr:city': 'Ijuí', 'addr:housenumber': '1376', 'addr:street': 'Avenida David José Martins', 'addr:suburb': 'Hammastron', 'amenity': 'hospital', 'healthcare': 'hospital', 'name': 'Associacao Hospital Bom Pastor Ijui', 'ref:CNES': '2261030', 'ref:vatin': '92004225000134'}}"
"{'type': 'node', 'id': 7099001453, 'lat': -27.8520808, 'lon': -53.7766436, 'tags': {'amenity': 'pharmacy', 'dispensing': 'yes', 'healthcare': 'pharmacy', 'name': 'Agafarma'}}"
"{'type': 'node', 'id': 7099001455, 'lat': -27.8516773, 'lon': -53.7764452, 'tags': {'amenity': 'pharmacy', 'dispensing': 'yes', 'healthcare': 'pharmacy', 'name': 'MB Farmácias'}}"
"{'type': 'node', 'id': 7376835661, 'lat': -27.4523652, 'lon': -53.9366422, 'tags': {'amenity': 'pharmacy', 'dispensing': 'yes', 'healthcare': 'pharmacy', 'name': 'BS Farmácias'}}"
"{'type': 'node', 'id': 7630592191, 'lat': -27.4940701, 'lon': -53.9448309, 'tags': {'alt_name': 'Fundação Astrogilda e Osvaldo Bender', 'description': 'Tratamento especializado para a dependência do álcool e outras drogas', 'email': 'ctceleiro@bol.com.br', 'healthcare': 'rehabilitation', 'healthcare:speciality': 'alcohol;drugs', 'name': 'Comunidade Acolhedora - FAOB', 'phone': '+55 9651 0603'}}"
"{'type': 'node', 'id': 7650727158, 'lat': -27.3723395, 'lon': -53.7503379, 'tags': {'abbr_name': 'ESF-2', 'healthcare': 'yes', 'name': 'Estratégia da Saúde da Família'}}"
"{'type': 'node', 'id': 7650727166, 'lat': -27.3718045, 'lon': -53.7565549, 'tags': {'amenity': 'pharmacy', 'dispensing': 'yes', 'healthcare': 'pharmacy', 'name': 'MB Farmácias'}}"
"{'type': 'node', 'id': 7745625439, 'lat': -27.3712783, 'lon': -53.75755, 'tags': {'healthcare': 'clinic', 'healthcare:speciality': 'ophthalmology;stomatology', 'name': 'Clínica Dal Forno', 'phone': '+55 55 3551-2828'}}"
"{'type': 'node', 'id': 7745636934, 'lat': -27.3706189, 'lon': -53.7577794, 'tags': {'addr:housenumber': '241', 'healthcare': 'laboratory', 'name': 'Dom Bosco', 'phone': '+55 55 3551-1763'}}"
"{'type': 'node', 'id': 7745636941, 'lat': -27.3697417, 'lon': -53.7582711, 'tags': {'amenity': 'pharmacy', 'dispensing': 'yes', 'healthcare': 'pharmacy', 'name': 'Santo Antônio'}}"
"{'type': 'node', 'id': 7745636943, 'lat': -27.3692817, 'lon': -53.7580264, 'tags': {'addr:housenumber': '377', 'amenity': 'clinic', 'healthcare': 'clinic', 'name': 'Centro Clínico São Lucas'}}"
"{'type': 'node', 'id': 7967184831, 'lat': -27.2900533, 'lon': -53.7022581, 'tags': {'addr:city': 'Vista Gaúcha', 'addr:housenumber': '1000', 'addr:postcode': '98535-000', 'addr:street': 'Avenida 9 de Maio', 'addr:suburb': 'Centro', 'amenity': 'hospital', 'healthcare': 'hospital', 'name': 'Hospital Municipal', 'phone': '+55 55 3552 1224', 'ref:CNES': '2228645', 'ref:vatin': 'BR91999284000127'}}"
"{'type': 'node', 'id': 7967184834, 'lat': -27.2897041, 'lon': -53.7025766, 'tags': {'amenity': 'pharmacy', 'dispensing': 'yes', 'healthcare': 'pharmacy'}}"
"{'type': 'node', 'id': 7990119292, 'lat': -27.3706861, 'lon': -53.7587489, 'tags': {'healthcare': 'rehabilitation', 'name': 'Centro Especializado em Reabilitação', 'operator': 'Hospital de Santo Antônio'}}"
"{'type': 'node', 'id': 7990119299, 'lat': -27.371239, 'lon': -53.7590838, 'tags': {'healthcare': 'rehabilitation', 'name': 'Grupo Esperança Viva'}}"
"{'type': 'node', 'id': 7990119311, 'lat': -27.3723134, 'lon': -53.7571764, 'tags': {'healthcare': 'physiotherapist', 'name': 'FisioVida'}}"
"{'type': 'node', 'id': 7990280719, 'lat': -27.3709463, 'lon': -53.7560745, 'tags': {'amenity': 'clinic', 'healthcare': 'clinic', 'name': 'Faber'}}"
"{'type': 'node', 'id': 7990280728, 'lat': -27.3712156, 'lon': -53.7553317, 'tags': {'addr:housenumber': '76', 'amenity': 'clinic', 'healthcare': 'clinic', 'healthcare:speciality': 'orthodontics;dentist', 'name': 'Bresolin', 'opening_hours': 'Mo-Sa 08:00-19:30', 'phone': '+55 55 99699-1544'}}"
"{'type': 'node', 'id': 8126418019, 'lat': -28.3893815, 'lon': -53.9300076, 'tags': {'amenity': 'pharmacy', 'dispensing': 'yes', 'healthcare': 'pharmacy', 'name': 'Sanor'}}"
"{'type': 'node', 'id': 8377015959, 'lat': -27.3714399, 'lon': -53.7577254, 'tags': {'addr:housenumber': '138', 'amenity': 'dentist', 'healthcare': 'dentist', 'healthcare:speciality': 'oral_surgery', 'name': 'Ana Cristina Balzan', 'phone': '+55 55 99612-7540'}}"
"{'type': 'node', 'id': 8651388718, 'lat': -28.2741725, 'lon': -53.5020769, 'tags': {'amenity': 'clinic', 'healthcare': 'clinic', 'name': 'Posto de Saúde da Zona Norte'}}"
"{'type': 'node', 'id': 8651388729, 'lat': -28.2873645, 'lon': -53.5006499, 'tags': {'amenity': 'pharmacy', 'brand': 'Farmácia São João', 'brand:wikidata': 'Q65164556', 'healthcare': 'pharmacy', 'name': 'Farmácia São João'}}"
"{'type': 'node', 'id': 8651388734, 'lat': -28.2901574, 'lon': -53.5012481, 'tags': {'amenity': 'pharmacy', 'brand': 'Farmácia São João', 'brand:wikidata': 'Q65164556', 'healthcare': 'pharmacy', 'name': 'Farmácia São João'}}"
"{'type': 'node', 'id': 8651388735, 'lat': -28.2902413, 'lon': -53.5012561, 'tags': {'amenity': 'pharmacy', 'brand': 'Agafarma', 'brand:wikidata': 'Q93735939', 'healthcare': 'pharmacy', 'name': 'Agafarma'}}"
"{'type': 'node', 'id': 8651388737, 'lat': -28.2909605, 'lon': -53.5018234, 'tags': {'amenity': 'dentist', 'healthcare': 'dentist', 'name': 'Sorrifácil Odontologia'}}"
"{'type': 'node', 'id': 9040874581, 'lat': -27.8364455, 'lon': -53.7760694, 'tags': {'addr:city': 'Santo Augusto', 'addr:housenumber': '62-118', 'addr:postcode': '98590000', 'addr:street': 'Rua Jardim', 'addr:suburb': 'Ciep', 'amenity': 'clinic', 'healthcare': 'clinic', 'name': 'Unidade de Saúde Ubs'}}"
"{'type': 'node', 'id': 10279062641, 'lat': -27.4576666, 'lon': -53.9295745, 'tags': {'addr:city': 'Três Passos', 'addr:housenumber': '155', 'addr:postcode': '98600-000', 'addr:street': 'Rua Salgado Filho', 'addr:suburb': 'Centro', 'amenity': 'clinic', 'email': 'vista.laser@hotmail.com', 'healthcare': 'clinic', 'healthcare:speciality': 'ophthalmology', 'name': 'Vista Laser', 'opening_hours': 'Mo-Fr 08:30-12:00,13:30-18:00', 'phone': '+55 55 3522 3459', 'ref:CNES': '473871', 'ref:vatin': 'BR37949485000174'}}"
"{'type': 'node', 'id': 10593935336, 'lat': -27.9140453, 'lon': -53.3183437, 'tags': {'addr:city': 'Palmeira das Missões', 'addr:postcode': '98300000', 'addr:street': 'Rua Santa Maria', 'addr:suburb': 'Vista Alegre', 'amenity': 'clinic', 'healthcare': 'clinic', 'name': 'Posto de Saúde', 'wheelchair': 'yes'}}"
"{'type': 'node', 'id': 10861431624, 'lat': -27.7158715, 'lon': -53.7021287, 'tags': {'addr:city': 'Coronel Bicaco', 'addr:housenumber': '510', 'addr:postcode': '98580-000', 'addr:street': 'Rua Francisco Gobi', 'addr:suburb': 'Centro', 'amenity': 'hospital', 'healthcare': 'hospital', 'name': 'Associacao Hospitalar Santo Antônio de Padua', 'ref:CNES': '2235382', 'ref:vatin': 'BR88734785000177', 'source:geometry': 'IEDE/RS'}}"
"{'type': 'node', 'id': 10861431625, 'lat': -27.3538881, 'lon': -53.3943954, 'tags': {'addr:city': 'Frederico Westphalen', 'addr:housenumber': '271', 'addr:postcode': '98400-000', 'addr:street': 'Rua do Comércio', 'addr:suburb': 'Centro', 'amenity': 'hospital', 'healthcare': 'hospital', 'name': 'Hospital Santo Antonio Fredwest', 'ref:CNES': '2228599', 'ref:vatin': 'BR89987473000138', 'source:geometry': 'IEDE/RS'}}"
"{'type': 'node', 'id': 10863550277, 'lat': -27.252259, 'lon': -53.0358875, 'tags': {'addr:city': 'Alpestre', 'addr:housenumber': '523', 'addr:postcode': '98480-000', 'addr:street': 'Rua Doutor Alvaro Leitão', 'addr:suburb': 'Centro', 'amenity': 'hospital', 'healthcare': 'hospital', 'name': 'Hospital Nossa Senhora', 'ref:CNES': '2228564', 'ref:vatin': 'BR03246978000126', 'source:geometry': 'IEDE/RS'}}"
"{'type': 'node', 'id': 10863683943, 'lat': -27.8253944, 'lon': -52.9135088, 'tags': {'addr:city': 'Rondinha', 'addr:housenumber': '174', 'addr:postcode': '99590-000', 'addr:suburb': 'Centro', 'amenity': 'hospital', 'healthcare': 'hospital', 'name': 'Sociedade Hospitalar Beneficente Padre Eugênio Medicheschi', 'ref:CNES': '2235447', 'ref:vatin': 'BR88555313000157', 'source:geometry': 'IEDE/RS'}}"
"{'type': 'node', 'id': 10940015991, 'lat': -27.3591838, 'lon': -53.3993314, 'tags': {'amenity': 'pharmacy', 'healthcare': 'pharmacy'}}"
"{'type': 'node', 'id': 11461087075, 'lat': -27.4506925, 'lon': -53.9412127, 'tags': {'amenity': 'pharmacy', 'healthcare': 'pharmacy', 'name': 'Três Corações'}}"
"{'type': 'node', 'id': 11461087077, 'lat': -27.4489225, 'lon': -53.9407918, 'tags': {'amenity': 'pharmacy', 'healthcare': 'pharmacy'}}"
"{'type': 'node', 'id': 11548834182, 'lat': -27.4568213, 'lon': -53.9313209, 'tags': {'amenity': 'clinic', 'healthcare': 'clinic', 'name': 'Clínica Schmitt'}}"
