OSM_Data
"{'type': 'node', 'id': 1770155521, 'lat': -23.4334316, 'lon': -45.0805907, 'tags': {'addr:street': 'Avenida Dona Maria Alves', 'amenity': 'dentist', 'healthcare': 'dentist', 'name': 'Odonto Ubatuba'}}"
"{'type': 'node', 'id': 2619090232, 'lat': -23.2198014, 'lon': -44.7166904, 'tags': {'amenity': 'pharmacy', 'healthcare': 'pharmacy', 'name': 'Droga Tudo'}}"
"{'type': 'node', 'id': 2619090260, 'lat': -23.2155992, 'lon': -44.7125891, 'tags': {'addr:housenumber': '01', 'addr:street': 'Avenida São Pedro de Alcântara', 'amenity': 'hospital', 'healthcare': 'hospital', 'name': 'Santa Casa de Paraty', 'phone': '24-3371-1623', 'wikidata': 'Q10367744', 'wikimedia_commons': 'Category:Hospital Municipal São Pedro de Alcântara', 'wikipedia': 'pt:Santa Casa de Misericórdia de Paraty'}}"
"{'type': 'node', 'id': 2619145167, 'lat': -23.2228889, 'lon': -44.7168747, 'tags': {'amenity': 'hospital', 'healthcare': 'hospital', 'name': 'Posto de Saude Sus'}}"
"{'type': 'node', 'id': 2639151920, 'lat': -22.6740246, 'lon': -45.0077492, 'tags': {'amenity': 'clinic', 'name': 'Posto de Saúde do Parque Primavera'}}"
"{'type': 'node', 'id': 2639151921, 'lat': -22.6632713, 'lon': -45.0093271, 'tags': {'amenity': 'hospital', 'name': 'Unimed'}}"
"{'type': 'node', 'id': 2639151925, 'lat': -22.6662784, 'lon': -45.007614, 'tags': {'amenity': 'pharmacy', 'brand': 'Farma Conde', 'brand:wikidata': 'Q100492677', 'dispensing': 'yes', 'drive_through': 'no', 'healthcare': 'pharmacy', 'name': 'Farma Conde'}}"
"{'type': 'node', 'id': 2639151926, 'lat': -22.6656418, 'lon': -45.0087252, 'tags': {'amenity': 'pharmacy', 'dispensing': 'yes', 'drive_through': 'no', 'healthcare': 'pharmacy', 'name': 'Farmácia Santo Antônio'}}"
"{'type': 'node', 'id': 2673239133, 'lat': -23.1416083, 'lon': -44.1684982, 'tags': {'amenity': 'hospital', 'healthcare': 'hospital', 'name': 'Unidade de Saúde Eduardo Peregrino Junior'}}"
"{'type': 'node', 'id': 2700162794, 'lat': -23.2190502, 'lon': -44.7159893, 'tags': {'amenity': 'hospital', 'healthcare': 'hospital'}}"
"{'type': 'node', 'id': 3070195611, 'lat': -23.3512773, 'lon': -44.7234312, 'tags': {'amenity': 'hospital', 'healthcare': 'hospital', 'name': 'Unidade Básica de Saúde'}}"
"{'type': 'node', 'id': 3263795286, 'lat': -22.5531134, 'lon': -44.1509091, 'tags': {'amenity': 'clinic', 'name': 'Posto de Saúde'}}"
"{'type': 'node', 'id': 3714099579, 'lat': -23.2200554, 'lon': -44.7191416, 'tags': {'healthcare': 'centre', 'name': 'SAMU', 'phone': '192'}}"
"{'type': 'node', 'id': 3766588704, 'lat': -22.7333483, 'lon': -45.116758, 'tags': {'amenity': 'pharmacy', 'dispensing': 'no', 'healthcare': 'pharmacy', 'name': 'Farma Vale - Farmácia de Manipulação'}}"
"{'type': 'node', 'id': 3766588706, 'lat': -22.7334195, 'lon': -45.1151153, 'tags': {'amenity': 'pharmacy', 'dispensing': 'no', 'healthcare': 'pharmacy', 'name': 'Farma Ponto'}}"
"{'type': 'node', 'id': 4005737409, 'lat': -23.215923, 'lon': -44.713295, 'tags': {'amenity': 'clinic', 'emergency': 'yes', 'healthcare': 'clinic', 'name': 'Unidade de Pronto Atendimento', 'short_name': 'UPA'}}"
"{'type': 'node', 'id': 4286162903, 'lat': -22.5549132, 'lon': -44.152881, 'tags': {'addr:city': 'Barra Mansa', 'addr:street': 'Rua Otelino Machado', 'addr:suburb': 'Piteiras', 'amenity': 'pharmacy', 'name': 'Farmácia Piteiras'}}"
"{'type': 'node', 'id': 4346682037, 'lat': -22.5453466, 'lon': -44.1699421, 'tags': {'addr:city': 'Barra Mansa', 'addr:street': 'Avenida Joaquim Leite', 'amenity': 'pharmacy', 'name': 'Exxy Pharma Drogaria'}}"
"{'type': 'node', 'id': 4346682038, 'lat': -22.545204, 'lon': -44.1696734, 'tags': {'addr:city': 'Barra Mansa', 'addr:street': 'Avenida Joaquim Leite', 'amenity': 'pharmacy', 'name': 'Retiro Drogarias'}}"
"{'type': 'node', 'id': 4346684530, 'lat': -22.5447739, 'lon': -44.1727258, 'tags': {'addr:city': 'Barra Mansa', 'addr:street': 'Avenida Joaquim Leite', 'amenity': 'pharmacy', 'name': 'Moderna Drogaria'}}"
"{'type': 'node', 'id': 4346684652, 'lat': -22.5448278, 'lon': -44.1732278, 'tags': {'addr:city': 'Barra Mansa', 'addr:street': 'Avenida Joaquim Leite', 'amenity': 'pharmacy', 'name': 'Droga Raia'}}"
"{'type': 'node', 'id': 4363714147, 'lat': -22.817199, 'lon': -45.1874977, 'tags': {'addr:city': 'Guaratinguetá', 'addr:housenumber': '470', 'addr:postcode': '12502-040', 'addr:street': 'Praça Joaquim Vilela de Oliveira Marcondes', 'amenity': 'clinic', 'healthcare': 'clinic', 'name': 'Unidade de Perícias Médicas', 'phone': '+55 12 3132-5712', 'source': 'http://deguara.blogspot.com.br/2013/08/alteracao-de-endereco.html'}}"
"{'type': 'node', 'id': 4471227391, 'lat': -23.2196585, 'lon': -44.7158593, 'tags': {'amenity': 'pharmacy', 'dispensing': 'yes', 'healthcare': 'pharmacy', 'name': 'Super Saude', 'name:pt': 'Super Saude'}}"
"{'type': 'node', 'id': 4527221782, 'lat': -23.0742502, 'lon': -44.9595849, 'tags': {'addr:street': 'Rua João Manoel Rodrigues', 'amenity': 'pharmacy', 'name': 'Drogaria Central'}}"
"{'type': 'node', 'id': 4527273237, 'lat': -23.3498171, 'lon': -44.7233263, 'tags': {'amenity': 'pharmacy', 'healthcare': 'pharmacy', 'name': 'Bia Farma'}}"
"{'type': 'node', 'id': 4528325422, 'lat': -23.2204195, 'lon': -44.7191567, 'tags': {'amenity': 'clinic', 'healthcare': 'clinic', 'name': 'AngraLab'}}"
"{'type': 'node', 'id': 4528325469, 'lat': -23.2200934, 'lon': -44.7166511, 'tags': {'amenity': 'dentist', 'healthcare': 'dentist', 'name': 'Cirurgiões Dentistas'}}"
"{'type': 'node', 'id': 4528325470, 'lat': -23.2204532, 'lon': -44.7191542, 'tags': {'amenity': 'pharmacy', 'healthcare': 'pharmacy', 'name': 'CityFarma', 'shop': 'chemist'}}"
"{'type': 'node', 'id': 4528325474, 'lat': -23.2201985, 'lon': -44.7166538, 'tags': {'amenity': 'dentist', 'healthcare': 'dentist'}}"
"{'type': 'node', 'id': 4528325479, 'lat': -23.2221933, 'lon': -44.7182393, 'tags': {'addr:street': 'Rua Manoel Torres', 'amenity': 'clinic', 'healthcare': 'clinic', 'name': 'Espaço Saúde Paraty'}}"
"{'type': 'node', 'id': 4528328132, 'lat': -23.2210752, 'lon': -44.7184702, 'tags': {'amenity': 'pharmacy', 'healthcare': 'pharmacy', 'name': 'Jota Ge', 'shop': 'chemist'}}"
"{'type': 'node', 'id': 4528328137, 'lat': -23.2196332, 'lon': -44.7190692, 'tags': {'amenity': 'pharmacy', 'healthcare': 'pharmacy', 'name': 'Litoral', 'shop': 'chemist'}}"
"{'type': 'node', 'id': 4528328142, 'lat': -23.2212403, 'lon': -44.7183152, 'tags': {'amenity': 'dentist', 'healthcare': 'dentist', 'name': 'Maria Júlia Vieira'}}"
"{'type': 'node', 'id': 4528328150, 'lat': -23.2183102, 'lon': -44.7149599, 'tags': {'amenity': 'doctors', 'healthcare': 'psychotherapist', 'name': 'Nayana Cataldo', 'phone': '+5524981430506'}}"
"{'type': 'node', 'id': 4528328188, 'lat': -23.2196451, 'lon': -44.7183082, 'tags': {'amenity': 'pharmacy', 'healthcare': 'pharmacy', 'name': 'Retiro', 'shop': 'chemist'}}"
"{'type': 'node', 'id': 5059352223, 'lat': -22.8357086, 'lon': -45.2572344, 'tags': {'amenity': 'clinic', 'healthcare': 'clinic', 'name': 'Paulo Vitor', 'name:en': 'Paulo Vitor', 'name:pt': 'Paulo Vitor'}}"
"{'type': 'node', 'id': 5059352224, 'lat': -22.8155865, 'lon': -45.1950947, 'tags': {'addr:housenumber': '205', 'addr:postcode': '12500-040', 'addr:street': 'Rua Domingos Rodrigues Alves', 'addr:suburb': 'Centro', 'contact:phone': '+55 12 3144 3677', 'email': 'cirf@cirf.com.br', 'healthcare': 'laboratory', 'name': 'Centro Integrado de Radiologia Facial', 'phone': '+55 12 3132 2717', 'short_name': 'Cirf Radiologia', 'website': 'https://cirfradiologia.com.br/site/'}}"
"{'type': 'node', 'id': 5059352225, 'lat': -22.8334995, 'lon': -45.2199139, 'tags': {'amenity': 'clinic', 'name': 'Prime Radiologia', 'name:en': 'Prime Radiologia', 'name:pt': 'Prime Radiologia'}}"
"{'type': 'node', 'id': 5059352226, 'lat': -22.8677055, 'lon': -45.2606306, 'tags': {'addr:housenumber': '3422', 'addr:postcode': '12570-000', 'addr:street': 'Rua Itaiguara', 'addr:suburb': 'Itaguaçú', 'alt_name': 'ESF Itaguaçú', 'amenity': 'clinic', 'healthcare': 'clinic', 'name': 'Unidade de Saúde da Familia Itaguaçú', 'opening_hours': 'Mo-Fr 07:00-17:00; Sa,Su,PH off', 'phone': '+55 12 3105 8279', 'ref': 'CNES-4046889'}}"
"{'type': 'node', 'id': 5059353221, 'lat': -22.7272176, 'lon': -45.1222685, 'tags': {'amenity': 'clinic', 'healthcare': 'clinic', 'name': 'Cori', 'name:en': 'Cori', 'name:pt': 'Cori'}}"
"{'type': 'node', 'id': 5122778421, 'lat': -23.8183037, 'lon': -45.3675616, 'tags': {'amenity': 'pharmacy', 'healthcare': 'pharmacy', 'name': 'Farma Ilha', 'name:en': 'Island Pharmacy'}}"
"{'type': 'node', 'id': 5296655497, 'lat': -23.4341099, 'lon': -45.0725223, 'tags': {'amenity': 'pharmacy', 'healthcare': 'pharmacy', 'name': 'S.O.S. Farma'}}"
"{'type': 'node', 'id': 5362424191, 'lat': -23.4253077, 'lon': -45.0673402, 'tags': {'amenity': 'pharmacy', 'dispensing': 'yes', 'drive_through': 'no', 'healthcare': 'pharmacy', 'name': 'Drogaria Perequê'}}"
"{'type': 'node', 'id': 5767156253, 'lat': -23.2210065, 'lon': -44.7251659, 'tags': {'amenity': 'pharmacy', 'healthcare': 'pharmacy', 'name': 'Drogaria Litoral'}}"
"{'type': 'node', 'id': 6035082269, 'lat': -22.5632765, 'lon': -44.1432503, 'tags': {'addr:city': 'Barra Mansa', 'addr:street': 'Rua Um', 'addr:suburb': 'Vila Principal', 'amenity': 'clinic', 'healthcare': 'clinic', 'name': 'Posto de Saúde da Família'}}"
"{'type': 'node', 'id': 6199249112, 'lat': -22.7258579, 'lon': -44.1283551, 'tags': {'addr:street': 'Rodovia Engenheiro Saturnino Braga - RJ-155', 'amenity': 'hospital', 'healthcare': 'hospital', 'name': 'Hospital de Rio Claro'}}"
"{'type': 'node', 'id': 6205539058, 'lat': -23.2197081, 'lon': -44.7201973, 'tags': {'amenity': 'pharmacy', 'dispensing': 'yes', 'healthcare': 'pharmacy', 'name': 'Drogaria Super Saúde'}}"
"{'type': 'node', 'id': 6210169882, 'lat': -22.5763135, 'lon': -44.1730798, 'tags': {'addr:city': 'Barra Mansa', 'addr:street': 'Rodovia Presidente Getúlio Vargas - RJ-155', 'amenity': 'pharmacy', 'dispensing': 'yes', 'healthcare': 'pharmacy', 'name': 'Drogaria Goiabal'}}"
"{'type': 'node', 'id': 6318072978, 'lat': -22.5432634, 'lon': -44.1725784, 'tags': {'addr:city': 'Barra Mansa', 'addr:street': 'Rua Duque de Caxias', 'addr:suburb': 'Centro', 'amenity': 'pharmacy', 'dispensing': 'yes', 'healthcare': 'pharmacy', 'name': 'Drogaria Espírito Santo'}}"
"{'type': 'node', 'id': 6555968937, 'lat': -22.734278, 'lon': -45.1042541, 'tags': {'amenity': 'pharmacy', 'dispensing': 'yes', 'healthcare': 'pharmacy', 'name': 'Farma uchoas'}}"
"{'type': 'node', 'id': 6766495846, 'lat': -22.8038376, 'lon': -45.2028343, 'tags': {'addr:city': 'Guaratinguetá', 'addr:housenumber': '1189', 'addr:postcode': '12515-010', 'addr:street': 'Avenida João Pessoa', 'addr:suburb': 'Pedregulho', 'amenity': 'clinic', 'email': 'contato@drsaudeguara.com.br', 'healthcare': 'clinic', 'name': 'Clínica Médica Dr. Saúde Guaratinguetá', 'opening_hours': 'Mo-Fr 07:00 - 18:00', 'payment:cash': 'yes', 'payment:credit_cards': 'yes', 'payment:debit_cards': 'yes', 'phone': '+55123125-9901', 'website': 'https://drsaudeguara.com.br'}}"
"{'type': 'node', 'id': 7080292221, 'lat': -23.815645, 'lon': -45.3687961, 'tags': {'amenity': 'dentist', 'healthcare': 'dentist'}}"
"{'type': 'node', 'id': 8222802130, 'lat': -22.8036431, 'lon': -45.2015408, 'tags': {'addr:housenumber': '35', 'addr:street': 'Rua Guaranis', 'alt_name': 'UBS Pedregulho', 'amenity': 'clinic', 'healthcare': 'clinic', 'healthcare:speciality': 'general;gynaecology;paediatrics', 'name': 'Unidade Básica de Saúde Pedregulho'}}"
"{'type': 'node', 'id': 8225031845, 'lat': -22.8162512, 'lon': -45.1938029, 'tags': {'addr:street': 'Rua Monsenhor Felippo', 'addr:suburb': 'Centro', 'amenity': 'pharmacy', 'dispensing': 'yes', 'drive_through': 'no', 'healthcare': 'pharmacy', 'name': 'Farma Conde', 'website': 'https://www.farmaconde.com.br/'}}"
"{'type': 'node', 'id': 8618806423, 'lat': -22.5457479, 'lon': -44.170127, 'tags': {'addr:city': 'Barra Mansa', 'addr:housenumber': '58', 'addr:postcode': '27330230', 'addr:street': 'Rua Doutor Mário Ramos', 'addr:suburb': 'Centro', 'amenity': 'dentist', 'healthcare': 'dentist', 'healthcare:speciality': 'dentist', 'level': 'Sala_203', 'name': 'Consultório Odontológico Dr. Sérgio Henrique e Dra. Cátia Neumann', 'opening_hours': 'Mo-Fr 08:00-18:00', 'phone': '24992516839', 'website': 'https://www.facebook.com/consultoriodrsergioedracatia'}}"
"{'type': 'node', 'id': 9311573181, 'lat': -22.7422917, 'lon': -45.1299278, 'tags': {'addr:housenumber': '587', 'addr:street': 'Avenida Coronel Marciano', 'amenity': 'pharmacy', 'dispensing': 'yes', 'drive_through': 'no', 'healthcare': 'pharmacy', 'name': 'Farma Uchoas', 'phone': '+55 12 3153 2075'}}"
"{'type': 'node', 'id': 9312756770, 'lat': -22.7409206, 'lon': -45.1284091, 'tags': {'addr:housenumber': '376', 'addr:postcode': '12608-570', 'addr:street': 'Avenida Coronel Marciano', 'addr:suburb': 'Santo Antônio', 'amenity': 'pharmacy', 'dispensing': 'yes', 'drive_through': 'no', 'healthcare': 'pharmacy', 'name': 'farmácia Santo Antônio', 'phone': '+55 12 3301 5007'}}"
"{'type': 'node', 'id': 9313362819, 'lat': -22.7343566, 'lon': -45.1192333, 'tags': {'addr:housenumber': '620', 'addr:street': 'Rua Dom Bosco', 'amenity': 'pharmacy', 'dispensing': 'yes', 'drive_through': 'no', 'healthcare': 'pharmacy', 'name': 'Farma Ponto'}}"
"{'type': 'node', 'id': 9318915775, 'lat': -22.7419583, 'lon': -45.1248236, 'tags': {'addr:street': 'Avenida Tomaz Alves de Figueiredo', 'amenity': 'pharmacy', 'dispensing': 'yes', 'drive_through': 'no', 'healthcare': 'pharmacy', 'name': 'Farmas Uchoa'}}"
"{'type': 'node', 'id': 9318915777, 'lat': -22.7407296, 'lon': -45.1248259, 'tags': {'addr:street': 'Rua Tenente Frederico Ferreira', 'amenity': 'pharmacy', 'dispensing': 'yes', 'healthcare': 'pharmacy', 'name': 'JP Farma', 'phone': '+55 12 3153 2003'}}"
"{'type': 'node', 'id': 9319504188, 'lat': -22.7323956, 'lon': -45.1222919, 'tags': {'addr:street': 'Rua Doutor Rodrigues de Azevedo', 'amenity': 'pharmacy', 'brand': 'Farma Conde', 'brand:wikidata': 'Q100492677', 'dispensing': 'yes', 'drive_through': 'no', 'healthcare': 'pharmacy', 'name': 'Farma Conde'}}"
"{'type': 'node', 'id': 9330801061, 'lat': -23.5821027, 'lon': -45.3277908, 'tags': {'addr:street': 'Rua Pedro Xavier do Nascimento', 'addr:suburb': 'Massaguaçú', 'amenity': 'pharmacy', 'contact:mobile': '+55 12 99205 9065', 'contact:phone': '+55 12 3884 5706', 'delivery': 'yes', 'dispensing': 'yes', 'drive_through': 'no', 'healthcare': 'pharmacy', 'name': 'Drogaria Nova Trevo Massaguaçú', 'phone': '+55 12 3884 2902'}}"
"{'type': 'node', 'id': 9359318210, 'lat': -23.4354551, 'lon': -45.0808879, 'tags': {'addr:street': 'Avenida Professor Thomáz Galhardo', 'addr:suburb': 'Centro', 'amenity': 'pharmacy', 'brand': 'Farma Conde', 'brand:wikidata': 'Q100492677', 'dispensing': 'yes', 'drive_through': 'no', 'healthcare': 'pharmacy', 'name': 'Farma Conde'}}"
"{'type': 'node', 'id': 9516867254, 'lat': -22.5765243, 'lon': -44.9620959, 'tags': {'addr:city': 'Cruzeiro', 'addr:housenumber': '430', 'addr:postcode': '12701-320', 'addr:street': 'Avenida Major Hermógenes', 'addr:suburb': 'Centro', 'amenity': 'clinic', 'healthcare': 'clinic', 'name': 'Sidnei Leal Terapeuta'}}"
"{'type': 'node', 'id': 9603687058, 'lat': -22.733698, 'lon': -45.1193624, 'tags': {'addr:housenumber': '39', 'addr:street': 'Rua Dezenove de Novembro', 'amenity': 'pharmacy', 'contact:mobile': '+55 12 99636 5568', 'delivery': 'yes', 'dispensing': 'yes', 'drive_through': 'no', 'healthcare': 'pharmacy', 'name': 'Farma Uchoas', 'phone': '+55 12 3153 1009'}}"
"{'type': 'node', 'id': 9710411097, 'lat': -23.600977, 'lon': -45.3453891, 'tags': {'amenity': 'pharmacy', 'dispensing': 'yes', 'healthcare': 'pharmacy'}}"
"{'type': 'node', 'id': 9858180336, 'lat': -23.4397191, 'lon': -45.0815783, 'tags': {'addr:city': 'Ubatuba', 'addr:housenumber': '710', 'addr:street': 'Rua Rio Grande do Sul', 'addr:suburb': 'Centro', 'amenity': 'dentist', 'healthcare': 'dentist', 'name': 'Centro Odontológico Municipal de Ubatuba', 'opening_hours': 'Mo-Fr 07:00-17:00', 'operator': 'Prefeitura de Ubatuba', 'source': 'https://www.ubatuba.sp.gov.br/mapa/centro-odontologico/'}}"
"{'type': 'node', 'id': 9947134883, 'lat': -23.2221921, 'lon': -45.3112553, 'tags': {'amenity': 'pharmacy', 'dispensing': 'yes', 'healthcare': 'pharmacy', 'name': 'Farma G'}}"
"{'type': 'node', 'id': 11001473006, 'lat': -22.5490093, 'lon': -44.7897105, 'tags': {'addr:postcode': '12800000', 'addr:street': 'Avenida José Messias de Paula França', 'amenity': 'hospital', 'name': 'E.S.F. da Figueira', 'opening_hours': 'Mo-Fr 08:00-17:00', 'phone': '(12) 3147-2639'}}"
"{'type': 'node', 'id': 11712542629, 'lat': -23.141473, 'lon': -44.16696, 'tags': {'amenity': 'pharmacy', 'healthcare': 'pharmacy'}}"
"{'type': 'node', 'id': 11892377612, 'lat': -22.8386786, 'lon': -45.228096, 'tags': {'amenity': 'hospital', 'healthcare': 'hospital', 'name': 'Centro de Diagnóstico'}}"
"{'type': 'node', 'id': 12042985393, 'lat': -22.5754968, 'lon': -44.959641, 'tags': {'amenity': 'pharmacy', 'name': 'Drogaria São Paulo'}}"
"{'type': 'node', 'id': 12060229686, 'lat': -22.5550572, 'lon': -44.1543635, 'tags': {'addr:street': 'Rua Leonísio Sócrates Batista', 'amenity': 'pharmacy', 'healthcare': 'pharmacy', 'name': 'Drogaria Boa Sorte'}}"
"{'type': 'node', 'id': 12074660427, 'lat': -23.0000112, 'lon': -44.308538, 'tags': {'healthcare': 'yes', 'name': 'Estratégia Sia Saúde Balneário'}}"
"{'type': 'node', 'id': 12077555221, 'lat': -23.0018785, 'lon': -44.3049483, 'tags': {'amenity': 'pharmacy', 'healthcare': 'pharmacy', 'name': 'Drogatur'}}"
"{'type': 'node', 'id': 12077555222, 'lat': -23.0020698, 'lon': -44.3048737, 'tags': {'amenity': 'pharmacy', 'brand': 'Droga Raia', 'brand:wikidata': 'Q10357101', 'healthcare': 'pharmacy', 'name': 'Droga Raia'}}"
"{'type': 'node', 'id': 12077555381, 'lat': -23.0037282, 'lon': -44.2994784, 'tags': {'amenity': 'pharmacy', 'healthcare': 'pharmacy', 'name': 'Drogatur'}}"
"{'type': 'node', 'id': 12077555384, 'lat': -23.0034729, 'lon': -44.2997243, 'tags': {'amenity': 'pharmacy', 'brand': 'Pacheco', 'brand:wikidata': 'Q10268813', 'healthcare': 'pharmacy', 'name': 'Pacheco'}}"
"{'type': 'node', 'id': 12077555400, 'lat': -23.0006912, 'lon': -44.3025157, 'tags': {'amenity': 'pharmacy', 'healthcare': 'pharmacy', 'name': 'Drogaria Venâncio'}}"
"{'type': 'node', 'id': 12086317040, 'lat': -23.0000478, 'lon': -44.3058842, 'tags': {'healthcare': 'centre', 'name': 'ESF Balneário'}}"
"{'type': 'node', 'id': 12227974201, 'lat': -23.0058218, 'lon': -44.3168432, 'tags': {'amenity': 'pharmacy', 'name': 'Pacheco'}}"
