OSM_Data
"{'type': 'node', 'id': 2112739852, 'lat': -22.8876718, 'lon': -48.4456343, 'tags': {'amenity': 'hospital', 'emergency': 'no', 'healthcare': 'hospital', 'name': 'Misericórdia Botucatuense'}}"
"{'type': 'node', 'id': 2116143731, 'lat': -22.8926009, 'lon': -48.4452119, 'tags': {'addr:housenumber': '664', 'addr:postcode': '18602-092', 'addr:street': 'Avenida Dom Lúcio', 'amenity': 'pharmacy', 'brand': 'Drogasil', 'brand:wikidata': 'Q5308185', 'brand:wikipedia': 'pt:Drogasil', 'dispensing': 'yes', 'healthcare': 'pharmacy', 'name': 'Drogasil', 'website': 'https://www.drogasil.com.br/', 'wheelchair': 'yes'}}"
"{'type': 'node', 'id': 2132386463, 'lat': -22.8982836, 'lon': -48.4493254, 'tags': {'addr:housename': 'Policlínica Cecap Botucatu', 'addr:postcode': '18606-110', 'addr:street': 'Praça Carlos Cesar', 'alt_name': 'Posto de Saúde Cecap', 'amenity': 'clinic', 'building': 'yes', 'healthcare': 'clinic', 'name': 'Policlínica Cecap', 'note': 'Local sem número'}}"
"{'type': 'node', 'id': 3184715182, 'lat': -24.00545, 'lon': -48.3499312, 'tags': {'amenity': 'pharmacy', 'dispensing': 'no', 'healthcare': 'pharmacy', 'name': 'Farmácia Santa Cruz'}}"
"{'type': 'node', 'id': 3210445761, 'lat': -24.0096397, 'lon': -48.340388, 'tags': {'amenity': 'clinic', 'healthcare': 'clinic', 'name': 'Unidade Básica de Saúde Vila Cruzeiro', 'short_name': 'UBS Vila Cruzeiro'}}"
"{'type': 'node', 'id': 3210524325, 'lat': -24.0120291, 'lon': -48.3444188, 'tags': {'amenity': 'pharmacy', 'healthcare': 'pharmacy', 'name': 'Drogaria Avenida'}}"
"{'type': 'node', 'id': 3700976325, 'lat': -24.0066785, 'lon': -48.3538707, 'tags': {'amenity': 'clinic', 'healthcare': 'clinic', 'name': 'Terapia Reiki'}}"
"{'type': 'node', 'id': 3700988489, 'lat': -24.0076526, 'lon': -48.3414355, 'tags': {'amenity': 'pharmacy', 'healthcare': 'pharmacy', 'name': 'Drogaria Estrela Dalva'}}"
"{'type': 'node', 'id': 4060255580, 'lat': -24.0052927, 'lon': -48.3487254, 'tags': {'amenity': 'dentist', 'healthcare': 'dentist', 'name': 'Centro Odontológico Integrado'}}"
"{'type': 'node', 'id': 4286037816, 'lat': -24.0062615, 'lon': -48.3492262, 'tags': {'amenity': 'pharmacy', 'healthcare': 'pharmacy', 'name': 'Farmácia Santa Cruz'}}"
"{'type': 'node', 'id': 4335932861, 'lat': -22.8805721, 'lon': -48.4436463, 'tags': {'amenity': 'clinic', 'healthcare': 'clinic', 'name': 'SAMU'}}"
"{'type': 'node', 'id': 4358191124, 'lat': -23.4344487, 'lon': -48.8741657, 'tags': {'amenity': 'hospital', 'healthcare': 'hospital'}}"
"{'type': 'node', 'id': 4360792427, 'lat': -23.4442768, 'lon': -48.8835182, 'tags': {'amenity': 'hospital', 'name': 'Unidade de Saúde de Campos de Holambra'}}"
"{'type': 'node', 'id': 4565463296, 'lat': -22.8890979, 'lon': -48.4968778, 'tags': {'amenity': 'hospital', 'emergency': 'yes', 'healthcare': 'hospital', 'name': 'Pronto Socorro HCFMB'}}"
"{'type': 'node', 'id': 4835269055, 'lat': -22.8879923, 'lon': -48.4882902, 'tags': {'amenity': 'hospital', 'healthcare': 'hospital', 'name': 'Serviço de Ambulatórios Especializados de Infectologia “Domingos Alves Meira”'}}"
"{'type': 'node', 'id': 5224545510, 'lat': -22.8869873, 'lon': -48.4447265, 'tags': {'amenity': 'pharmacy', 'brand': 'Drogaria São Paulo', 'brand:wikidata': 'Q5308184', 'brand:wikipedia': 'en:Grupo DPSP', 'dispensing': 'yes', 'drive_through': 'no', 'healthcare': 'pharmacy', 'name': 'Drogaria São Paulo'}}"
"{'type': 'node', 'id': 5260559057, 'lat': -22.8879941, 'lon': -49.2390483, 'tags': {'amenity': 'hospital', 'healthcare': 'hospital', 'name': 'Pronto Socorro Municipal'}}"
"{'type': 'node', 'id': 5361931747, 'lat': -23.3720599, 'lon': -48.184202, 'tags': {'addr:postcode': '18250-000', 'addr:street': 'Rua São Paulo', 'amenity': 'pharmacy', 'healthcare': 'pharmacy', 'name': 'Farmácia Carifarma'}}"
"{'type': 'node', 'id': 5741691820, 'lat': -23.597797, 'lon': -48.3173691, 'tags': {'addr:housenumber': '45', 'addr:street': 'Rua Alberto Ernesto Gunter', 'amenity': 'pharmacy', 'dispensing': 'yes', 'healthcare': 'pharmacy', 'name': 'Drogaria São Rafael'}}"
"{'type': 'node', 'id': 5744378456, 'lat': -23.5918593, 'lon': -48.0531035, 'tags': {'addr:city': 'Itapetininga', 'addr:housenumber': '518', 'addr:street': 'Praça nove de Julho', 'addr:suburb': 'Centro', 'amenity': 'clinic', 'healthcare': 'clinic', 'name': 'Unidade básica de saúde Doutor Genefredo Monteiro', 'operator': 'Prefeitura de Itapetininga', 'short_name': 'UBS Doutor Genefredo Monteiro'}}"
"{'type': 'node', 'id': 5852595787, 'lat': -23.5882653, 'lon': -48.0529642, 'tags': {'addr:city': 'Itapetininga', 'addr:housenumber': '235', 'addr:street': 'Rua Bernandino de Campos', 'addr:suburb': 'Centro', 'amenity': 'dentist', 'healthcare': 'dentist', 'name': 'Art Dentaire', 'phone': '+55 15 3275-1166', 'website': 'https://www.artdentaire.com.br/'}}"
"{'type': 'node', 'id': 8281597576, 'lat': -22.8775171, 'lon': -48.4776959, 'tags': {'amenity': 'hospital', 'healthcare': 'hospital', 'name': 'AME Botucatu'}}"
"{'type': 'node', 'id': 8758202104, 'lat': -23.1968111, 'lon': -49.3813345, 'tags': {'amenity': 'hospital', 'healthcare': 'hospital', 'operator': 'Sociedade de Beneficência de Piraju'}}"
"{'type': 'node', 'id': 8989168028, 'lat': -23.5919373, 'lon': -48.0594915, 'tags': {'addr:city': 'Itapetininga', 'addr:housenumber': '450', 'addr:street': 'Avenida Cinco de Novembro', 'amenity': 'pharmacy', 'brand': 'Drogasil', 'brand:wikidata': 'Q5308185', 'brand:wikipedia': 'pt:Drogasil', 'dispensing': 'yes', 'healthcare': 'pharmacy', 'name': 'Drogasil', 'wheelchair': 'yes'}}"
"{'type': 'node', 'id': 10134508485, 'lat': -24.0108318, 'lon': -48.3429169, 'tags': {'amenity': 'pharmacy', 'dispensing': 'yes', 'healthcare': 'pharmacy', 'name': 'Drogaria Econômica'}}"
"{'type': 'node', 'id': 10134556717, 'lat': -24.0107975, 'lon': -48.3431468, 'tags': {'amenity': 'clinic', 'healthcare': 'clinic', 'name': 'Alergoclínica Rota'}}"
"{'type': 'node', 'id': 11144553349, 'lat': -23.1979204, 'lon': -49.3850367, 'tags': {'addr:city': 'Piraju', 'addr:housenumber': '838', 'addr:street': 'Rua Major Mariano', 'amenity': 'pharmacy', 'healthcare': 'pharmacy', 'name': 'Drogacentro'}}"
"{'type': 'node', 'id': 11144553350, 'lat': -23.1980894, 'lon': -49.3840552, 'tags': {'addr:city': 'Piraju', 'addr:housenumber': '66', 'addr:street': 'Avenida Doutor Domingos Teodoro Gallo', 'amenity': 'pharmacy', 'healthcare': 'pharmacy', 'name': 'Drogarias Ultra Popular'}}"
"{'type': 'node', 'id': 11146217221, 'lat': -23.2009699, 'lon': -49.371331, 'tags': {'addr:city': 'Piraju', 'addr:housenumber': '360', 'addr:street': 'Rua Dino Bonameti', 'amenity': 'clinic', 'healthcare': 'clinic', 'name': 'Centro de Atenção Psicossocial Doutor Wandercy Bérgamo'}}"
"{'type': 'node', 'id': 11265743640, 'lat': -23.5884945, 'lon': -48.0530477, 'tags': {'addr:city': 'Itapetininga', 'addr:housenumber': '220', 'addr:street': 'Rua Bernardino de Campos', 'addr:suburb': 'Centro', 'amenity': 'doctors', 'healthcare': 'doctor', 'healthcare:speciality': 'urology;surgery;dermatology', 'name': 'Clínica Geral de Itapetininga'}}"
"{'type': 'node', 'id': 12059879637, 'lat': -23.5897102, 'lon': -48.0533944, 'tags': {'addr:city': 'Itapetininga', 'addr:housenumber': '178', 'addr:street': 'Rua Campos Salles', 'addr:suburb': 'Centro', 'amenity': 'doctors', 'healthcare': 'doctor', 'name': 'Clínica Especializada Mama'}}"
"{'type': 'node', 'id': 12059879644, 'lat': -23.5887056, 'lon': -48.0548183, 'tags': {'addr:city': 'Itapetininga', 'addr:housenumber': '47', 'addr:street': 'Rua Bernardino de Campos', 'addr:suburb': 'Centro', 'amenity': 'doctors', 'healthcare': 'doctor', 'healthcare:speciality': 'otolaryngology', 'name': 'Clínica Dr Edson Herkes'}}"
"{'type': 'node', 'id': 12063615728, 'lat': -22.7333021, 'lon': -48.5709847, 'tags': {'amenity': 'hospital', 'healthcare': 'hospital', 'name': 'Casa Pia São Vicente de Paula'}}"
"{'type': 'node', 'id': 12301852729, 'lat': -23.5913685, 'lon': -48.0619799, 'tags': {'addr:city': 'Itapetininga', 'addr:housenumber': '410', 'addr:street': 'Avenida Padre Antônio Brunetti', 'addr:suburb': 'Vila Rio Branco', 'amenity': 'pharmacy', 'healthcare': 'pharmacy', 'name': 'Drogaria Saúde e Perfumaria Cravo & Canela'}}"
"{'type': 'node', 'id': 12310905658, 'lat': -23.6152629, 'lon': -48.0776216, 'tags': {'addr:city': 'Itapetininga', 'addr:housenumber': '932', 'addr:street': 'Rua Josepha Zaglobynski Krapt', 'amenity': 'clinic', 'healthcare': 'clinic', 'name': 'Centro de Pesquisa e Reabilitação Visual de Itapetininga'}}"
"{'type': 'node', 'id': 12384220315, 'lat': -23.5880733, 'lon': -48.0549458, 'tags': {'addr:city': 'Itapetininga', 'addr:housenumber': '29', 'addr:street': 'Rua Benjamin Constant', 'amenity': 'doctors', 'healthcare': 'doctor', 'healthcare:speciality': 'haematology;hemoterapia', 'name': 'Clínica Dra.Goretti Marques'}}"
"{'type': 'node', 'id': 12478403584, 'lat': -23.4912137, 'lon': -48.4028115, 'tags': {'amenity': 'clinic', 'healthcare': 'clinic', 'name': 'ESF Cyro de Almeida Melo'}}"
"{'type': 'node', 'id': 12505697573, 'lat': -23.7700965, 'lon': -48.1313842, 'tags': {'addr:city': 'Itapetininga', 'addr:housenumber': '31', 'addr:street': 'Rua Francisco de Souza Alves', 'addr:suburb': 'Gramadinho', 'amenity': 'pharmacy', 'healthcare': 'pharmacy', 'name': 'Farmácia Pharma Vida'}}"
