OSM_Data
"{'type': 'node', 'id': 444694791, 'lat': 54.4751403, 'lon': 26.4175281, 'tags': {'amenity': 'pharmacy', 'dispensing': 'no', 'healthcare': 'pharmacy'}}"
"{'type': 'node', 'id': 494839660, 'lat': 55.594901, 'lon': 26.4514277, 'tags': {'addr:city': 'Visaginas', 'addr:contact': 'yes', 'addr:housenumber': '80A', 'addr:street': 'Taikos pr.', 'amenity': 'pharmacy', 'name': 'Camelia'}}"
"{'type': 'node', 'id': 669898596, 'lat': 55.3416665, 'lon': 26.1641232, 'tags': {'amenity': 'pharmacy', 'brand': 'Eurovaistinė', 'brand:wikidata': 'Q267205', 'brand:wikipedia': 'en:Euroapotheca', 'dispensing': 'yes', 'healthcare': 'pharmacy', 'name': 'Eurovaistinė'}}"
"{'type': 'node', 'id': 830907206, 'lat': 55.5973847, 'lon': 26.4349404, 'tags': {'addr:city': 'Visaginas', 'addr:contact': 'yes', 'addr:housenumber': '2', 'addr:street': 'Veteranų g.', 'amenity': 'pharmacy', 'name': 'Camelia'}}"
"{'type': 'node', 'id': 831581271, 'lat': 55.5976258, 'lon': 26.4246897, 'tags': {'addr:city': 'Visaginas', 'addr:contact': 'yes', 'addr:housenumber': '7', 'addr:postcode': '31125', 'addr:street': 'Parko g.', 'amenity': 'pharmacy', 'name': 'Camelia'}}"
"{'type': 'node', 'id': 959482256, 'lat': 55.6034691, 'lon': 26.4310652, 'tags': {'amenity': 'pharmacy', 'dispensing': 'no', 'name': 'Camelia'}}"
"{'type': 'node', 'id': 1094976047, 'lat': 54.4899604, 'lon': 26.9173619, 'tags': {'addr:housenumber': '10', 'addr:street': 'вуліца 1 Мая', 'amenity': 'pharmacy', 'drive_through': 'no', 'healthcare': 'pharmacy', 'opening_hours': '8:00-20:00', 'operator': 'ОДО ""Квэрк""'}}"
"{'type': 'node', 'id': 1416357660, 'lat': 55.7323965, 'lon': 26.2440492, 'tags': {'amenity': 'dentist', 'healthcare': 'dentist'}}"
"{'type': 'node', 'id': 1649612208, 'lat': 55.5737628, 'lon': 27.3569799, 'tags': {'amenity': 'pharmacy', 'healthcare': 'pharmacy'}}"
"{'type': 'node', 'id': 1687158555, 'lat': 55.7330832, 'lon': 26.2554292, 'tags': {'addr:city': 'Zarasai', 'addr:contact': 'yes', 'addr:housenumber': '4', 'addr:postcode': '32129', 'addr:street': 'Malūno g.', 'amenity': 'pharmacy', 'brand': 'Camelia', 'brand:wikidata': 'Q15867413', 'dispensing': 'no', 'healthcare': 'pharmacy', 'name': 'Camelia'}}"
"{'type': 'node', 'id': 1687158587, 'lat': 55.7364238, 'lon': 26.2646849, 'tags': {'addr:city': 'Zarasai', 'addr:contact': 'yes', 'addr:housenumber': '54', 'addr:street': 'Vytauto g.', 'amenity': 'pharmacy', 'dispensing': 'no', 'name': 'Camelia'}}"
"{'type': 'node', 'id': 1753754569, 'lat': 55.3669637, 'lon': 27.4700521, 'tags': {'amenity': 'pharmacy', 'dispensing': 'yes', 'healthcare': 'pharmacy'}}"
"{'type': 'node', 'id': 2102477937, 'lat': 55.3656357, 'lon': 27.4681902, 'tags': {'amenity': 'pharmacy', 'dispensing': 'no', 'healthcare': 'pharmacy'}}"
"{'type': 'node', 'id': 2405177496, 'lat': 55.640126, 'lon': 27.0299846, 'tags': {'addr:postcode': '211970', 'amenity': 'pharmacy', 'contact:phone': '+375 2153 64365', 'contact:website': 'https://alfaapteka.by', 'dispensing': 'yes', 'healthcare': 'pharmacy', 'int_name': 'Apteka', 'name': 'Альфа Аптека №7', 'name:be': 'Альфа Аптэка №7', 'name:en': 'Interpharm', 'name:ru': 'Альфа Аптека №7', 'opening_hours': 'Mo-Fr 08:00-20:00; Sa-Su 09:00-18:00', 'operator': 'Интерфарм'}}"
"{'type': 'node', 'id': 2481232317, 'lat': 55.6412231, 'lon': 27.0416519, 'tags': {'addr:housenumber': '6', 'addr:street': 'Садовая вуліца', 'amenity': 'pharmacy', 'email': 'apteka7@vitvar.by', 'healthcare': 'pharmacy', 'int_name': 'Apteka №7 Vitvar', 'name': 'Вітвар №7', 'name:be': 'Вітвар №7', 'name:en': 'VitVar № 7', 'name:ru': 'ВитВар № 7', 'opening_hours': 'Mo-Su 08:00-13:00, 14:00-20:00', 'operator': 'ООО «ВитВар»', 'phone': '+375 (2153) 6-14-23', 'website': 'https://www.vitvar.by/'}}"
"{'type': 'node', 'id': 2862154102, 'lat': 55.1190471, 'lon': 26.8138187, 'tags': {'addr:housenumber': '4', 'addr:street': 'Зялёная вуліца', 'amenity': 'pharmacy', 'healthcare': 'pharmacy', 'int_name': 'Apteka №233', 'name': 'Аптека №233', 'name:be': 'Аптэка №233', 'name:ru': 'Аптека №233', 'opening_hours': 'Mo-Fr 9:00-13:00,14:00-18:00', 'phone': '+375215541913'}}"
"{'type': 'node', 'id': 3018557209, 'lat': 54.936628, 'lon': 26.6904971, 'tags': {'amenity': 'pharmacy', 'healthcare': 'pharmacy'}}"
"{'type': 'node', 'id': 3208870013, 'lat': 54.4804051, 'lon': 26.8966394, 'tags': {'amenity': 'pharmacy', 'healthcare': 'pharmacy', 'int_name': 'Apteka', 'name': 'Аптека', 'name:be': 'Аптэка', 'name:ru': 'Аптека'}}"
"{'type': 'node', 'id': 3208870830, 'lat': 54.4816921, 'lon': 26.891288, 'tags': {'amenity': 'pharmacy', 'healthcare': 'pharmacy', 'int_name': 'Apteka', 'name': 'Аптека', 'name:be': 'Аптэка', 'name:ru': 'Аптека'}}"
"{'type': 'node', 'id': 3486870676, 'lat': 54.909277, 'lon': 26.7061336, 'tags': {'amenity': 'pharmacy', 'healthcare': 'pharmacy', 'name': 'Аптека', 'name:be': 'Аптэка', 'name:ru': 'Аптека'}}"
"{'type': 'node', 'id': 3809197354, 'lat': 54.4840375, 'lon': 26.8967529, 'tags': {'addr:housenumber': '60', 'addr:street': 'вуліца Чапаева', 'amenity': 'pharmacy', 'healthcare': 'pharmacy', 'name': 'Планта здароўя', 'name:be': 'Планта здароўя', 'name:ru': 'Планта здоровья', 'opening_hours': 'Mo-Su 09:00-21:00'}}"
"{'type': 'node', 'id': 3898927478, 'lat': 54.7134261, 'lon': 26.63891, 'tags': {'amenity': 'hospital', 'name': 'ФАП', 'name:be': 'ФАП', 'name:ru': 'ФАП'}}"
"{'type': 'node', 'id': 4035541791, 'lat': 54.4888748, 'lon': 26.9141354, 'tags': {'amenity': 'dentist', 'healthcare': 'dentist', 'name': 'Стаматалогія', 'name:be': 'Стаматалогія', 'name:ru': 'Стоматология'}}"
"{'type': 'node', 'id': 4046016952, 'lat': 54.8688834, 'lon': 26.9343209, 'tags': {'amenity': 'pharmacy', 'brand': 'Минская Фармация', 'brand:be': 'Мінская Фармацыя', 'brand:en': 'Minskaya Pharmacia', 'brand:ru': 'Минская Фармация', 'brand:wikidata': 'Q108553370', 'contact:email': 'inf@minfarm.by', 'contact:phone': '+375 1797 22830', 'contact:website': 'http://minfarm.by/', 'healthcare': 'pharmacy', 'name': 'Минская Фармация', 'name:be': 'Мінская Фармацыя', 'name:en': 'Minskaya Pharmacia', 'name:ru': 'Минская Фармация', 'opening_hours': 'Mo-Su 10:30-15:30,16:00-22:00', 'operator': 'Торгово-производственное республиканское унитарное предприятие ""Минская Фармация""'}}"
"{'type': 'node', 'id': 4204548407, 'lat': 54.4751453, 'lon': 26.4154461, 'tags': {'amenity': 'pharmacy', 'healthcare': 'pharmacy', 'name': 'Искамед', 'name:be': 'Іскамед', 'name:ru': 'Искамед'}}"
"{'type': 'node', 'id': 4204972471, 'lat': 54.4809383, 'lon': 26.398361, 'tags': {'amenity': 'dentist', 'healthcare': 'dentist'}}"
"{'type': 'node', 'id': 4209993290, 'lat': 54.4919748, 'lon': 26.9166738, 'tags': {'amenity': 'pharmacy', 'healthcare': 'pharmacy'}}"
"{'type': 'node', 'id': 4262087019, 'lat': 55.1100693, 'lon': 26.8633326, 'tags': {'addr:city': 'Паставы', 'addr:housenumber': '8', 'addr:postcode': '211875', 'addr:street': 'Юбілейная вуліца', 'amenity': 'pharmacy', 'drive_through': 'no', 'healthcare': 'pharmacy', 'opening_hours': 'Mo-Fr 08:00-20:00; Sa-Su 09:00-15:00', 'operator': 'ЧТУП ""Михалевич""'}}"
"{'type': 'node', 'id': 4271656291, 'lat': 54.9032727, 'lon': 26.6754277, 'tags': {'amenity': 'pharmacy', 'healthcare': 'pharmacy'}}"
"{'type': 'node', 'id': 4271699689, 'lat': 54.9032753, 'lon': 26.677152, 'tags': {'amenity': 'doctors', 'healthcare': 'doctor', 'name': 'корпус Лячэбны', 'name:be': 'корпус Лячэбны', 'name:ru': 'корпус Лечебный'}}"
"{'type': 'node', 'id': 4296734504, 'lat': 54.910016, 'lon': 26.7080748, 'tags': {'addr:street': 'Ленінская вуліца', 'amenity': 'pharmacy', 'healthcare': 'pharmacy', 'name': 'Аптека 308', 'name:be': 'Аптэка 308', 'name:ru': 'Аптека 308', 'opening_hours': 'Tu-Sa 10:00-14:00,15:00-18:00'}}"
"{'type': 'node', 'id': 4316346797, 'lat': 55.05879, 'lon': 26.6057729, 'tags': {'amenity': 'pharmacy', 'healthcare': 'pharmacy', 'name': 'Аптека', 'name:be': 'Аптэка', 'name:ru': 'Аптека'}}"
"{'type': 'node', 'id': 4370727389, 'lat': 55.6346882, 'lon': 27.042729, 'tags': {'amenity': 'pharmacy', 'healthcare': 'pharmacy', 'name': 'Аптэка №105', 'name:be': 'Аптэка №105', 'name:ru': 'Аптека №105', 'phone': '+375-2153-6-50-39', 'website': 'http://pharmacia.by/'}}"
"{'type': 'node', 'id': 4464953359, 'lat': 54.4753342, 'lon': 26.4250387, 'tags': {'amenity': 'dentist', 'healthcare': 'dentist', 'inscription': 'Стоматология', 'name': 'Рыялетастыль', 'name:be': 'Рыялетастыль', 'name:ru': 'Риолетастиль'}}"
"{'type': 'node', 'id': 4513630886, 'lat': 55.1161955, 'lon': 26.8790755, 'tags': {'amenity': 'pharmacy', 'healthcare': 'pharmacy', 'name': 'Аптэка № 372', 'name:be': 'Аптэка № 372', 'name:ru': 'Аптека № 372', 'opening_hours': 'Mo-Fr 08:30-19:00; Sa-Su 09:00-16:00', 'phone': '+375215541334'}}"
"{'type': 'node', 'id': 4513630887, 'lat': 55.1158902, 'lon': 26.8803512, 'tags': {'addr:city': 'Паставы', 'amenity': 'clinic', 'healthcare': 'clinic', 'name': 'Аддзяленне ўрачоў агульнай практыкі', 'name:be': 'Аддзяленне ўрачоў агульнай практыкі', 'name:ru': 'Отделение врачей общей практики', 'opening_hours': 'Mo-Fr 08:00-18:00; Sa 08:00-12:00'}}"
"{'type': 'node', 'id': 4648648490, 'lat': 54.4811269, 'lon': 26.3992608, 'tags': {'addr:housenumber': '5', 'addr:street': 'Савецкая вуліца', 'amenity': 'dentist', 'healthcare': 'dentist', 'inscription': 'Стоматологический кабинет', 'name': 'Стоматологический кабинет', 'name:ru': 'В центре', 'opening_hours': '13:00-20:00; Jan 01-31/2,Feb 01-29/2,Mar 01-31/2,Apr 01-30/2,May 01-31/2,Jun 01-30/2,Jul 01-31/2,Aug 01-31/2,Sep 01-30/2,Oct 01-31/2,Nov 01-30/2,Dec 01-31/2 08:00-14:00; Su off; Sa off'}}"
"{'type': 'node', 'id': 4648649989, 'lat': 54.4811022, 'lon': 26.3994458, 'tags': {'addr:housenumber': '5', 'addr:street': 'Савецкая вуліца', 'amenity': 'pharmacy', 'healthcare': 'pharmacy', 'name': 'Доминантафарм', 'name:ru': 'Доминантафарм', 'opening_hours': 'Mo-Fr 08:00-20:00; Sa 09:00-19:00; Su 09:00-18:00'}}"
"{'type': 'node', 'id': 4656377554, 'lat': 54.5053938, 'lon': 26.3744845, 'tags': {'amenity': 'pharmacy', 'healthcare': 'pharmacy'}}"
"{'type': 'node', 'id': 4656939480, 'lat': 54.4817106, 'lon': 26.3997053, 'tags': {'addr:street': 'Савецкая вуліца', 'amenity': 'pharmacy', 'drive_through': 'no', 'healthcare': 'pharmacy', 'name': 'Аптека', 'name:be': 'Аптэка', 'name:ru': 'Аптека'}}"
"{'type': 'node', 'id': 4657166773, 'lat': 54.4786238, 'lon': 26.4160104, 'tags': {'amenity': 'pharmacy', 'healthcare': 'pharmacy'}}"
"{'type': 'node', 'id': 4660227825, 'lat': 54.4814515, 'lon': 26.4020926, 'tags': {'amenity': 'pharmacy', 'healthcare': 'pharmacy'}}"
"{'type': 'node', 'id': 4809539723, 'lat': 54.8292905, 'lon': 27.4570483, 'tags': {'amenity': 'doctors', 'healthcare': 'doctor', 'name': 'Фельчарскі-акушэрскі пункт', 'name:be': 'Фельчарскі-акушэрскі пункт', 'name:ru': 'Фельдшерско-акушерский пункт', 'short_name': 'ФАП'}}"
"{'type': 'node', 'id': 4874964921, 'lat': 54.4850729, 'lon': 26.3819962, 'tags': {'amenity': 'dentist', 'healthcare': 'dentist'}}"
"{'type': 'node', 'id': 4876351722, 'lat': 54.4784724, 'lon': 26.4198139, 'tags': {'amenity': 'pharmacy', 'healthcare': 'pharmacy'}}"
"{'type': 'node', 'id': 4876353023, 'lat': 54.4786463, 'lon': 26.4159043, 'tags': {'amenity': 'clinic'}}"
"{'type': 'node', 'id': 4908891130, 'lat': 54.7141467, 'lon': 27.290815, 'tags': {'addr:city': 'Крывічы', 'addr:postcode': '222376', 'amenity': 'hospital', 'level': '2', 'name': 'Бальніца/Паліклініка', 'name:be': 'Бальніца/Паліклініка', 'name:ru': 'Больница/Поликлиника'}}"
"{'type': 'node', 'id': 4924745661, 'lat': 55.1130912, 'lon': 26.8465616, 'tags': {'amenity': 'dentist', 'healthcare': 'dentist', 'name': 'Стаматалагічны кабінет', 'name:be': 'Стаматалагічны кабінет', 'name:ru': 'Стоматологический кабинет', 'opening_hours': 'Mo-Fr 09:00-12:30, 13:00-16:00'}}"
"{'type': 'node', 'id': 4943622352, 'lat': 55.1144587, 'lon': 26.839957, 'tags': {'addr:city': 'Паставы', 'addr:housenumber': '1', 'addr:street': 'Ленінская вуліца', 'amenity': 'pharmacy', 'healthcare': 'pharmacy', 'name': 'Аптека', 'name:be': 'Аптэка', 'name:ru': 'Аптека', 'operator': 'ЧТУП ""Михалевич""'}}"
"{'type': 'node', 'id': 4995182449, 'lat': 55.0847611, 'lon': 27.2408553, 'tags': {'addr:city': 'Дунілавічы', 'addr:housenumber': '5', 'addr:street': 'Школьная вуліца', 'amenity': 'hospital', 'healthcare': 'hospital', 'name': 'Дунілавіцкая ўчастковая бальніца', 'name:be': 'Дунілавіцкая ўчастковая бальніца', 'name:ru': 'Дуниловичская участковая больница', 'phone': '+375 21 5559040'}}"
"{'type': 'node', 'id': 4995184903, 'lat': 55.0751355, 'lon': 27.2358191, 'tags': {'amenity': 'pharmacy', 'healthcare': 'pharmacy'}}"
"{'type': 'node', 'id': 5047858422, 'lat': 54.8664603, 'lon': 26.9325882, 'tags': {'addr:housenumber': '20', 'addr:street': 'вуліца 17 Верасня', 'amenity': 'pharmacy', 'healthcare': 'pharmacy', 'name': 'Аптэка №131', 'name:be': 'Аптэка №131', 'name:ru': 'Аптека №131', 'phone': '+375 1797 55264'}}"
"{'type': 'node', 'id': 5059883798, 'lat': 54.8683026, 'lon': 26.9319842, 'tags': {'amenity': 'pharmacy', 'healthcare': 'pharmacy', 'name': 'Мая Аптэка ТАА Аптэка №56', 'name:be': 'Мая Аптэка ТАА Аптэка №56', 'name:ru': 'Моя Аптека ООО Аптека №56', 'opening_hours': 'Mo-Fr 09:00-21:00; Sa,Su 09:00-19:00', 'phone': '+375-17-9722446'}}"
"{'type': 'node', 'id': 5066934207, 'lat': 55.1169898, 'lon': 26.8764702, 'tags': {'amenity': 'pharmacy', 'contact:email': 'info@d-leki.by', 'contact:instagram': 'https://www.instagram.com/apteka_adel', 'contact:phone': '+375 25 5355757;+375 29 5355757;+375 44 5355757', 'contact:vk': 'https://vk.com/apteka_adel', 'contact:website': 'https://d-leki.by/', 'healthcare': 'pharmacy', 'name': 'Добрыя леки', 'name:be': 'Добрыя лекі', 'name:ru': 'Добрыя леки', 'opening_hours': 'Mo-Fr 10:00-18:00', 'operator': '""Фарммаркет""'}}"
"{'type': 'node', 'id': 5119428023, 'lat': 54.5132021, 'lon': 26.9288974, 'tags': {'amenity': 'pharmacy', 'contact:email': 'inf@minfarm.by', 'contact:phone': '+375 1771 20939', 'contact:website': 'http://minfarm.by/', 'healthcare': 'pharmacy', 'name': 'Минская Фармация', 'name:be': 'Мінская Фармацыя', 'name:en': 'Minskaya Pharmacia', 'name:ru': 'Минская Фармация', 'opening_hours': 'Mo-Tu,Th-Fr 09:40-13:00,13:30-17:30', 'operator': 'Торгово-производственное республиканское унитарное предприятие ""Минская Фармация""'}}"
"{'type': 'node', 'id': 5250265211, 'lat': 55.3167438, 'lon': 26.6732359, 'tags': {'addr:city': 'Didžiasalis', 'addr:housenumber': '23', 'addr:postcode': '30157', 'addr:street': 'Salos g.', 'healthcare': 'doctor', 'healthcare:speciality': 'general', 'name': 'Didžiasalio ambulatorija', 'operator': 'Ignalinos rajono poliklinika'}}"
"{'type': 'node', 'id': 5250265212, 'lat': 55.3180343, 'lon': 26.6747866, 'tags': {'addr:city': 'Didžiasalis', 'addr:housenumber': '9A', 'addr:postcode': '30157', 'addr:street': 'Agarinio g.', 'healthcare': 'doctor', 'healthcare:speciality': 'general', 'name': 'ISC Didžiasalio padalinys', 'operator': 'Ignalinos sveikatos centras'}}"
"{'type': 'node', 'id': 5347718794, 'lat': 54.4817265, 'lon': 26.3984455, 'tags': {'amenity': 'pharmacy', 'healthcare': 'pharmacy'}}"
"{'type': 'node', 'id': 5347989116, 'lat': 54.473002, 'lon': 26.416594, 'tags': {'amenity': 'pharmacy', 'healthcare': 'pharmacy', 'name': 'іскамед', 'name:be': 'іскамед', 'name:ru': 'искамед'}}"
"{'type': 'node', 'id': 5395332999, 'lat': 55.10125, 'lon': 26.8371879, 'tags': {'amenity': 'pharmacy', 'dispensing': 'yes', 'healthcare': 'pharmacy', 'name': 'Аптэка № 232', 'name:be': 'Аптэка № 232', 'name:ru': 'Аптека № 232', 'opening_hours': 'Mo-Fr 08:00-18:00', 'operator': 'Фармация'}}"
"{'type': 'node', 'id': 5482712521, 'lat': 54.4805323, 'lon': 26.4016154, 'tags': {'amenity': 'pharmacy', 'healthcare': 'pharmacy', 'name': 'Планета здоровья', 'name:be': 'Планета здароўя', 'name:ru': 'Планета здоровья'}}"
"{'type': 'node', 'id': 5585901122, 'lat': 55.3678212, 'lon': 27.4575302, 'tags': {'amenity': 'dentist', 'healthcare': 'dentist', 'name': 'Хуткая дапамога', 'name:be': 'Хуткая дапамога', 'name:ru': 'Скорая помощь'}}"
"{'type': 'node', 'id': 5585901123, 'lat': 55.36724, 'lon': 27.457831, 'tags': {'amenity': 'dentist', 'healthcare': 'dentist', 'name': 'Зубапратэзны', 'name:be': 'Зубапратэзны', 'name:ru': 'Зубопротезный'}}"
"{'type': 'node', 'id': 5585901124, 'lat': 55.3680595, 'lon': 27.4574833, 'tags': {'amenity': 'clinic', 'name': 'Паліклініка', 'name:be': 'Паліклініка', 'name:ru': 'Поликлиника', 'name:uk': 'Поліклініка'}}"
"{'type': 'node', 'id': 5651650021, 'lat': 55.6425057, 'lon': 27.0211802, 'tags': {'amenity': 'dentist', 'healthcare': 'dentist', 'name': 'Стаматалогія', 'name:be': 'Стаматалогія', 'name:ru': 'Стоматология'}}"
"{'type': 'node', 'id': 5825611738, 'lat': 55.1475629, 'lon': 27.2065522, 'tags': {'addr:housenumber': '131Е', 'addr:street': 'Ленінская вуліца', 'amenity': 'pharmacy', 'dispensing': 'yes', 'healthcare': 'pharmacy', 'name': 'Аптэка №29', 'name:be': 'Аптэка №29', 'name:ru': 'Аптека №29', 'opening_hours': 'Mo-Fr 09:00-21:00; Sa-Su 09:00-17:00; Su[1] off', 'operator': 'ООО ""Интерофицина Плюс""', 'phone': '+375 21 552-84-48;+375 29 347-98-11'}}"
"{'type': 'node', 'id': 6040249907, 'lat': 54.4834468, 'lon': 26.3973566, 'tags': {'addr:housenumber': '7', 'addr:street': 'вуліца Вікторыі Сінкевіч', 'amenity': 'dentist', 'email': 'lilaste.smorgon@mail.ru', 'healthcare': 'dentist', 'name': 'Ліласце', 'name:be': 'Ліласце', 'name:ru': 'Лиласте', 'opening_hours': 'Mo-Sa 08:00-20:00', 'phone': '+375 29 5888350;+375 44 5588846;+375 1592 45015'}}"
"{'type': 'node', 'id': 6541953185, 'lat': 54.5204401, 'lon': 27.5014029, 'tags': {'amenity': 'doctors', 'healthcare': 'doctor', 'name': 'Медыцынская амбулаторыя (Крайск)', 'name:be': 'Медыцынская амбулаторыя (Крайск)', 'name:ru': 'Врачебная амбулатория (Крайск)'}}"
"{'type': 'node', 'id': 6542023685, 'lat': 54.5215721, 'lon': 27.5007164, 'tags': {'amenity': 'pharmacy', 'brand': 'Минская Фармация', 'brand:be': 'Мінская Фармацыя', 'brand:en': 'Minskaya Pharmacia', 'brand:ru': 'Минская Фармация', 'brand:wikidata': 'Q108553370', 'contact:email': 'inf@minfarm.by', 'contact:phone': '+375 1774 73685', 'contact:website': 'http://minfarm.by/', 'healthcare': 'pharmacy', 'name': 'Минская Фармация', 'name:be': 'Мінская Фармацыя', 'name:en': 'Minskaya Pharmacia', 'name:ru': 'Минская Фармация', 'opening_hours': 'Mo-Fr 08:00-12:00,13:00-17:00', 'operator': 'Торгово-производственное республиканское унитарное предприятие ""Минская Фармация""'}}"
"{'type': 'node', 'id': 6543153002, 'lat': 55.2017613, 'lon': 27.1988977, 'tags': {'amenity': 'doctors', 'healthcare': 'doctor', 'name': 'Гуцкі фельчарска-акушэрскі пункт', 'name:be': 'Гуцкі фельчарска-акушэрскі пункт', 'name:ru': 'Гутский фельдшерско-акушерский пункт'}}"
"{'type': 'node', 'id': 6614704926, 'lat': 55.1292839, 'lon': 26.8280151, 'tags': {'amenity': 'pharmacy', 'healthcare': 'pharmacy', 'opening_hours': 'Mo-Fr 09:00-17:00', 'operator': 'Фармация'}}"
"{'type': 'node', 'id': 6733387928, 'lat': 54.4752794, 'lon': 26.4250961, 'tags': {'amenity': 'pharmacy', 'dispensing': 'yes', 'healthcare': 'pharmacy', 'name': 'Фармацыя №242', 'name:be': 'Фармацыя №242', 'name:ru': 'Фармация №242', 'opening_hours': 'Mo-Fr 10:00-14:00, 14:30-19:00', 'operator': 'Гродненское республиканское унитарное предприятие ""Фармация""', 'ref': '242', 'website': 'https://farmacia.by/'}}"
"{'type': 'node', 'id': 7716402833, 'lat': 55.114518, 'lon': 26.839972, 'tags': {'amenity': 'pharmacy', 'contact:email': 'info@d-leki.by', 'contact:instagram': 'https://www.instagram.com/apteka_adel', 'contact:phone': '+375 25 5355757;+375 29 5355757;+375 44 5355757', 'contact:vk': 'https://vk.com/apteka_adel', 'contact:website': 'https://d-leki.by/', 'healthcare': 'pharmacy', 'name': 'Добрыя леки', 'name:be': 'Добрыя лекі', 'name:ru': 'Добрыя леки', 'opening_hours': 'Mo-Fr 09:00-19:00;Su 09:00-16:00', 'operator': '""Фарммаркет""'}}"
"{'type': 'node', 'id': 7716402836, 'lat': 55.641952, 'lon': 27.039365, 'tags': {'amenity': 'pharmacy', 'contact:email': 'info@d-leki.by', 'contact:instagram': 'https://www.instagram.com/apteka_adel', 'contact:phone': '+375 25 5355757;+375 29 5355757;+375 44 5355757', 'contact:vk': 'https://vk.com/apteka_adel', 'contact:website': 'https://d-leki.by/', 'healthcare': 'pharmacy', 'name': 'Добрыя леки', 'name:be': 'Добрыя лекі', 'name:ru': 'Добрыя леки', 'opening_hours': 'Sa-Su 09:00-16:00;Tu-Fr 09:00-20:00', 'operator': '""Фарммаркет""'}}"
"{'type': 'node', 'id': 7716402838, 'lat': 55.637489, 'lon': 27.03549, 'tags': {'amenity': 'pharmacy', 'contact:email': 'info@d-leki.by', 'contact:instagram': 'https://www.instagram.com/apteka_adel', 'contact:phone': '+375 25 5355757;+375 29 5355757;+375 44 5355757', 'contact:vk': 'https://vk.com/apteka_adel', 'contact:website': 'https://d-leki.by/', 'healthcare': 'pharmacy', 'name': 'Добрыя леки', 'name:be': 'Добрыя лекі', 'name:ru': 'Добрыя леки', 'opening_hours': 'Mo-Tu,Th-Su 09:00-19:00', 'operator': '""Фарммаркет""'}}"
"{'type': 'node', 'id': 7868031356, 'lat': 54.886673, 'lon': 26.9149965, 'tags': {'amenity': 'pharmacy', 'brand': 'Минская Фармация', 'brand:be': 'Мінская Фармацыя', 'brand:en': 'Minskaya Pharmacia', 'brand:ru': 'Минская Фармация', 'brand:wikidata': 'Q108553370', 'contact:email': 'inf@minfarm.by', 'contact:phone': '+375 1797 24391', 'contact:website': 'http://minfarm.by/', 'healthcare': 'pharmacy', 'name': 'Минская Фармация', 'name:be': 'Мінская Фармацыя', 'name:en': 'Minskaya Pharmacia', 'name:ru': 'Минская Фармация', 'opening_hours': 'Mo-Fr 08:00-13:30,14:00-16:30', 'operator': 'Торгово-производственное республиканское унитарное предприятие ""Минская Фармация""'}}"
"{'type': 'node', 'id': 7868031357, 'lat': 54.852412, 'lon': 26.396153, 'tags': {'amenity': 'pharmacy', 'brand': 'Минская Фармация', 'brand:be': 'Мінская Фармацыя', 'brand:en': 'Minskaya Pharmacia', 'brand:ru': 'Минская Фармация', 'brand:wikidata': 'Q108553370', 'contact:email': 'inf@minfarm.by', 'contact:phone': '+375 1797 41916', 'contact:website': 'http://minfarm.by/', 'healthcare': 'pharmacy', 'name': 'Минская Фармация', 'name:be': 'Мінская Фармацыя', 'name:en': 'Minskaya Pharmacia', 'name:ru': 'Минская Фармация', 'opening_hours': 'Mo-Fr 09:00-13:00,14:00-18:00', 'operator': 'Торгово-производственное республиканское унитарное предприятие ""Минская Фармация""'}}"
"{'type': 'node', 'id': 7868062057, 'lat': 54.9106811, 'lon': 26.7292052, 'tags': {'amenity': 'pharmacy', 'brand': 'Минская Фармация', 'brand:be': 'Мінская Фармацыя', 'brand:en': 'Minskaya Pharmacia', 'brand:ru': 'Минская Фармация', 'brand:wikidata': 'Q108553370', 'contact:email': 'inf@minfarm.by', 'contact:phone': '+375 1797 27142', 'contact:website': 'http://minfarm.by/', 'healthcare': 'pharmacy', 'name': 'Минская Фармация', 'name:be': 'Мінская Фармацыя', 'name:en': 'Minskaya Pharmacia', 'name:ru': 'Минская Фармация', 'opening_hours': 'Mo-Fr 08:00-13:00,13:30-16:30', 'operator': 'Торгово-производственное республиканское унитарное предприятие ""Минская Фармация""'}}"
"{'type': 'node', 'id': 7868113961, 'lat': 54.89097, 'lon': 26.676364, 'tags': {'amenity': 'pharmacy', 'brand': 'Минская Фармация', 'brand:be': 'Мінская Фармацыя', 'brand:en': 'Minskaya Pharmacia', 'brand:ru': 'Минская Фармация', 'brand:wikidata': 'Q108553370', 'contact:email': 'inf@minfarm.by', 'contact:phone': '+375 1797 25452', 'contact:website': 'http://minfarm.by/', 'healthcare': 'pharmacy', 'name': 'Минская Фармация', 'name:be': 'Мінская Фармацыя', 'name:en': 'Minskaya Pharmacia', 'name:ru': 'Минская Фармация', 'opening_hours': 'Mo-Fr 08:00-13:00,13:30-16:30', 'operator': 'Торгово-производственное республиканское унитарное предприятие ""Минская Фармация""'}}"
"{'type': 'node', 'id': 7868113965, 'lat': 54.709956, 'lon': 27.288613, 'tags': {'amenity': 'pharmacy', 'brand': 'Минская Фармация', 'brand:be': 'Мінская Фармацыя', 'brand:en': 'Minskaya Pharmacia', 'brand:ru': 'Минская Фармация', 'brand:wikidata': 'Q108553370', 'contact:email': 'inf@minfarm.by', 'contact:phone': '+375 1797 41913', 'contact:website': 'http://minfarm.by/', 'healthcare': 'pharmacy', 'name': 'Минская Фармация', 'name:be': 'Мінская Фармацыя', 'name:en': 'Minskaya Pharmacia', 'name:ru': 'Минская Фармация', 'opening_hours': 'Mo-Fr 09:00-14:00,14:30-19:00; Sa-Su 09:00-16:00', 'operator': 'Торгово-производственное республиканское унитарное предприятие ""Минская Фармация""'}}"
"{'type': 'node', 'id': 7868131242, 'lat': 54.5560277, 'lon': 26.9635713, 'tags': {'amenity': 'pharmacy', 'contact:email': 'inf@minfarm.by', 'contact:phone': '+375 1771 20141', 'contact:website': 'http://minfarm.by/', 'healthcare': 'pharmacy', 'name': 'Минская Фармация', 'name:be': 'Мінская Фармацыя', 'name:en': 'Minskaya Pharmacia', 'name:ru': 'Минская Фармация', 'opening_hours': 'Mo-Fr 09:00-13:00,13:30-16:30; Sa 08:40-12:00,12:20-14:00', 'operator': 'Торгово-производственное республиканское унитарное предприятие ""Минская Фармация""'}}"
"{'type': 'node', 'id': 7868131243, 'lat': 54.4877574, 'lon': 26.9160265, 'tags': {'amenity': 'pharmacy', 'contact:email': 'inf@minfarm.by', 'contact:phone': '+375 1771 34890', 'contact:website': 'http://minfarm.by/', 'healthcare': 'pharmacy', 'name': 'Минская Фармация', 'name:be': 'Мінская Фармацыя', 'name:en': 'Minskaya Pharmacia', 'name:ru': 'Минская Фармация', 'opening_hours': 'Mo-Fr 09:00-13:00,13:30-17:30', 'operator': 'Торгово-производственное республиканское унитарное предприятие ""Минская Фармация""'}}"
"{'type': 'node', 'id': 7868131244, 'lat': 54.4850608, 'lon': 26.9088637, 'tags': {'amenity': 'pharmacy', 'brand': 'Минская Фармация', 'brand:be': 'Мінская Фармацыя', 'brand:en': 'Minskaya Pharmacia', 'brand:ru': 'Минская Фармация', 'brand:wikidata': 'Q108553370', 'contact:email': 'inf@minfarm.by', 'contact:phone': '+375 1771 23903', 'contact:website': 'http://minfarm.by/', 'healthcare': 'pharmacy', 'name': 'Минская Фармация', 'name:be': 'Мінская Фармацыя', 'name:en': 'Minskaya Pharmacia', 'name:ru': 'Минская Фармация', 'opening_hours': 'Fr 08:00-13:00,14:00-17:00; Mo-Th 08:00-19:00', 'operator': 'Торгово-производственное республиканское унитарное предприятие ""Минская Фармация""'}}"
"{'type': 'node', 'id': 7868131245, 'lat': 54.8694089, 'lon': 26.9270048, 'tags': {'addr:city': 'Мядзел', 'addr:housenumber': '2', 'addr:street': 'вуліца Шаранговіча', 'amenity': 'pharmacy', 'brand': 'Минская Фармация', 'brand:be': 'Мінская Фармацыя', 'brand:en': 'Minskaya Pharmacia', 'brand:ru': 'Минская Фармация', 'brand:wikidata': 'Q108553370', 'contact:email': 'inf@minfarm.by', 'contact:phone': '+375 1797 40731', 'contact:website': 'http://minfarm.by/', 'healthcare': 'pharmacy', 'name': 'Минская Фармация', 'name:be': 'Мінская Фармацыя', 'name:en': 'Minskaya Pharmacia', 'name:ru': 'Минская Фармация', 'opening_hours': 'Mo-Fr 09:00-14:00,14:30-19:00; Sa-Su 09:00-15:00', 'operator': 'Торгово-производственное республиканское унитарное предприятие ""Минская Фармация""'}}"
"{'type': 'node', 'id': 7883684922, 'lat': 54.9093833, 'lon': 26.7063247, 'tags': {'amenity': 'pharmacy', 'brand': 'Минская Фармация', 'brand:be': 'Мінская Фармацыя', 'brand:en': 'Minskaya Pharmacia', 'brand:ru': 'Минская Фармация', 'brand:wikidata': 'Q108553370', 'contact:email': 'inf@minfarm.by', 'contact:phone': '+375 1797 27367', 'contact:website': 'http://minfarm.by/', 'healthcare': 'pharmacy', 'name': 'Минская Фармация', 'name:be': 'Мінская Фармацыя', 'name:en': 'Minskaya Pharmacia', 'name:ru': 'Минская Фармация', 'opening_hours': 'Mo-Fr 08:00-19:00; Sa-Su 09:00-13:00,14:00-18:00', 'operator': 'Торгово-производственное республиканское унитарное предприятие ""Минская Фармация""'}}"
"{'type': 'node', 'id': 7883684923, 'lat': 54.9366067, 'lon': 26.690338, 'tags': {'amenity': 'pharmacy', 'contact:email': 'inf@minfarm.by', 'contact:phone': '+375 1797 46236', 'contact:website': 'https://minfarm.by/', 'healthcare': 'pharmacy', 'name': 'Минская Фармация', 'name:be': 'Мінская Фармацыя', 'name:en': 'Minskaya Pharmacia', 'name:ru': 'Минская Фармация', 'opening_hours': 'Mo-Fr 09:00-14:00,15:00-19:00; Sa-Su 09:00-15:00', 'operator': 'Торгово-производственное республиканское унитарное предприятие ""Минская Фармация""'}}"
"{'type': 'node', 'id': 7883684971, 'lat': 54.6463081, 'lon': 27.4705376, 'tags': {'amenity': 'pharmacy', 'contact:email': 'inf@minfarm.by', 'contact:phone': '+375 1771 65593', 'contact:website': 'http://minfarm.by/', 'healthcare': 'pharmacy', 'name': 'Минская Фармация', 'name:be': 'Мінская Фармацыя', 'name:en': 'Minskaya Pharmacia', 'name:ru': 'Минская Фармация', 'opening_hours': 'Mo-Fr 08:00-13:00,14:00-17:00', 'operator': 'Торгово-производственное республиканское унитарное предприятие ""Минская Фармация""'}}"
"{'type': 'node', 'id': 7883684972, 'lat': 54.4817776, 'lon': 26.8912924, 'tags': {'amenity': 'pharmacy', 'contact:email': 'inf@minfarm.by', 'contact:phone': '+375 1771 32844', 'contact:website': 'http://minfarm.by/', 'healthcare': 'pharmacy', 'name': 'Минская Фармация', 'name:be': 'Мінская Фармацыя', 'name:en': 'Minskaya Pharmacia', 'name:ru': 'Минская Фармация', 'opening_hours': 'Mo-Fr 09:00-13:00,14:00-18:00', 'operator': 'Торгово-производственное республиканское унитарное предприятие ""Минская Фармация""'}}"
"{'type': 'node', 'id': 7883684973, 'lat': 54.4957249, 'lon': 26.9185242, 'tags': {'amenity': 'pharmacy', 'contact:email': 'inf@minfarm.by', 'contact:phone': '+375 1771 54245', 'contact:website': 'http://minfarm.by/', 'healthcare': 'pharmacy', 'name': 'Минская Фармация', 'name:be': 'Мінская Фармацыя', 'name:en': 'Minskaya Pharmacia', 'name:ru': 'Минская Фармация', 'opening_hours': 'Mo-Fr 09:00-18:00; Sa 09:30-13:40,14:00-16:30', 'operator': 'Торгово-производственное республиканское унитарное предприятие ""Минская Фармация""'}}"
"{'type': 'node', 'id': 7883684974, 'lat': 54.4803012, 'lon': 26.8965462, 'tags': {'amenity': 'pharmacy', 'contact:email': 'inf@minfarm.by', 'contact:phone': '+375 1771 32823', 'contact:website': 'http://minfarm.by/', 'healthcare': 'pharmacy', 'name': 'Минская Фармация', 'name:be': 'Мінская Фармацыя', 'name:en': 'Minskaya Pharmacia', 'name:ru': 'Минская Фармация', 'opening_hours': 'Mo-Fr 08:00-20:00; Sa-Su 08:40-16:00', 'operator': 'Торгово-производственное республиканское унитарное предприятие ""Минская Фармация""'}}"
"{'type': 'node', 'id': 7883702223, 'lat': 54.9099433, 'lon': 26.7079896, 'tags': {'amenity': 'pharmacy', 'brand': 'Минская Фармация', 'brand:be': 'Мінская Фармацыя', 'brand:en': 'Minskaya Pharmacia', 'brand:ru': 'Минская Фармация', 'brand:wikidata': 'Q108553370', 'contact:email': 'inf@minfarm.by', 'contact:phone': '+375 1797 27755', 'contact:website': 'http://minfarm.by/', 'healthcare': 'pharmacy', 'name': 'Минская Фармация', 'name:be': 'Мінская Фармацыя', 'name:en': 'Minskaya Pharmacia', 'name:ru': 'Минская Фармация', 'opening_hours': 'Mo-Fr 08:00-19:00; Sa-Su 09:00-13:00,14:00-18:00', 'operator': 'Торгово-производственное республиканское унитарное предприятие ""Минская Фармация""'}}"
"{'type': 'node', 'id': 7902430736, 'lat': 55.1140688, 'lon': 26.837883, 'tags': {'amenity': 'dentist', 'healthcare': 'dentist', 'name': 'Стаматалагічны цэнтр', 'name:be': 'Стаматалагічны цэнтр', 'name:ru': 'Стоматологический центр', 'note': 'Вывеска в виде листика на двери, смотри фото mapillary', 'opening_hours': 'Tu-Sa 09:00-13:00, 14:00-17:00'}}"
"{'type': 'node', 'id': 8825413963, 'lat': 54.8912456, 'lon': 26.6771112, 'tags': {'amenity': 'clinic', 'healthcare': 'clinic', 'name': 'Гразелячэбная ўстаноўка', 'name:be': 'Гразелячэбная ўстаноўка', 'name:ru': 'Водогрязелечебница'}}"
"{'type': 'node', 'id': 9685293207, 'lat': 54.4843835, 'lon': 26.9085594, 'tags': {'addr:housenumber': '27', 'addr:street': 'вуліца Маркава', 'amenity': 'doctors', 'contact:email': 'mzrb@belcmt.by', 'contact:phone': '+375 1771 56635', 'contact:website': 'http://minzdrav.gov.by/dlya-belorusskikh-grazhdan/vaktsinatsiya/', 'healthcare': 'doctor', 'name': 'Пункт вакцынацыі ад COVID-19', 'name:be': 'Пункт вакцынацыі ад COVID-19', 'name:ru': 'Пункт вакцинации от COVID-19', 'opening_hours': 'Mo-Fr 08:00-20:00'}}"
"{'type': 'node', 'id': 9685329983, 'lat': 54.5559249, 'lon': 26.9635287, 'tags': {'addr:city': 'Куранец', 'addr:housenumber': '14', 'addr:street': 'плошча Свабоды', 'amenity': 'doctors', 'contact:email': 'mzrb@belcmt.by', 'contact:phone': '+375 1771 63519', 'contact:website': 'http://minzdrav.gov.by/dlya-belorusskikh-grazhdan/vaktsinatsiya/', 'healthcare': 'doctor', 'name': 'Пункт вакцынацыі ад COVID-19', 'name:be': 'Пункт вакцынацыі ад COVID-19', 'name:ru': 'Пункт вакцинации от COVID-19', 'opening_hours': 'Mo-Fr 08:00-17:30; Sa 08:00-15:00'}}"
"{'type': 'node', 'id': 9685340817, 'lat': 54.562872, 'lon': 26.7264862, 'tags': {'addr:city': 'Нарач', 'addr:housenumber': '5', 'addr:street': 'Кастрычніцкая вуліца', 'amenity': 'doctors', 'contact:email': 'mzrb@belcmt.by', 'contact:phone': '+375 1771 48249', 'contact:website': 'http://minzdrav.gov.by/dlya-belorusskikh-grazhdan/vaktsinatsiya/', 'healthcare': 'doctor', 'name': 'Пункт вакцынацыі ад COVID-19', 'name:be': 'Пункт вакцынацыі ад COVID-19', 'name:ru': 'Пункт вакцинации от COVID-19', 'opening_hours': 'Mo-Fr 08:00-19:00; Sa 08:00-15:00'}}"
"{'type': 'node', 'id': 9685475286, 'lat': 54.5960869, 'lon': 26.8774287, 'tags': {'addr:city': 'Любань', 'addr:housenumber': '8', 'addr:street': 'Кастрычніцкая вуліца', 'amenity': 'doctors', 'contact:email': 'mzrb@belcmt.by', 'contact:phone': '+375 1771 45207', 'contact:website': 'http://minzdrav.gov.by/dlya-belorusskikh-grazhdan/vaktsinatsiya/', 'healthcare': 'doctor', 'name': 'Пункт вакцынацыі ад COVID-19', 'name:be': 'Пункт вакцынацыі ад COVID-19', 'name:ru': 'Пункт вакцинации от COVID-19', 'opening_hours': 'Mo-Fr 08:00-19:00; Sa 08:00-15:00'}}"
"{'type': 'node', 'id': 9685534449, 'lat': 54.4778845, 'lon': 27.4119609, 'tags': {'amenity': 'doctors', 'contact:email': 'mzrb@belcmt.by', 'contact:phone': '+375 1771 73497', 'contact:website': 'http://minzdrav.gov.by/dlya-belorusskikh-grazhdan/vaktsinatsiya/', 'healthcare': 'doctor', 'name': 'Пункт вакцынацыі ад COVID-19', 'name:be': 'Пункт вакцынацыі ад COVID-19', 'name:ru': 'Пункт вакцинации от COVID-19', 'opening_hours': 'Mo-Fr 08:00-18:00; Sa 08:00-14:35'}}"
"{'type': 'node', 'id': 9690066186, 'lat': 54.5204121, 'lon': 27.5013608, 'tags': {'addr:city': 'Крайск', 'amenity': 'doctors', 'contact:email': 'mzrb@belcmt.by', 'contact:phone': '+375 1774 73619', 'contact:website': 'http://minzdrav.gov.by/dlya-belorusskikh-grazhdan/vaktsinatsiya/', 'healthcare': 'doctor', 'name': 'Пункт вакцынацыі ад COVID-19', 'name:be': 'Пункт вакцынацыі ад COVID-19', 'name:ru': 'Пункт вакцинации от COVID-19', 'opening_hours': 'Mo-Fr 09:00-17:00; Sa 09:00-14:00'}}"
"{'type': 'node', 'id': 9690427280, 'lat': 54.7938229, 'lon': 27.4449533, 'tags': {'amenity': 'doctors', 'contact:email': 'mzrb@belcmt.by', 'contact:phone': '+375 17 9131314', 'contact:website': 'http://minzdrav.gov.by/dlya-belorusskikh-grazhdan/vaktsinatsiya/', 'healthcare': 'doctor', 'name': 'Пункт вакцынацыі ад COVID-19', 'name:be': 'Пункт вакцынацыі ад COVID-19', 'name:ru': 'Пункт вакцинации от COVID-19', 'opening_hours': 'Mo-Fr 08:00-16:00'}}"
"{'type': 'node', 'id': 9690439827, 'lat': 54.8866534, 'lon': 26.9148704, 'tags': {'addr:housenumber': '23', 'addr:street': 'Камуністычная вуліца', 'amenity': 'doctors', 'contact:email': 'mzrb@belcmt.by', 'contact:phone': '+375 1797 24389', 'contact:website': 'http://minzdrav.gov.by/dlya-belorusskikh-grazhdan/vaktsinatsiya/', 'healthcare': 'doctor', 'name': 'Пункт вакцынацыі ад COVID-19', 'name:be': 'Пункт вакцынацыі ад COVID-19', 'name:ru': 'Пункт вакцинации от COVID-19', 'opening_hours': 'Mo-Fr 08:00-19:00'}}"
"{'type': 'node', 'id': 9690448054, 'lat': 54.8040152, 'lon': 26.7666416, 'tags': {'addr:city': 'Занарач', 'addr:housenumber': '7', 'addr:street': 'Кастрычніцкая вуліца', 'amenity': 'doctors', 'contact:email': 'mzrb@belcmt.by', 'contact:phone': '+375 1797 36137', 'contact:website': 'http://minzdrav.gov.by/dlya-belorusskikh-grazhdan/vaktsinatsiya/', 'healthcare': 'doctor', 'name': 'Пункт вакцынацыі ад COVID-19', 'name:be': 'Пункт вакцынацыі ад COVID-19', 'name:ru': 'Пункт вакцинации от COVID-19', 'opening_hours': 'Mo-Fr 08:00-16:00'}}"
"{'type': 'node', 'id': 9690448931, 'lat': 54.9042406, 'lon': 26.6953511, 'tags': {'addr:city': 'Нарач', 'addr:housenumber': '14', 'addr:street': 'Зялёная вуліца', 'amenity': 'doctors', 'contact:email': 'mzrb@belcmt.by', 'contact:phone': '+375 1797 34737', 'contact:website': 'http://minzdrav.gov.by/dlya-belorusskikh-grazhdan/vaktsinatsiya/', 'healthcare': 'doctor', 'name': 'Пункт вакцынацыі ад COVID-19', 'name:be': 'Пункт вакцынацыі ад COVID-19', 'name:ru': 'Пункт вакцинации от COVID-19', 'opening_hours': 'Mo-Fr 08:00-16:00'}}"
"{'type': 'node', 'id': 9690449482, 'lat': 54.8432544, 'lon': 26.4012692, 'tags': {'addr:city': 'Свір', 'addr:housenumber': '111', 'addr:street': 'Савецкая вуліца', 'amenity': 'doctors', 'contact:email': 'mzrb@belcmt.by', 'contact:phone': '+375 1797 42362', 'contact:website': 'http://minzdrav.gov.by/dlya-belorusskikh-grazhdan/vaktsinatsiya/', 'healthcare': 'doctor', 'name': 'Пункт вакцынацыі ад COVID-19', 'name:be': 'Пункт вакцынацыі ад COVID-19', 'name:ru': 'Пункт вакцинации от COVID-19', 'opening_hours': 'Mo-Fr 08:00-17:00'}}"
"{'type': 'node', 'id': 9690454487, 'lat': 54.732306, 'lon': 27.3851357, 'tags': {'amenity': 'doctors', 'contact:email': 'mzrb@belcmt.by', 'contact:phone': '+375 1797 36637', 'contact:website': 'http://minzdrav.gov.by/dlya-belorusskikh-grazhdan/vaktsinatsiya/', 'healthcare': 'doctor', 'name': 'Пункт вакцынацыі ад COVID-19', 'name:be': 'Пункт вакцынацыі ад COVID-19', 'name:ru': 'Пункт вакцинации от COVID-19', 'opening_hours': 'Mo-Fr 08:00-16:00'}}"
"{'type': 'node', 'id': 9690461558, 'lat': 54.9360789, 'lon': 26.682595, 'tags': {'addr:city': 'Нарач', 'addr:housenumber': '5', 'addr:street': 'Заводская вуліца', 'amenity': 'doctors', 'contact:email': 'mzrb@belcmt.by', 'contact:phone': '+375 1797 27751', 'contact:website': 'http://minzdrav.gov.by/dlya-belorusskikh-grazhdan/vaktsinatsiya/', 'healthcare': 'doctor', 'name': 'Пункт вакцынацыі ад COVID-19', 'name:be': 'Пункт вакцынацыі ад COVID-19', 'name:ru': 'Пункт вакцинации от COVID-19', 'opening_hours': 'Mo-Fr 08:00-17:00'}}"
"{'type': 'node', 'id': 9690464338, 'lat': 54.7141586, 'lon': 27.2906779, 'tags': {'addr:city': 'Крывічы', 'addr:housenumber': '106', 'addr:postcode': '222376', 'addr:street': 'вуліца 17 Верасня', 'amenity': 'doctors', 'contact:email': 'mzrb@belcmt.by', 'contact:phone': '+375 1797 43403', 'contact:website': 'http://minzdrav.gov.by/dlya-belorusskikh-grazhdan/vaktsinatsiya/', 'healthcare': 'doctor', 'name': 'Пункт вакцынацыі ад COVID-19', 'name:be': 'Пункт вакцынацыі ад COVID-19', 'name:ru': 'Пункт вакцинации от COVID-19', 'opening_hours': 'Mo-Fr 08:00-17:00'}}"
"{'type': 'node', 'id': 9731966951, 'lat': 54.48469, 'lon': 26.3834953, 'tags': {'amenity': 'clinic', 'contact:email': 'info@synevo.by', 'contact:phone': '+375 1592 46688;+375 44 5566705', 'contact:website': 'https://igalmed.by/', 'healthcare': 'clinic', 'name': 'Игалмед', 'name:be': 'Іналмед', 'name:en': 'Igalmed', 'name:ru': 'Игалмед', 'opening_hours': 'Mo-Fr 07:00-19:00; Sa 07:30-17:00'}}"
"{'type': 'node', 'id': 10100641519, 'lat': 54.485716, 'lon': 26.896736, 'tags': {'amenity': 'pharmacy', 'contact:phone': '+375 44 5848951', 'contact:website': 'http://ostrovzdorovya.by/', 'healthcare': 'pharmacy', 'name': 'Остров здоровья', 'name:be': 'Востраў здароўя', 'name:ru': 'Остров здоровья', 'opening_hours': 'Mo-Su 09:00-21:00'}}"
"{'type': 'node', 'id': 10111784157, 'lat': 55.1127982, 'lon': 26.8391584, 'tags': {'amenity': 'pharmacy', 'healthcare': 'pharmacy', 'level': '1', 'name': 'Цэнтральная аптэка № 87', 'name:be': 'Цэнтральная аптэка № 87', 'name:ru': 'Центральная аптека № 87', 'opening_hours': 'Mo-Fr 08:00-21:00; Sa, Su 08:00-18:00', 'operator': 'Белфармация', 'phone': '+375215521334'}}"
"{'type': 'node', 'id': 10259672610, 'lat': 54.8663278, 'lon': 26.9324443, 'tags': {'amenity': 'pharmacy', 'contact:email': 'inf@minfarm.by', 'contact:phone': '+375 1797 40264', 'contact:website': 'http://minfarm.by/', 'healthcare': 'pharmacy', 'name': 'Минская Фармация', 'name:be': 'Мінская Фармацыя', 'name:ru': 'Минская Фармация', 'opening_hours': 'Mo-Fr 08:00-21:00; Sa-Su 09:00-13:00,13:30-19:00'}}"
"{'type': 'node', 'id': 10878219848, 'lat': 55.1082637, 'lon': 26.8712854, 'tags': {'amenity': 'pharmacy', 'brand': 'Радикс', 'contact:phone': '+375 215 522374', 'contact:website': 'https://radiks.by/pharmacies/pharmacy11d/', 'healthcare': 'pharmacy', 'opening_hours': '09:00-21:00', 'operator': 'ООО ""Диалпро""', 'ref': '11'}}"
"{'type': 'node', 'id': 11076505680, 'lat': 55.7348239, 'lon': 26.2582147, 'tags': {'amenity': 'pharmacy', 'healthcare': 'pharmacy', 'opening_hours': 'Mo-Fr 08:00-19:00'}}"
"{'type': 'node', 'id': 11522949218, 'lat': 54.7170732, 'lon': 26.5235169, 'tags': {'healthcare': 'doctor', 'name': 'Фельдшерско акушерстски пункт ФАП'}}"
