OSM_Data
"{'type': 'node', 'id': 2348404114, 'lat': 6.4024688, 'lon': 2.3393859, 'tags': {'amenity': 'pharmacy', 'dispensing': 'no', 'name': 'Pharmacie Le Jourdain'}}"
"{'type': 'node', 'id': 2394741538, 'lat': 6.3584067, 'lon': 2.4315012, 'tags': {'amenity': 'pharmacy', 'name': 'Pharmacie Jonquet'}}"
"{'type': 'node', 'id': 2481870007, 'lat': 6.3781996, 'lon': 2.3902366, 'tags': {'amenity': 'pharmacy', 'name': 'Pharmacie Marché Vedoko'}}"
"{'type': 'node', 'id': 2499528284, 'lat': 6.3787742, 'lon': 2.3909428, 'tags': {'amenity': 'clinic', 'name': 'Clinique Cega', 'source': 'GPS;survey'}}"
"{'type': 'node', 'id': 2499580592, 'lat': 6.4054126, 'lon': 2.341918, 'tags': {'amenity': 'pharmacy', 'dispensing': 'Pharmacie carrefour IITA', 'name': 'Pharmacie Togoudo', 'phone': '+229 21352162', 'source': 'GPS;survey'}}"
"{'type': 'node', 'id': 2605942908, 'lat': 6.3851686, 'lon': 2.3838435, 'tags': {'amenity': 'clinic', 'name': 'Clinique St Vincent de Paul', 'operator:type': 'private', 'source': 'GPS;survey'}}"
"{'type': 'node', 'id': 2605982145, 'lat': 6.3825642, 'lon': 2.381949, 'tags': {'amenity': 'clinic', 'name': 'Clinique Fandinan', 'operator:type': 'private', 'source': 'GPS'}}"
"{'type': 'node', 'id': 2619439029, 'lat': 6.5040656, 'lon': 2.6106479, 'tags': {'amenity': 'pharmacy', 'name': 'Les Palmiers'}}"
"{'type': 'node', 'id': 2619439185, 'lat': 6.5149012, 'lon': 2.6348347, 'tags': {'amenity': 'doctors', 'healthcare': 'doctor', 'name': 'Centre Medico Social ""Salem""'}}"
"{'type': 'node', 'id': 2619447839, 'lat': 6.3795405, 'lon': 2.608283, 'tags': {'amenity': 'pharmacy', 'name': 'Nouvelle Horizont'}}"
"{'type': 'node', 'id': 2782366114, 'lat': 6.3569121, 'lon': 2.4008066, 'tags': {'amenity': 'pharmacy', 'healthcare': 'pharmacy', 'name': 'Pharmacie'}}"
"{'type': 'node', 'id': 3018655774, 'lat': 6.3922788, 'lon': 2.3496909, 'tags': {'amenity': 'pharmacy', 'dispensing': 'yes', 'name': 'Pharmacie Ste Adèle', 'source': 'GPS;survey'}}"
"{'type': 'node', 'id': 3032595370, 'lat': 6.3962015, 'lon': 2.3475255, 'tags': {'amenity': 'clinic', 'name': ""Clinique d'accouchement Dofon""}}"
"{'type': 'node', 'id': 3032612607, 'lat': 6.393835, 'lon': 2.342825, 'tags': {'amenity': 'pharmacy', 'dispensing': 'yes', 'name': 'Pharmacie Godomey centre'}}"
"{'type': 'node', 'id': 3252664061, 'lat': 6.3561527, 'lon': 2.418456, 'tags': {'amenity': 'pharmacy', 'dispensing': 'no', 'healthcare': 'pharmacy', 'name': 'Pharmacie Camp Guezo', 'opening_hours': '24/7'}}"
"{'type': 'node', 'id': 3252689674, 'lat': 6.3817438, 'lon': 2.3795598, 'tags': {'addr:housenumber': '3652', 'amenity': 'pharmacy', 'dispensing': 'no', 'name': 'Pharmacie de l’amitie', 'opening_hours': '24/7'}}"
"{'type': 'node', 'id': 3259917661, 'lat': 6.3589863, 'lon': 2.4363023, 'tags': {'amenity': 'pharmacy', 'dispensing': 'no', 'name': 'pharmacie Vogue'}}"
"{'type': 'node', 'id': 3260370223, 'lat': 6.366164, 'lon': 2.4206788, 'tags': {'amenity': 'pharmacy', 'dispensing': 'no', 'healthcare': 'pharmacy', 'name': 'Pharmacie Adéchina', 'source:name': 'survey'}}"
"{'type': 'node', 'id': 3260370355, 'lat': 6.3617048, 'lon': 2.4344736, 'tags': {'amenity': 'pharmacy', 'dispensing': 'no', 'name': 'pharmacie atinkanmey', 'source:dispensing': 'survey'}}"
"{'type': 'node', 'id': 3260372490, 'lat': 6.3664602, 'lon': 2.42935, 'tags': {'amenity': 'pharmacy', 'dispensing': 'no', 'name': 'pharmacie saint michel'}}"
"{'type': 'node', 'id': 3260372492, 'lat': 6.3674063, 'lon': 2.4241742, 'tags': {'amenity': 'pharmacy', 'dispensing': 'no', 'healthcare': 'pharmacy', 'name': 'pharmacie forum santé', 'source:name': 'survey'}}"
"{'type': 'node', 'id': 3260372682, 'lat': 6.368684, 'lon': 2.4288576, 'tags': {'amenity': 'pharmacy', 'dispensing': 'no', 'name': 'Pharmacie Sainte Cecile'}}"
"{'type': 'node', 'id': 3260385361, 'lat': 6.3618307, 'lon': 2.4347023, 'tags': {'addr:housenumber': '424', 'amenity': 'clinic', 'name': 'Polyclinique Atinkanmey', 'source:name': 'survey'}}"
"{'type': 'node', 'id': 3260385561, 'lat': 6.359654, 'lon': 2.4258528, 'tags': {'amenity': 'pharmacy', 'dispensing': 'no', 'healthcare': 'pharmacy', 'name': 'Zongo'}}"
"{'type': 'node', 'id': 3260385661, 'lat': 6.364501, 'lon': 2.420449, 'tags': {'amenity': 'clinic', 'healthcare': 'clinic', 'name': 'Clinique les Graces'}}"
"{'type': 'node', 'id': 3260703523, 'lat': 6.3860489, 'lon': 2.3744395, 'tags': {'amenity': 'clinic', 'healthcare:speciality': 'neurologie', 'name': 'clinique Mermah', 'operator:type': 'private', 'source:name': 'survey'}}"
"{'type': 'node', 'id': 3260703524, 'lat': 6.3875949, 'lon': 2.3687693, 'tags': {'amenity': 'pharmacy', 'dispensing': 'no', 'name': 'Nouvelle Pharmacie Mènontin', 'source:name': 'survey'}}"
"{'type': 'node', 'id': 3260703526, 'lat': 6.3884101, 'lon': 2.3740903, 'tags': {'amenity': 'clinic', 'healthcare:speciality': 'neurologie', 'name': 'Clinique Branda', 'operator:type': 'private', 'source:name': 'survey'}}"
"{'type': 'node', 'id': 3260703527, 'lat': 6.386889, 'lon': 2.3846739, 'tags': {'amenity': 'pharmacy', 'dispensing': 'no', 'name': 'pharmacie renouveau', 'source:name': 'survey'}}"
"{'type': 'node', 'id': 3260703530, 'lat': 6.3921655, 'lon': 2.3828379, 'tags': {'amenity': 'pharmacy', 'dispensing': 'no', 'name': 'pharmacie Zogbohoue'}}"
"{'type': 'node', 'id': 3260745363, 'lat': 6.3920263, 'lon': 2.3648379, 'tags': {'addr:city': 'Cotonou', 'amenity': 'pharmacy', 'dispensing': 'no', 'name': 'Pharmacie Kindonou'}}"
"{'type': 'node', 'id': 3260745461, 'lat': 6.3883621, 'lon': 2.3746531, 'tags': {'amenity': 'pharmacy', 'dispensing': 'no', 'healthcare': 'pharmacy', 'name': 'Pharmacie Sainte Famile'}}"
"{'type': 'node', 'id': 3260745561, 'lat': 6.3900911, 'lon': 2.3879721, 'tags': {'amenity': 'pharmacy', 'dispensing': 'no', 'healthcare': 'pharmacy', 'name': 'pharmacie Zogbo'}}"
"{'type': 'node', 'id': 3260745562, 'lat': 6.3908238, 'lon': 2.3934549, 'tags': {'amenity': 'pharmacy', 'dispensing': 'no', 'name': 'pharmacie le tamaya', 'source:name': 'survey'}}"
"{'type': 'node', 'id': 3260745563, 'lat': 6.3908344, 'lon': 2.3977869, 'tags': {'amenity': 'pharmacy', 'dispensing': 'no', 'name': 'Pharmacie Palace Plus'}}"
"{'type': 'node', 'id': 3263349461, 'lat': 6.3705625, 'lon': 2.4166009, 'tags': {'amenity': 'pharmacy', 'dispensing': 'no', 'healthcare': 'pharmacy', 'name': 'Pharmacie Marina'}}"
"{'type': 'node', 'id': 3574876893, 'lat': 6.4231951, 'lon': 2.3186322, 'tags': {'amenity': 'clinic', 'name': 'Clinique Mahungon de Tankpè', 'operator:type': 'private', 'source': 'gps,survey'}}"
"{'type': 'node', 'id': 3578049594, 'lat': 6.3904737, 'lon': 2.37263, 'tags': {'amenity': 'clinic', 'healthcare:speciality': 'neurologie', 'name': 'Centre Médico-Social Mahugnon de Menontin', 'opening_hours': 'Mo-Su 08:00-08:00', 'operator': 'ONG MES', 'operator:type': 'private', 'source': 'GPS;survey'}}"
"{'type': 'node', 'id': 3592579093, 'lat': 6.3933187, 'lon': 2.298567, 'tags': {'amenity': 'clinic', 'name': 'AVE MARIA DE COCOTOMEY', 'phone': '95 21 65 86 / 62 16 47 17', 'source': 'gps;survey'}}"
"{'type': 'node', 'id': 3592579095, 'lat': 6.3886483, 'lon': 2.3007177, 'tags': {'amenity': 'pharmacy', 'dispensing': 'yes', 'name': 'La Concorde', 'opening_hours': '24/7', 'payment:cash': 'yes', 'payment:mastercard': 'yes', 'payment:visa': 'yes', 'source': 'Gps;survey'}}"
"{'type': 'node', 'id': 3611667027, 'lat': 6.3720794, 'lon': 2.442654, 'tags': {'amenity': 'pharmacy', 'dispensing': 'yes', 'name': 'Pharmacie Saint Raphaël', 'source': 'gps;survey'}}"
"{'type': 'node', 'id': 3611732876, 'lat': 6.3753267, 'lon': 2.3285038, 'tags': {'amenity': 'clinic', 'name': 'Ong Orphes', 'operator': 'ONG ORPHES', 'operator:type': 'ngo', 'source': 'gps;survey'}}"
"{'type': 'node', 'id': 3726502302, 'lat': 6.3568253, 'lon': 2.3902506, 'tags': {'addr:housenumber': '968', 'addr:street': '12.170', 'amenity': 'clinic', 'healthcare': 'clinic', 'name': 'Sêzo'}}"
"{'type': 'node', 'id': 3801121430, 'lat': 6.7918939, 'lon': 2.272704, 'tags': {'amenity': 'pharmacy'}}"
"{'type': 'node', 'id': 3872880785, 'lat': 6.3611624, 'lon': 2.3976738, 'tags': {'amenity': 'pharmacy', 'healthcare': 'pharmacy', 'name': 'Pharmacie Cadjehoun'}}"
"{'type': 'node', 'id': 3872881834, 'lat': 6.3851999, 'lon': 2.3740547, 'tags': {'amenity': 'pharmacy', 'name': 'Pharmacie Oladjouan'}}"
"{'type': 'node', 'id': 3872881835, 'lat': 6.3772366, 'lon': 2.3828492, 'tags': {'amenity': 'clinic', 'name': 'Centre de Santé de Houenoussou'}}"
"{'type': 'node', 'id': 3872882794, 'lat': 6.3923014, 'lon': 2.3496205, 'tags': {'amenity': 'pharmacy', 'name': 'Pharmacie Sainte Adèle'}}"
"{'type': 'node', 'id': 3874525204, 'lat': 6.3774115, 'lon': 2.4417953, 'tags': {'amenity': 'pharmacy', 'name': 'Pharmacie Midombo'}}"
"{'type': 'node', 'id': 3874525408, 'lat': 6.3776271, 'lon': 2.4113361, 'tags': {'amenity': 'pharmacy', 'name': ""Pharmacie L'Éternité""}}"
"{'type': 'node', 'id': 3874525417, 'lat': 6.3770007, 'lon': 2.4487, 'tags': {'amenity': 'pharmacy', 'name': 'Pharmacie Adetona'}}"
"{'type': 'node', 'id': 3876476655, 'lat': 6.3574935, 'lon': 2.4258699, 'tags': {'amenity': 'pharmacy', 'healthcare': 'pharmacy', 'name': 'Pharmacie de la Mosquée Centrale'}}"
"{'type': 'node', 'id': 3876477421, 'lat': 6.3757063, 'lon': 2.4051944, 'tags': {'amenity': 'pharmacy', 'name': 'Pharmacie Agontinkon'}}"
"{'type': 'node', 'id': 3876749113, 'lat': 6.3889561, 'lon': 2.3573526, 'tags': {'amenity': 'pharmacy', 'name': 'Medipharm', 'warehouse': 'yes'}}"
"{'type': 'node', 'id': 3876749116, 'lat': 6.3864192, 'lon': 2.3260043, 'tags': {'addr:city': 'Abomey calavi', 'amenity': 'pharmacy', 'name': 'Pharmacie Godomey PK14'}}"
"{'type': 'node', 'id': 3878027509, 'lat': 6.3833491, 'lon': 2.3351096, 'tags': {'amenity': 'pharmacy', 'name': 'Pharmacie Espace Santé'}}"
"{'type': 'node', 'id': 3878027521, 'lat': 6.3895424, 'lon': 2.3728347, 'tags': {'amenity': 'clinic', 'healthcare:speciality': 'neurologie', 'name': 'Clinique Sainte Marie', 'operator:type': 'private'}}"
"{'type': 'node', 'id': 3878035833, 'lat': 6.3808052, 'lon': 2.3797211, 'tags': {'amenity': 'clinic', 'healthcare': 'clinic', 'name': ""Polyclinique de L'amitié - Le Bon Samaritain""}}"
"{'type': 'node', 'id': 3879101289, 'lat': 6.3748887, 'lon': 2.0878105, 'tags': {'amenity': 'pharmacy', 'name': 'Pharmacie La Providence'}}"
"{'type': 'node', 'id': 3892459498, 'lat': 6.3809501, 'lon': 2.3726607, 'tags': {'addr:housenumber': '511', 'addr:street': 'Rue 13.289', 'amenity': 'pharmacy', 'healthcare': 'pharmacy', 'name': 'Les Pylônes'}}"
"{'type': 'node', 'id': 3896289008, 'lat': 6.3667895, 'lon': 2.3909944, 'tags': {'amenity': 'clinic', 'name': 'Clinique Houeyiho'}}"
"{'type': 'node', 'id': 3896289011, 'lat': 6.3909657, 'lon': 2.3423576, 'tags': {'amenity': 'clinic', 'name': 'Polyclinique Biosso'}}"
"{'type': 'node', 'id': 3900428343, 'lat': 6.389341, 'lon': 2.3106638, 'tags': {'amenity': 'pharmacy', 'dispensing': 'yes', 'name': 'Pharmacie Deo-Gratias', 'opening_hours': '24/7', 'operator': 'Privé', 'phone': '0022921047693', 'wheelchair': 'yes'}}"
"{'type': 'node', 'id': 3904759320, 'lat': 6.3565709, 'lon': 2.4286656, 'tags': {'addr:housenumber': '1084', 'addr:street': 'rue des Cheminots', 'amenity': 'pharmacy', 'name': 'Les Cheminots', 'phone': '315173'}}"
"{'type': 'node', 'id': 3926199150, 'lat': 6.3605025, 'lon': 2.0818842, 'tags': {'amenity': 'pharmacy', 'name': 'Pharmacie Mitonwe'}}"
"{'type': 'node', 'id': 3926200609, 'lat': 6.365805, 'lon': 2.0789317, 'tags': {'amenity': 'pharmacy', 'name': 'Pharmacie Gbèna'}}"
"{'type': 'node', 'id': 3926200700, 'lat': 6.3632371, 'lon': 2.0806051, 'tags': {'amenity': 'clinic', 'name': 'Action Solidarite Service Ouidah'}}"
"{'type': 'node', 'id': 3927614977, 'lat': 6.3676537, 'lon': 2.4548273, 'tags': {'amenity': 'pharmacy', 'name': 'Pharmacie Le remède Sodjeatime'}}"
"{'type': 'node', 'id': 3927625589, 'lat': 6.4726566, 'lon': 2.6213121, 'tags': {'amenity': 'pharmacy', 'healthcare': 'pharmacy', 'name': 'PHARMACIE PLACE BAYOL'}}"
"{'type': 'node', 'id': 3927625657, 'lat': 6.4208483, 'lon': 2.6284838, 'tags': {'amenity': 'pharmacy', 'name': 'Pharmacie Djeregbé'}}"
"{'type': 'node', 'id': 3934003903, 'lat': 6.3690873, 'lon': 2.4153944, 'tags': {'addr:housenumber': '1102', 'amenity': 'pharmacy', 'healthcare': 'pharmacy', 'name': 'Pharmacie Alafia', 'phone': '21323442'}}"
"{'type': 'node', 'id': 3950476354, 'lat': 6.3625655, 'lon': 2.4136825, 'tags': {'addr:housenumber': '146', 'amenity': 'pharmacy', 'healthcare': 'pharmacy', 'name': 'Pharmacie du Rond-Point', 'phone': '21302709-94012403'}}"
"{'type': 'node', 'id': 3955170265, 'lat': 6.3883472, 'lon': 2.3178703, 'tags': {'amenity': 'pharmacy', 'name': 'Le Président'}}"
"{'type': 'node', 'id': 3976417069, 'lat': 6.4343656, 'lon': 2.3443859, 'tags': {'amenity': 'clinic', 'name': 'Clinique pédiatrique d’Abomey-Calavi', 'opening_hours': '24/7', 'phone': '(+229)95372161/95863945'}}"
"{'type': 'node', 'id': 3989795588, 'lat': 6.4251864, 'lon': 2.3484847, 'tags': {'addr:city': 'A', 'amenity': 'pharmacy', 'dispensing': 'yes', 'healthcare': 'pharmacy', 'name': 'Pharmacie du campus U.A.C', 'phone': '(+229)97804380'}}"
"{'type': 'node', 'id': 3989796509, 'lat': 6.4467135, 'lon': 2.3547304, 'tags': {'amenity': 'pharmacy', 'name': 'Pharmacie du Lac', 'opening_hours': '24/7', 'phone': '(+229)21360145'}}"
"{'type': 'node', 'id': 3989796510, 'lat': 6.4404159, 'lon': 2.3487362, 'tags': {'amenity': 'pharmacy', 'name': 'Pharmacie SOS Santé', 'opening_hours': 'Mo-Su 07:00-23:00'}}"
"{'type': 'node', 'id': 3989796511, 'lat': 6.4652134, 'lon': 2.33848, 'tags': {'amenity': 'pharmacy', 'name': 'Pharmacie Zoca'}}"
"{'type': 'node', 'id': 3989796513, 'lat': 6.4277418, 'lon': 2.3018412, 'tags': {'amenity': 'doctors', 'healthcare': 'yes', 'name': 'Centre de santé public de Maria Gleta', 'source': 'Pleiade_2016'}}"
"{'type': 'node', 'id': 3989799358, 'lat': 6.4326386, 'lon': 2.3497055, 'tags': {'amenity': 'clinic', 'name': 'Clinique centrale de Calavi', 'phone': '(+229)66789301/95068743/99476827'}}"
"{'type': 'node', 'id': 3992128835, 'lat': 6.6684647, 'lon': 2.173519, 'tags': {'amenity': 'hospital', 'healthcare': 'yes', 'name': 'Centre de santé de Togoudo'}}"
"{'type': 'node', 'id': 3992156010, 'lat': 6.6634812, 'lon': 2.1494527, 'tags': {'amenity': 'pharmacy', 'name': 'PHARMACIE ADANHOUNSA', 'opening_hours': '24/7'}}"
"{'type': 'node', 'id': 3995343799, 'lat': 6.685381, 'lon': 2.6761031, 'tags': {'healthcare': 'centre', 'name': 'LA LUMIERE DIVINE'}}"
"{'type': 'node', 'id': 3995343800, 'lat': 6.7282992, 'lon': 2.7794707, 'tags': {'amenity': 'hospital', 'description': 'médecin diplômes faculté médecin parakou', 'name': 'MÉDICAL ILE OLA'}}"
"{'type': 'node', 'id': 3995343801, 'lat': 6.5873493, 'lon': 2.6876771, 'tags': {'amenity': 'clinic', 'name': 'JÉHOVAH JIRE'}}"
"{'type': 'node', 'id': 3995343803, 'lat': 6.6873794, 'lon': 2.7662349, 'tags': {'amenity': 'pharmacy', 'name': 'ITA SUMBA'}}"
"{'type': 'node', 'id': 3995343804, 'lat': 6.6161208, 'lon': 2.7030434, 'tags': {'addr:street': 'kiligbce', 'amenity': 'clinic', 'name': 'CLINIQUE BERCEAU'}}"
"{'type': 'node', 'id': 3995343805, 'lat': 6.6770736, 'lon': 2.7114301, 'tags': {'amenity': 'clinic', 'name': 'SAINTE TRINITE'}}"
"{'type': 'node', 'id': 3995344804, 'lat': 6.6077134, 'lon': 2.6801234, 'tags': {'healthcare': 'centre', 'name': 'CENTRE DE SANTÉ de KO-KOUMONLOU'}}"
"{'type': 'node', 'id': 3995344805, 'lat': 6.5926358, 'lon': 2.7002084, 'tags': {'amenity': 'clinic', 'name': 'AMOUR ET SOLIDARITÉ'}}"
"{'type': 'node', 'id': 3995344807, 'lat': 6.6268018, 'lon': 2.7059434, 'tags': {'amenity': 'clinic', 'name': 'LA PAIX DU CHRIST'}}"
"{'type': 'node', 'id': 3995345133, 'lat': 6.6311749, 'lon': 2.7363449, 'tags': {'amenity': 'pharmacy'}}"
"{'type': 'node', 'id': 3995345134, 'lat': 6.637022, 'lon': 2.7355765, 'tags': {'amenity': 'clinic', 'name': 'ALPHA ET OMEGA'}}"
"{'type': 'node', 'id': 3995345135, 'lat': 6.6446469, 'lon': 2.7375577, 'tags': {'amenity': 'clinic', 'name': 'pas de nom'}}"
"{'type': 'node', 'id': 3995347253, 'lat': 6.646518, 'lon': 2.7440626, 'tags': {'amenity': 'hospital', 'name': 'CLINIQUE FIFATIN'}}"
"{'type': 'node', 'id': 3995347254, 'lat': 6.6452594, 'lon': 2.729449, 'tags': {'healthcare': 'doctor', 'healthcare:speciality': 'paediatrics'}}"
"{'type': 'node', 'id': 3995347255, 'lat': 6.6446214, 'lon': 2.7317229, 'tags': {'amenity': 'clinic', 'name': 'CLINIQUE SOSO'}}"
"{'type': 'node', 'id': 3995347633, 'lat': 6.6838564, 'lon': 2.6830982, 'tags': {'healthcare': 'yes', 'name': 'ong oldaah benin'}}"
"{'type': 'node', 'id': 3995347635, 'lat': 6.6414016, 'lon': 2.7232585, 'tags': {'addr:street': 'Igolo', 'amenity': 'clinic', 'name': 'CABINET DE SOINS MAHUDJRO'}}"
"{'type': 'node', 'id': 3995348029, 'lat': 6.6962517, 'lon': 2.7765953, 'tags': {'amenity': 'hospital', 'name': 'ITA SIMBA'}}"
"{'type': 'node', 'id': 3995348030, 'lat': 6.6729498, 'lon': 2.7533082, 'tags': {'amenity': 'clinic', 'name': 'alafia loola'}}"
"{'type': 'node', 'id': 3995348032, 'lat': 6.6768112, 'lon': 2.7181846, 'tags': {'amenity': 'clinic', 'name': 'DIEU EST GRAND'}}"
"{'type': 'node', 'id': 3995348033, 'lat': 6.6778662, 'lon': 2.7201052, 'tags': {'addr:street': 'itakapako', 'amenity': 'clinic', 'name': 'ONG DAH'}}"
"{'type': 'node', 'id': 3995348034, 'lat': 6.352799, 'lon': 2.7951164, 'tags': {'addr:street': 'itakapoko', 'amenity': 'clinic', 'name': 'GUÉRISON DIVINE'}}"
"{'type': 'node', 'id': 3995348257, 'lat': 6.687458, 'lon': 2.6758304, 'tags': {'amenity': 'hospital', 'name': 'LABORATOIRE DE ZIAN'}}"
"{'type': 'node', 'id': 3995348357, 'lat': 6.6664688, 'lon': 2.7232547, 'tags': {'healthcare': 'centre', 'name': 'VALEUR ET AMOUR'}}"
"{'type': 'node', 'id': 3995348358, 'lat': 6.5863251, 'lon': 2.6747077, 'tags': {'amenity': 'clinic', 'name': 'ONG NONVI NONVI'}}"
"{'type': 'node', 'id': 3995348359, 'lat': 6.5561194, 'lon': 2.7158949, 'tags': {'healthcare': 'centre', 'name': 'DISPENSAIRE'}}"
"{'type': 'node', 'id': 3995348360, 'lat': 6.5702959, 'lon': 2.7021614, 'tags': {'amenity': 'pharmacy', 'name': 'd'}}"
"{'type': 'node', 'id': 3995348458, 'lat': 6.5555207, 'lon': 2.7428636, 'tags': {'amenity': 'pharmacy', 'name': 'CLINIQUE LA PAIX'}}"
"{'type': 'node', 'id': 3995348459, 'lat': 6.5379257, 'lon': 2.73156, 'tags': {'addr:street': 'AVRANKOU', 'amenity': 'clinic', 'name': 'Clinique La paix'}}"
"{'type': 'node', 'id': 3995348460, 'lat': 6.5324593, 'lon': 2.7124928, 'tags': {'addr:street': 'Djegou-Nagot', 'amenity': 'clinic', 'name': 'LA RENAISSANCE'}}"
"{'type': 'node', 'id': 3995348461, 'lat': 6.5653506, 'lon': 2.7045353, 'tags': {'healthcare': 'centre', 'name': 'CENTRE DE SANTÉ DAAGBE'}}"
"{'type': 'node', 'id': 3995348462, 'lat': 6.5850721, 'lon': 2.6946115, 'tags': {'amenity': 'pharmacy'}}"
"{'type': 'node', 'id': 3995348465, 'lat': 6.6056552, 'lon': 2.7247663, 'tags': {'addr:street': 'village Ahlongon', 'amenity': 'clinic', 'name': 'BON ESPOIR', 'phone': '97095502'}}"
"{'type': 'node', 'id': 3995348466, 'lat': 6.562195, 'lon': 2.6250975, 'tags': {'addr:street': 'Sedo', 'amenity': 'clinic', 'name': 'CENTRE DE SANTÉ HUMANITAIRE DE SEDO', 'phone': '66460610'}}"
"{'type': 'node', 'id': 3995348467, 'lat': 6.6069246, 'lon': 2.6804023, 'tags': {'addr:street': 'Ko- Dogba', 'amenity': 'clinic', 'name': 'ESPOIR KO-DOGBA'}}"
"{'type': 'node', 'id': 3995348468, 'lat': 6.5886633, 'lon': 2.7371844, 'tags': {'addr:street': 'Commune d Banigbe', 'healthcare': 'centre', 'name': ""CENTRE DE SANTÉ D'AKADJA""}}"
"{'type': 'node', 'id': 4021076194, 'lat': 6.4446293, 'lon': 2.3154801, 'tags': {'healthcare': 'yes', 'name': 'Cente médico-social et humanitaire de la bergerie de Dieu'}}"
"{'type': 'node', 'id': 4023588931, 'lat': 6.379825, 'lon': 2.3635849, 'tags': {'amenity': 'clinic', 'name': 'Polyclinique Saint Pierre'}}"
"{'type': 'node', 'id': 4029928429, 'lat': 6.4134881, 'lon': 2.3325376, 'tags': {'amenity': 'pharmacy', 'name': 'Pharmacie IITA'}}"
"{'type': 'node', 'id': 4029928432, 'lat': 6.4733712, 'lon': 2.355267, 'tags': {'amenity': 'pharmacy', 'name': 'Pharmacie Cité Arconville', 'phone': '(+229)94781846/21033109'}}"
"{'type': 'node', 'id': 4029928435, 'lat': 6.4577846, 'lon': 2.3561644, 'tags': {'amenity': 'pharmacy', 'name': 'Pharmacie Château d’eau'}}"
"{'type': 'node', 'id': 4119835954, 'lat': 6.375207, 'lon': 2.4866434, 'tags': {'amenity': 'pharmacy', 'dispensing': 'yes', 'name': 'Pharmacie Agblanguandan', 'operator': 'Privée'}}"
"{'type': 'node', 'id': 4135366586, 'lat': 6.5832301, 'lon': 2.5527692, 'tags': {'amenity': 'pharmacy', 'name': 'PHARMACIE LES ANGES'}}"
"{'type': 'node', 'id': 4135371200, 'lat': 6.519427, 'lon': 2.6033327, 'tags': {'amenity': 'pharmacy', 'name': ""Pharmacie de l'unité"", 'phone': '20248271'}}"
"{'type': 'node', 'id': 4135372264, 'lat': 6.4777286, 'lon': 2.60574, 'tags': {'amenity': 'pharmacy', 'healthcare': 'pharmacy', 'name': 'PHARMACIE BOULEVARD DJASSN'}}"
"{'type': 'node', 'id': 4135372454, 'lat': 6.4879399, 'lon': 2.6138581, 'tags': {'amenity': 'pharmacy', 'name': 'PHARMACIE DONA'}}"
"{'type': 'node', 'id': 4149984944, 'lat': 6.3880357, 'lon': 2.2669511, 'tags': {'amenity': 'pharmacy', 'name': 'Pharmacie Le Sycomore'}}"
"{'type': 'node', 'id': 4157613951, 'lat': 6.3550509, 'lon': 2.4367268, 'tags': {'amenity': 'pharmacy', 'name': 'Pharmacie Ganhi'}}"
"{'type': 'node', 'id': 4161715092, 'lat': 6.4148248, 'lon': 2.3442712, 'tags': {'amenity': 'hospital', 'name': 'CNHU'}}"
"{'type': 'node', 'id': 4167241859, 'lat': 6.5223593, 'lon': 1.9671589, 'tags': {'amenity': 'pharmacy', 'dispensing': 'yes', 'name': 'Dépot Pharmacie'}}"
"{'type': 'node', 'id': 4167241861, 'lat': 6.5224466, 'lon': 1.968609, 'tags': {'amenity': 'hospital', 'name': 'Hôpital'}}"
"{'type': 'node', 'id': 4169518744, 'lat': 6.386948, 'lon': 2.419828, 'tags': {'addr:city': 'Cotonou', 'addr:country': 'BJ', 'addr:place': 'Gbèdjromédé', 'addr:postcode': '03BP3985 Cotonou', 'amenity': 'clinic', 'name': 'Clinique Point E', 'phone': '+22921326843'}}"
"{'type': 'node', 'id': 4170523800, 'lat': 6.3695053, 'lon': 2.4303446, 'tags': {'addr:housenumber': '259', 'addr:street': 'Avenue de la paix', 'amenity': 'pharmacy', 'name': 'Pharmacie des 4 therapies', 'phone': '+22921323330'}}"
"{'type': 'node', 'id': 4172381293, 'lat': 6.3725933, 'lon': 2.4643058, 'tags': {'amenity': 'pharmacy', 'name': 'Pharmacie St martin', 'opening_hours': '24/7', 'wheelchair': 'yes'}}"
"{'type': 'node', 'id': 4172581711, 'lat': 6.3772484, 'lon': 2.456819, 'tags': {'amenity': 'pharmacy', 'dispensing': 'yes', 'name': 'Pharmacie Sènadé', 'opening_hours': '24/7', 'wheelchair': 'yes'}}"
"{'type': 'node', 'id': 4176026466, 'lat': 6.3704035, 'lon': 2.4209817, 'tags': {'amenity': 'pharmacy', 'healthcare': 'pharmacy', 'name': 'Le Conseil'}}"
"{'type': 'node', 'id': 4177324802, 'lat': 6.5121659, 'lon': 2.3581079, 'tags': {'amenity': 'clinic', 'name': 'Clinique la grace de Dieu'}}"
"{'type': 'node', 'id': 4187858341, 'lat': 6.4024688, 'lon': 2.3274833, 'tags': {'amenity': 'clinic', 'name': 'Clinique St. Benjamin'}}"
"{'type': 'node', 'id': 4189568327, 'lat': 6.3847806, 'lon': 2.4254208, 'tags': {'addr:housenumber': '138', 'amenity': 'clinic', 'name': 'Clinique La Grâce de Dieu'}}"
"{'type': 'node', 'id': 4189874189, 'lat': 6.4291298, 'lon': 2.6595453, 'tags': {'amenity': 'clinic', 'name': 'Clinique Saint Espoir'}}"
"{'type': 'node', 'id': 4197841337, 'lat': 6.3735979, 'lon': 2.5468621, 'tags': {'amenity': 'pharmacy', 'dispensing': 'yes', 'name': 'Pharmacie EKPE', 'opening_hours': '24/7', 'wheelchair': 'yes'}}"
"{'type': 'node', 'id': 4197893976, 'lat': 6.3699027, 'lon': 2.5211839, 'tags': {'amenity': 'pharmacy', 'dispensing': 'yes', 'name': 'Pharmacie Dona Dei', 'opening_hours': '24/7', 'wheelchair': 'yes'}}"
"{'type': 'node', 'id': 4197893977, 'lat': 6.370687, 'lon': 2.5072257, 'tags': {'amenity': 'pharmacy', 'dispensing': 'yes', 'name': 'Pharmacie Les Chérubins', 'opening_hours': '24/7', 'wheelchair': 'yes'}}"
"{'type': 'node', 'id': 4208098205, 'lat': 6.3722857, 'lon': 2.4525945, 'tags': {'amenity': 'pharmacy', 'dispensing': 'yes', 'name': 'Pharmacie Ciné Concorde', 'opening_hours': '24/7', 'wheelchair': 'yes'}}"
"{'type': 'node', 'id': 4210096571, 'lat': 6.3685266, 'lon': 2.4842635, 'tags': {'amenity': 'pharmacy', 'name': ""Pharmacie de l'Abattoir"", 'opening_hours': '24/7'}}"
"{'type': 'node', 'id': 4210159843, 'lat': 6.3667018, 'lon': 2.4552305, 'tags': {'amenity': 'pharmacy', 'dispensing': 'yes', 'name': 'Pharmacie la Béninoise', 'opening_hours': '24/7', 'wheelchair': 'yes'}}"
"{'type': 'node', 'id': 4216341719, 'lat': 6.3870707, 'lon': 2.5428957, 'tags': {'amenity': 'dentist', 'healthcare': 'dentist'}}"
"{'type': 'node', 'id': 4216523339, 'lat': 6.3896604, 'lon': 2.5420445, 'tags': {'amenity': 'pharmacy', 'healthcare': 'pharmacy', 'name': 'Dépôt Pharmaceutique Alafia'}}"
"{'type': 'node', 'id': 4216523345, 'lat': 6.3903185, 'lon': 2.5419865, 'tags': {'amenity': 'clinic', 'healthcare': 'clinic', 'name': 'ONG ""SOLIDARITE SANTE""'}}"
"{'type': 'node', 'id': 4222613217, 'lat': 6.484506, 'lon': 2.6205881, 'tags': {'amenity': 'pharmacy', 'healthcare': 'pharmacy', 'name': 'Pharmacie de la place cachi'}}"
"{'type': 'node', 'id': 4228568612, 'lat': 6.374271, 'lon': 2.4466923, 'tags': {'amenity': 'pharmacy', 'dispensing': 'yes', 'name': 'Pharmacie Sacré Coeur'}}"
"{'type': 'node', 'id': 4228568613, 'lat': 6.3812302, 'lon': 2.4467801, 'tags': {'amenity': 'pharmacy', 'dispensing': 'yes', 'name': 'Pharmacie Segbeya'}}"
"{'type': 'node', 'id': 4248396090, 'lat': 6.6860919, 'lon': 3.2477681, 'tags': {'amenity': 'hospital', 'name': 'Gramath Medical Center'}}"
"{'type': 'node', 'id': 4249997051, 'lat': 6.3606694, 'lon': 2.4258161, 'tags': {'addr:housenumber': '1278', 'amenity': 'clinic', 'description': 'chirurgie générale et spécialités, imagerie et analyses biomédicales', 'email': 'sainteanned.afrique@gmail.com', 'name': ""Centre médico-social Sainte Anne d'Afrique"", 'phone': '21315850'}}"
"{'type': 'node', 'id': 4250001175, 'lat': 6.3854587, 'lon': 2.215836, 'tags': {'amenity': 'pharmacy', 'name': 'Pharmacie de Pahou'}}"
"{'type': 'node', 'id': 4250001826, 'lat': 6.3918879, 'lon': 2.3703293, 'tags': {'amenity': 'clinic', 'healthcare:speciality': 'neurologie', 'name': 'Clinique saint Augustin', 'operator:type': 'private'}}"
"{'type': 'node', 'id': 4250061033, 'lat': 6.3603897, 'lon': 2.4218641, 'tags': {'amenity': 'pharmacy', 'healthcare': 'pharmacy', 'name': 'Pharmacie Saint-Jean'}}"
"{'type': 'node', 'id': 4251207881, 'lat': 6.3653988, 'lon': 2.4341699, 'tags': {'addr:housename': '909', 'amenity': 'pharmacy', 'name': 'Pharmacie Saint-Joseph'}}"
"{'type': 'node', 'id': 4309638151, 'lat': 6.407175, 'lon': 2.2659583, 'tags': {'amenity': 'pharmacy', 'name': 'Pharmacie Hêvié'}}"
"{'type': 'node', 'id': 4309638913, 'lat': 6.3819942, 'lon': 2.3313464, 'tags': {'amenity': 'pharmacy', 'name': 'Pharmacie Dekoungbe'}}"
"{'type': 'node', 'id': 4309639544, 'lat': 6.455982, 'lon': 2.2763793, 'tags': {'amenity': 'pharmacy', 'name': 'Pharmacie Les Graces Divines de Ouedo'}}"
"{'type': 'node', 'id': 4309639546, 'lat': 6.4180273, 'lon': 2.3117919, 'tags': {'amenity': 'pharmacy', 'healthcare': 'pharmacy', 'name': 'Pharmacie Maria Gléta'}}"
"{'type': 'node', 'id': 4310949932, 'lat': 6.5988068, 'lon': 2.3638228, 'tags': {'amenity': 'hospital', 'name': 'Hopital La Croix de Zinvié'}}"
"{'type': 'node', 'id': 4313209398, 'lat': 6.4809755, 'lon': 2.4171273, 'tags': {'addr:hamlet': 'Vekky', 'healthcare': 'yes', 'name': 'Centre de santé de Vekky'}}"
"{'type': 'node', 'id': 4351625280, 'lat': 6.3785779, 'lon': 2.4205092, 'tags': {'amenity': 'pharmacy', 'name': 'Pharmacie Nouvelle'}}"
"{'type': 'node', 'id': 4358192501, 'lat': 6.3927064, 'lon': 2.3607444, 'tags': {'amenity': 'pharmacy', 'name': ""Sainteté à l'Éternel"", 'name:fr': ""Sainteté à l'Éternel""}}"
"{'type': 'node', 'id': 4363486341, 'lat': 6.376526, 'lon': 2.479516, 'tags': {'amenity': 'pharmacy', 'name': 'Pharmacie saint urbain'}}"
"{'type': 'node', 'id': 4363592550, 'lat': 6.3706515, 'lon': 2.4786438, 'tags': {'addr:housenumber': '708', 'amenity': 'pharmacy', 'description': ""présence d'une mosquée"", 'name': 'Pharmacie Dégakon', 'phone': '333235'}}"
"{'type': 'node', 'id': 4390085603, 'lat': 6.4742842, 'lon': 2.6139939, 'tags': {'amenity': 'social_facility', 'healthcare': 'blood_donation', 'name': 'Banque de sang', 'social_facility': 'healthcare', 'source': 'survey'}}"
"{'type': 'node', 'id': 4390167233, 'lat': 6.4741295, 'lon': 2.6139722, 'tags': {'amenity': 'pharmacy', 'healthcare': 'pharmacy', 'name': 'Pharmacie'}}"
"{'type': 'node', 'id': 4391614468, 'lat': 6.4745136, 'lon': 2.6132234, 'tags': {'amenity': 'doctors', 'healthcare': 'doctor', 'healthcare:speciality': 'ophthalmology', 'name': 'ORL/OPHTAMO/STOMATO/Optique-Luneterie', 'source': 'survey'}}"
"{'type': 'node', 'id': 4401545631, 'lat': 6.3557606, 'lon': 2.4022347, 'tags': {'addr:housenumber': '573', 'addr:street': 'RUE 12.080', 'amenity': 'clinic', 'healthcare': 'clinic', 'name': 'Clinique polyvalente Mahouna'}}"
"{'type': 'node', 'id': 4402794893, 'lat': 6.3739488, 'lon': 2.424243, 'tags': {'amenity': 'pharmacy', 'healthcare': 'pharmacy', 'name': 'Espace beauté'}}"
"{'type': 'node', 'id': 4403019781, 'lat': 6.362256, 'lon': 2.4370297, 'tags': {'addr:housenumber': '426', 'amenity': 'pharmacy', 'brand': 'Pharmacie Principale', 'brand:wikidata': 'Q1547749', 'brand:wikipedia': 'fr:Groupe PP Holding', 'healthcare': 'pharmacy', 'name': 'Pharmacie Principale'}}"
"{'type': 'node', 'id': 4403026193, 'lat': 6.3739044, 'lon': 2.4248098, 'tags': {'addr:housenumber': '480', 'addr:street': 'Rue 6.042', 'amenity': 'pharmacy', 'healthcare': 'pharmacy', 'name': 'Le Nokoué'}}"
"{'type': 'node', 'id': 4403223586, 'lat': 6.4728574, 'lon': 2.3436257, 'tags': {'healthcare': 'rehabilitation', 'name': 'Kinesitherapie'}}"
"{'type': 'node', 'id': 4403224360, 'lat': 6.4735856, 'lon': 2.3417599, 'tags': {'healthcare': 'alternative', 'name': 'Morgue'}}"
"{'type': 'node', 'id': 4403224367, 'lat': 6.4730504, 'lon': 2.3425908, 'tags': {'healthcare': 'centre', 'name': 'Laboratoire'}}"
"{'type': 'node', 'id': 4403224368, 'lat': 6.4733367, 'lon': 2.3429, 'tags': {'healthcare': 'centre', 'name': 'Pédiatrie'}}"
"{'type': 'node', 'id': 4403224494, 'lat': 6.4735041, 'lon': 2.3430593, 'tags': {'healthcare': 'centre', 'name': 'Néonatalogie'}}"
"{'type': 'node', 'id': 4403224495, 'lat': 6.4736033, 'lon': 2.3423917, 'tags': {'healthcare': 'alternative', 'name': 'Buanderie'}}"
"{'type': 'node', 'id': 4403224501, 'lat': 6.4727852, 'lon': 2.342722, 'tags': {'amenity': 'pharmacy', 'name': 'Pharmacie', 'opening_hours': '24/7'}}"
"{'type': 'node', 'id': 4403224504, 'lat': 6.4727946, 'lon': 2.3425088, 'tags': {'healthcare': 'centre', 'name': 'Stomatologie'}}"
"{'type': 'node', 'id': 4403224633, 'lat': 6.4725971, 'lon': 2.3434683, 'tags': {'healthcare': 'centre', 'name': 'Ophtamologie'}}"
"{'type': 'node', 'id': 4403224647, 'lat': 6.47387, 'lon': 2.3427033, 'tags': {'healthcare': 'centre', 'name': 'Vaccination'}}"
"{'type': 'node', 'id': 4403224671, 'lat': 6.4728317, 'lon': 2.3425567, 'tags': {'description': ""Service d'oto-rhino-laryngologie pour soigner les affections des oreilles du nez et de la gorge"", 'healthcare': 'centre', 'name': 'Service ORL'}}"
"{'type': 'node', 'id': 4403225139, 'lat': 6.4733193, 'lon': 2.3426195, 'tags': {'healthcare': 'centre', 'name': 'Maternité', 'opening_hours': '24/7'}}"
"{'type': 'node', 'id': 4403225140, 'lat': 6.4730967, 'lon': 2.3427767, 'tags': {'healthcare': 'centre', 'name': 'Chirurgie'}}"
"{'type': 'node', 'id': 4403225141, 'lat': 6.4729369, 'lon': 2.3434851, 'tags': {'healthcare': 'alternative', 'name': 'Magasin'}}"
"{'type': 'node', 'id': 4403228094, 'lat': 6.4729292, 'lon': 2.3425709, 'tags': {'healthcare': 'centre', 'name': 'Radiographie (Imagerie)'}}"
"{'type': 'node', 'id': 4403228627, 'lat': 6.4562769, 'lon': 2.3279273, 'tags': {'amenity': 'pharmacy', 'name': 'Pharmacie Saint Pio'}}"
"{'type': 'node', 'id': 4409670760, 'lat': 6.4730297, 'lon': 2.3424478, 'tags': {'healthcare': 'centre', 'name': 'Bloc Opératoire'}}"
"{'type': 'node', 'id': 4426129447, 'lat': 6.3833097, 'lon': 2.4251266, 'tags': {'amenity': 'pharmacy', 'name': 'Pharmacie Aïdjèdo'}}"
"{'type': 'node', 'id': 4431338550, 'lat': 6.4868839, 'lon': 2.6319036, 'tags': {'amenity': 'pharmacy', 'name': 'Nouvelle pharmacie', 'name:fr': 'Pharmacie Kandévié'}}"
"{'type': 'node', 'id': 4431339022, 'lat': 6.4705996, 'lon': 2.6211846, 'tags': {'amenity': 'pharmacy', 'healthcare': 'pharmacy', 'name': 'Pharmacie Le prestige du pont'}}"
"{'type': 'node', 'id': 4431340039, 'lat': 6.369767, 'lon': 2.4121136, 'tags': {'amenity': 'pharmacy', 'healthcare': 'pharmacy', 'name': 'Pharmacie de l’étoille'}}"
"{'type': 'node', 'id': 4443968692, 'lat': 6.3569827, 'lon': 2.365107, 'tags': {'amenity': 'pharmacy', 'name': 'Pharmacie Oceane'}}"
"{'type': 'node', 'id': 4480080372, 'lat': 6.3546942, 'lon': 2.4102529, 'tags': {'amenity': 'clinic', 'healthcare': 'clinic', 'name': 'Clinique Universitaire de Chirurgie Pédiatrique', 'source': 'survey;GPS;Pleiades 2016'}}"
"{'type': 'node', 'id': 4480080373, 'lat': 6.3551016, 'lon': 2.4100572, 'tags': {'amenity': 'clinic', 'healthcare': 'clinic', 'name': 'Clinique Universitaire de Chirurgie Viscérale A&B', 'source': 'survey;GPS;Pleiades 2016'}}"
"{'type': 'node', 'id': 4485201146, 'lat': 6.5129758, 'lon': 2.6148503, 'tags': {'amenity': 'pharmacy', 'name': 'Pharmacie gbodje', 'name:fr': 'Pharmacie gbodje'}}"
"{'type': 'node', 'id': 4485215126, 'lat': 6.5009093, 'lon': 2.6307546, 'tags': {'amenity': 'pharmacy', 'name': 'Pharmacie CRISTAL DODJI', 'name:fr': 'Pharmacie dodji', 'survey:date': '2023-05-14'}}"
"{'type': 'node', 'id': 4487532889, 'lat': 6.3546083, 'lon': 2.4094934, 'tags': {'amenity': 'clinic', 'healthcare': 'clinic', 'name': ""Clinique Universitaire d'Accueil des Urgences""}}"
"{'type': 'node', 'id': 4487532890, 'lat': 6.3547876, 'lon': 2.4115474, 'tags': {'amenity': 'clinic', 'healthcare': 'clinic', 'name': 'Clinique de Pédiatrie et Génétique Médicale'}}"
"{'type': 'node', 'id': 4487685253, 'lat': 6.3542069, 'lon': 2.4108966, 'tags': {'amenity': 'clinic', 'healthcare': 'clinic', 'name': 'Service des grands brûlés', 'source': 'survey;GPS'}}"
"{'type': 'node', 'id': 4488813051, 'lat': 6.3596282, 'lon': 2.4373477, 'tags': {'amenity': 'clinic', 'name': 'FHEVIE'}}"
"{'type': 'node', 'id': 4489074817, 'lat': 6.358593, 'lon': 2.4364315, 'tags': {'amenity': 'pharmacy', 'name': 'Pharmacie Vogue'}}"
"{'type': 'node', 'id': 4555392682, 'lat': 6.4827641, 'lon': 2.3593709, 'tags': {'amenity': 'clinic', 'name': ""Clinique Médico social Coeur d'afrique""}}"
"{'type': 'node', 'id': 4555392683, 'lat': 6.4858569, 'lon': 2.3595966, 'tags': {'amenity': 'clinic', 'name': 'Clinique Médico-Churigique YEDE'}}"
"{'type': 'node', 'id': 4555392684, 'lat': 6.5084852, 'lon': 2.3633469, 'tags': {'amenity': 'clinic', 'name': 'Clinique Sacre coeur de Jésus et coeur immaculée de Marie'}}"
"{'type': 'node', 'id': 4555392789, 'lat': 6.5200452, 'lon': 2.3591569, 'tags': {'amenity': 'pharmacy', 'name': 'Pharmacie de Missésinto'}}"
"{'type': 'node', 'id': 4555393211, 'lat': 6.4819841, 'lon': 2.3430573, 'tags': {'amenity': 'clinic', 'name': 'ONG Planing Familil'}}"
"{'type': 'node', 'id': 4555393213, 'lat': 6.4776753, 'lon': 2.3422667, 'tags': {'amenity': 'clinic', 'name': 'Sindo ONG'}}"
"{'type': 'node', 'id': 4555410868, 'lat': 6.4827461, 'lon': 2.359312, 'tags': {'amenity': 'clinic', 'name': ""Medico-social coeur d'accueil""}}"
"{'type': 'node', 'id': 4586561724, 'lat': 6.3582426, 'lon': 2.4273604, 'tags': {'amenity': 'clinic', 'healthcare': 'clinic'}}"
"{'type': 'node', 'id': 4586654371, 'lat': 6.3591985, 'lon': 2.4286638, 'tags': {'amenity': 'pharmacy', 'name': 'Mahuena'}}"
"{'type': 'node', 'id': 4596334607, 'lat': 6.4397542, 'lon': 2.322218, 'tags': {'amenity': 'pharmacy', 'healthcare': 'pharmacy', 'name': ""Pharmacie de l'Immaculée Conception"", 'opening_hours': '24/7', 'phone': '+22962180202'}}"
"{'type': 'node', 'id': 4711849512, 'lat': 6.3640207, 'lon': 2.4147748, 'tags': {'amenity': 'doctors', 'healthcare': 'hospital', 'name': 'Centre Médical Saint Jean', 'source': 'gps,survey'}}"
"{'type': 'node', 'id': 4885883338, 'lat': 7.111667, 'lon': 2.520278, 'tags': {'amenity': 'hospital', 'name': 'Centre de santé communale'}}"
"{'type': 'node', 'id': 4885883340, 'lat': 7.026389, 'lon': 2.436111, 'tags': {'amenity': 'hospital', 'name': 'Centre de santé de Tohoues Dokodji'}}"
"{'type': 'node', 'id': 4889255459, 'lat': 6.4306437, 'lon': 2.3302711, 'tags': {'amenity': 'clinic', 'name': 'Clinique les etoiles'}}"
"{'type': 'node', 'id': 4902272614, 'lat': 6.3644882, 'lon': 2.4842632, 'tags': {'addr:city': 'Cotonou', 'amenity': 'clinic', 'name': 'Clinique Metole'}}"
"{'type': 'node', 'id': 4946556111, 'lat': 6.3645771, 'lon': 2.4023234, 'tags': {'addr:housenumber': '912', 'addr:street': 'rue avlékété(12.117)', 'amenity': 'pharmacy', 'healthcare': 'pharmacy', 'name': 'Ste Philomène'}}"
"{'type': 'node', 'id': 4954756378, 'lat': 6.3562416, 'lon': 2.3907754, 'tags': {'amenity': 'clinic', 'name': 'Clinique Santé Sud'}}"
"{'type': 'node', 'id': 4987818230, 'lat': 6.4337639, 'lon': 2.3432542, 'tags': {'amenity': 'clinic', 'name': 'Clinique Lenaec'}}"
"{'type': 'node', 'id': 4987840757, 'lat': 6.4334174, 'lon': 2.3419587, 'tags': {'amenity': 'clinic', 'name': 'Clinique Bidossessi'}}"
"{'type': 'node', 'id': 4992303021, 'lat': 6.8094189, 'lon': 2.1740767, 'tags': {'amenity': 'hospital', 'name': 'Centre de santé de Houegbo', 'name:fr': 'Centre de santé de Houegbo'}}"
"{'type': 'node', 'id': 4998325543, 'lat': 6.3881041, 'lon': 2.2749221, 'tags': {'amenity': 'clinic', 'name': 'Clinique st Camille', 'name:fr': 'Clinique st Camille'}}"
"{'type': 'node', 'id': 5001310397, 'lat': 6.4367116, 'lon': 2.3359567, 'tags': {'amenity': 'clinic', 'name': 'Centre humanitaire Saint Fabien', 'operator': 'ONG-LGC'}}"
"{'type': 'node', 'id': 5001337720, 'lat': 6.4343667, 'lon': 2.3442783, 'tags': {'amenity': 'clinic', 'name': 'Clinique pédiatrique d’Abomey-Calavi'}}"
"{'type': 'node', 'id': 5001501330, 'lat': 6.3672938, 'lon': 2.3456744, 'tags': {'amenity': 'clinic', 'name': 'ONG Mon destin'}}"
"{'type': 'node', 'id': 5002153122, 'lat': 6.4524784, 'lon': 2.3398634, 'tags': {'amenity': 'pharmacy', 'name': ""Pharmacie L'angélus"", 'name:fr': ""Pharmacie L'angélus""}}"
"{'type': 'node', 'id': 5012731722, 'lat': 6.3716728, 'lon': 2.4338282, 'tags': {'amenity': 'pharmacy', 'name': 'Nouvelle pharmacie Dantokpa', 'name:fr': 'Nouvelle pharmacie Dantokpa'}}"
"{'type': 'node', 'id': 5016176323, 'lat': 6.4327014, 'lon': 2.3298854, 'tags': {'amenity': 'clinic', 'name': 'Clinique Notre Dame des victoires', 'name:fr': 'Clinique Notre Dame des victoires'}}"
"{'type': 'node', 'id': 5024975621, 'lat': 6.3560192, 'lon': 2.416929, 'tags': {'amenity': 'clinic', 'healthcare': 'clinic', 'name': 'Dr Apithi', 'operator': 'Dr Apithi'}}"
"{'type': 'node', 'id': 5024975623, 'lat': 6.3559656, 'lon': 2.4182328, 'tags': {'amenity': 'dentist', 'healthcare': 'dentist', 'name': 'Dr Richardier', 'name:fr': 'Dr Richardier'}}"
"{'type': 'node', 'id': 5029151623, 'lat': 6.3741733, 'lon': 2.3407759, 'tags': {'amenity': 'pharmacy', 'name': 'Pharmacie Godomey-Fignonhou', 'phone': '21141595'}}"
"{'type': 'node', 'id': 5031908106, 'lat': 6.3801798, 'lon': 2.3639219, 'tags': {'amenity': 'pharmacy', 'name': ""Pharmacie St Étienne d'Agla""}}"
"{'type': 'node', 'id': 5107370814, 'lat': 6.4489935, 'lon': 2.3496893, 'tags': {'amenity': 'clinic', 'name': 'Clinique Saint Étienne'}}"
"{'type': 'node', 'id': 5110315829, 'lat': 6.378036, 'lon': 2.5942176, 'tags': {'amenity': 'pharmacy', 'name': 'Pharmacie Sème-Kpodji', 'name:fr': 'Pharmacie Sèmè-Kpodji'}}"
"{'type': 'node', 'id': 5110316283, 'lat': 6.4800386, 'lon': 2.628321, 'tags': {'amenity': 'pharmacy', 'healthcare': 'pharmacy', 'name': 'Pharmacie Adjara Docodji', 'survey:date': '2023-05-19'}}"
"{'type': 'node', 'id': 5110316462, 'lat': 6.4721608, 'lon': 2.6411905, 'tags': {'amenity': 'pharmacy', 'name': 'Pharmacie Agbokou'}}"
"{'type': 'node', 'id': 5119316421, 'lat': 6.3551732, 'lon': 2.433853, 'tags': {'amenity': 'clinic', 'name': 'Clinique La Lumière (chirurgie des yeux)'}}"
"{'type': 'node', 'id': 5126574327, 'lat': 6.3829932, 'lon': 2.4575133, 'tags': {'amenity': 'clinic', 'name': 'Centre pédiatrique VIGNILE'}}"
"{'type': 'node', 'id': 5155857139, 'lat': 6.4391634, 'lon': 2.3085669, 'tags': {'amenity': 'pharmacy', 'healthcare': 'pharmacy', 'name': 'Pharmacie principale de Houeto'}}"
"{'type': 'node', 'id': 5155859436, 'lat': 6.4256315, 'lon': 2.3185873, 'tags': {'amenity': 'pharmacy', 'name': 'Pharmacie Saint Abel', 'phone': '+22921047135'}}"
"{'type': 'node', 'id': 5173149421, 'lat': 6.5238453, 'lon': 2.6663761, 'tags': {'amenity': 'clinic', 'name': 'Clinique Tabita'}}"
"{'type': 'node', 'id': 5188034821, 'lat': 6.5145924, 'lon': 2.6691206, 'tags': {'amenity': 'hospital', 'healthcare': 'hospital', 'name': ""Centre de santé d'Adjarra ll""}}"
"{'type': 'node', 'id': 5188035121, 'lat': 6.5184776, 'lon': 2.6525189, 'tags': {'amenity': 'doctors', 'healthcare': 'doctor', 'name': 'Maternité de HONVIE'}}"
"{'type': 'node', 'id': 5188528322, 'lat': 6.4911767, 'lon': 2.6254381, 'tags': {'amenity': 'pharmacy', 'name': 'Pharmacie Houinmè ADJIBADE'}}"
"{'type': 'node', 'id': 5208527847, 'lat': 6.3680239, 'lon': 2.472577, 'tags': {'amenity': 'clinic', 'name': 'Clinique Olivier'}}"
"{'type': 'node', 'id': 5209048075, 'lat': 6.3852566, 'lon': 2.3475915, 'tags': {'amenity': 'pharmacy', 'name': 'Pharmacie Ayessi'}}"
"{'type': 'node', 'id': 5215878922, 'lat': 6.4306222, 'lon': 2.3345636, 'tags': {'amenity': 'clinic', 'name': 'Clinique les Etoiles'}}"
"{'type': 'node', 'id': 5215952003, 'lat': 6.3560335, 'lon': 2.41454, 'tags': {'amenity': 'pharmacy', 'healthcare': 'pharmacy', 'name': 'Pediatrie HIA'}}"
"{'type': 'node', 'id': 5215952010, 'lat': 6.3553386, 'lon': 2.4142837, 'tags': {'amenity': 'clinic', 'healthcare': 'clinic', 'name': 'Pediatrie'}}"
"{'type': 'node', 'id': 5215952015, 'lat': 6.3553811, 'lon': 2.4146914, 'tags': {'amenity': 'pharmacy', 'healthcare': 'pharmacy', 'name': 'Pharmacie'}}"
"{'type': 'node', 'id': 5218199295, 'lat': 6.3667725, 'lon': 2.4027329, 'tags': {'addr:city': 'Cotonou', 'addr:country': 'BJ', 'addr:housenumber': '155', 'addr:place': 'Vodjè-Kpota', 'addr:street': '12.130', 'amenity': 'clinic', 'healthcare': 'clinic', 'name': 'Centre International de Psychiatries Intégrées du Bénin'}}"
"{'type': 'node', 'id': 5222052123, 'lat': 6.4124765, 'lon': 2.3452475, 'tags': {'amenity': 'clinic', 'name': 'Polyclinique Lab du Campus'}}"
"{'type': 'node', 'id': 5252686410, 'lat': 6.4854877, 'lon': 2.5967324, 'tags': {'amenity': 'pharmacy', 'name': 'Pharmacie Tokpota', 'name:fr': 'Pharmacie Tokpota'}}"
"{'type': 'node', 'id': 5304505435, 'lat': 6.3627373, 'lon': 2.4214123, 'tags': {'addr:housenumber': '1013', 'amenity': 'clinic', 'healthcare': 'clinic', 'name': 'Clinique Centrale', 'phone': '+22921321997'}}"
"{'type': 'node', 'id': 5387183121, 'lat': 6.3811166, 'lon': 2.3411901, 'tags': {'amenity': 'pharmacy', 'name': 'Saint Paul'}}"
"{'type': 'node', 'id': 5403455764, 'lat': 6.4078844, 'lon': 2.331763, 'tags': {'amenity': 'clinic', 'name': ""Adeson's clinique"", 'operator': 'Privée'}}"
"{'type': 'node', 'id': 5403459458, 'lat': 6.4130877, 'lon': 2.3333569, 'tags': {'amenity': 'clinic', 'name': 'Clinique Verdie', 'operator': 'Privée'}}"
"{'type': 'node', 'id': 5464292630, 'lat': 6.369682, 'lon': 2.5212175, 'tags': {'amenity': 'pharmacy', 'dispensing': 'yes', 'name': 'Dona-Dai', 'operator': 'Privé'}}"
"{'type': 'node', 'id': 5466032634, 'lat': 6.3670428, 'lon': 2.420072, 'tags': {'amenity': 'pharmacy', 'healthcare': 'pharmacy', 'name': 'Para Pharmacie Adechina'}}"
"{'type': 'node', 'id': 5491964074, 'lat': 6.3667701, 'lon': 2.5223467, 'tags': {'amenity': 'pharmacy', 'name': 'Ong El-Warata313'}}"
"{'type': 'node', 'id': 5493250342, 'lat': 6.3926255, 'lon': 2.4275753, 'tags': {'amenity': 'clinic', 'name': 'ONC Arms Benin'}}"
"{'type': 'node', 'id': 5521324727, 'lat': 6.3906967, 'lon': 2.4342012, 'tags': {'description': 'traditionnel thérapeutique', 'healthcare': 'yes', 'name': 'Hadjagoun Denenyinche assokle', 'phone': '97036709'}}"
"{'type': 'node', 'id': 5543273624, 'lat': 6.444667, 'lon': 2.343857, 'tags': {'amenity': 'pharmacy', 'name': 'Pharmacie Emmanuel'}}"
"{'type': 'node', 'id': 5553522808, 'lat': 6.3821471, 'lon': 2.3782679, 'tags': {'addr:city': 'Cotonou', 'addr:street': 'Boulevard de l’Europe', 'amenity': 'clinic', 'healthcare:speciality': 'neurologie;gynaecology;paediatrics;cardiology;biology;radiology', 'name': 'Clinique Val de Grâce de Cotonou', 'opening_hours': '24/7', 'operator': 'Docteur', 'operator:type': 'private'}}"
"{'type': 'node', 'id': 5555854122, 'lat': 6.4566941, 'lon': 2.3562525, 'tags': {'amenity': 'clinic', 'name': 'La Polyclinique Coopérative'}}"
"{'type': 'node', 'id': 5557391404, 'lat': 6.3775071, 'lon': 2.4417845, 'tags': {'amenity': 'clinic', 'name': 'Clinique Sainte Emma'}}"
"{'type': 'node', 'id': 5557518225, 'lat': 6.3829063, 'lon': 2.4172274, 'tags': {'amenity': 'pharmacy'}}"
"{'type': 'node', 'id': 5584106055, 'lat': 6.4290415, 'lon': 2.3404737, 'tags': {'healthcare': 'yes', 'name': 'St Ignace de Paix', 'phone': '97875845'}}"
"{'type': 'node', 'id': 5584115267, 'lat': 6.4303069, 'lon': 2.3301586, 'tags': {'amenity': 'pharmacy', 'name': 'Pharmacie Le Schilo'}}"
"{'type': 'node', 'id': 5592356110, 'lat': 6.4271433, 'lon': 2.3250217, 'tags': {'healthcare': 'centre', 'name': 'Centre médical bonne santé'}}"
"{'type': 'node', 'id': 5592359328, 'lat': 6.5293299, 'lon': 2.6653073, 'tags': {'healthcare': 'laboratory', 'name': ""Laboratoire d'analyse biomédicale""}}"
"{'type': 'node', 'id': 5592364120, 'lat': 6.5086482, 'lon': 2.6753133, 'tags': {'healthcare': 'centre', 'name': 'Centre médical Saint Camille', 'phone': '94014862'}}"
"{'type': 'node', 'id': 5595153509, 'lat': 6.5193967, 'lon': 2.6648683, 'tags': {'amenity': 'clinic', 'healthcare': 'clinic', 'name': 'Clinique NOVANIUM', 'phone': '97404345'}}"
"{'type': 'node', 'id': 5641758221, 'lat': 6.3643278, 'lon': 2.4217404, 'tags': {'amenity': 'doctors', 'healthcare': 'doctor', 'name': 'Toxi Labo'}}"
"{'type': 'node', 'id': 5641758321, 'lat': 6.3638991, 'lon': 2.4216658, 'tags': {'amenity': 'clinic', 'healthcare': 'clinic', 'name': 'Clinique Saint Clément'}}"
"{'type': 'node', 'id': 5649940425, 'lat': 6.9721316, 'lon': 2.6528273, 'tags': {'amenity': 'pharmacy', 'name': 'Enoryves'}}"
"{'type': 'node', 'id': 5652564774, 'lat': 6.3906633, 'lon': 2.3937383, 'tags': {'addr:housenumber': '3037', 'addr:street': '94639561', 'amenity': 'clinic', 'name': 'St Antoine de Padoue'}}"
"{'type': 'node', 'id': 5688355136, 'lat': 6.3912116, 'lon': 2.3798139, 'tags': {'amenity': 'clinic', 'healthcare:speciality': 'neurologie', 'name': 'Centre médical saint Thibaut', 'operator:type': 'private'}}"
"{'type': 'node', 'id': 5702832231, 'lat': 6.4931505, 'lon': 2.6379751, 'tags': {'amenity': 'pharmacy', 'healthcare': 'pharmacy', 'name': 'Pharmacie Kountouge'}}"
"{'type': 'node', 'id': 5728695707, 'lat': 6.5124654, 'lon': 2.6084177, 'tags': {'amenity': 'clinic', 'name': 'ONG FADD'}}"
"{'type': 'node', 'id': 5756107536, 'lat': 6.3879967, 'lon': 2.3759101, 'tags': {'amenity': 'pharmacy', 'name': 'Pharmacopée chinoise'}}"
"{'type': 'node', 'id': 5756107548, 'lat': 6.3879864, 'lon': 2.3761445, 'tags': {'amenity': 'clinic', 'name': 'Anap DBF', 'shop': 'optician'}}"
"{'type': 'node', 'id': 5816195669, 'lat': 6.6314493, 'lon': 2.2284395, 'tags': {'amenity': 'pharmacy'}}"
"{'type': 'node', 'id': 5864442788, 'lat': 6.3659368, 'lon': 2.4166272, 'tags': {'amenity': 'pharmacy', 'healthcare': 'pharmacy', 'name': 'Pharmacie Amen'}}"
"{'type': 'node', 'id': 5871910931, 'lat': 6.3861653, 'lon': 2.4045443, 'tags': {'amenity': 'pharmacy', 'name': 'Pharmacie Fifadji'}}"
"{'type': 'node', 'id': 5898767139, 'lat': 6.8586284, 'lon': 2.234962, 'tags': {'amenity': 'hospital', 'name': ""Centre de sante d'agon""}}"
"{'type': 'node', 'id': 5908482262, 'lat': 6.6814433, 'lon': 2.1482572, 'tags': {'amenity': 'pharmacy', 'healthcare': 'pharmacy', 'name': 'Pharmacie Toussaint Louverture'}}"
"{'type': 'node', 'id': 5908498686, 'lat': 6.4998249, 'lon': 2.3549422, 'tags': {'amenity': 'pharmacy', 'name': 'Pharmacie Gninin carrefour', 'phone': '0022960559192'}}"
"{'type': 'node', 'id': 6042618131, 'lat': 6.3589277, 'lon': 2.0870676, 'tags': {'amenity': 'pharmacy', 'name': 'Pharmacie la Grâce'}}"
"{'type': 'node', 'id': 6072757436, 'lat': 6.3733824, 'lon': 2.4861868, 'tags': {'healthcare': 'yes', 'name': 'Clinique Sèna'}}"
"{'type': 'node', 'id': 6090823600, 'lat': 6.9995976, 'lon': 2.607201, 'tags': {'healthcare': 'yes', 'name': ""Centre de santé communal d'aja-ouère""}}"
"{'type': 'node', 'id': 6109324664, 'lat': 6.3608786, 'lon': 2.3792548, 'tags': {'amenity': 'pharmacy', 'name': 'Don de Dieu', 'operator': 'Privé'}}"
"{'type': 'node', 'id': 6297719094, 'lat': 6.3607742, 'lon': 2.444667, 'tags': {'amenity': 'pharmacy', 'dispensing': 'yes', 'healthcare': 'pharmacy'}}"
"{'type': 'node', 'id': 6465379773, 'lat': 6.497809, 'lon': 3.1955301, 'tags': {'addr:street': 'Obafemi Awolowo Road', 'amenity': 'pharmacy', 'name': 'Oriwu Pharmacy & Supermarket', 'shop': 'supermarket'}}"
"{'type': 'node', 'id': 6475127587, 'lat': 6.3808987, 'lon': 2.4315898, 'tags': {'amenity': 'clinic', 'name': 'La confiance'}}"
"{'type': 'node', 'id': 6475127588, 'lat': 6.3806769, 'lon': 2.4313288, 'tags': {'amenity': 'pharmacy', 'name': 'Pharmacie Femi'}}"
"{'type': 'node', 'id': 6480934885, 'lat': 6.4676517, 'lon': 2.397055, 'tags': {'amenity': 'clinic', 'name': 'Clinique'}}"
"{'type': 'node', 'id': 6481176315, 'lat': 6.4671236, 'lon': 2.3945342, 'tags': {'amenity': 'doctors', 'healthcare': 'doctor', 'name': 'Hopital Chez Ahouie'}}"
"{'type': 'node', 'id': 6776860885, 'lat': 6.3568276, 'lon': 2.3733356, 'tags': {'amenity': 'clinic', 'name': 'Clinique du Cœur'}}"
"{'type': 'node', 'id': 6799808906, 'lat': 6.465434, 'lon': 2.3376066, 'tags': {'amenity': 'doctors', 'healthcare': 'doctor', 'healthcare:speciality': 'ophthalmology', 'name': 'Clinique ophtalmologique Bartimée'}}"
"{'type': 'node', 'id': 6872253182, 'lat': 6.6094315, 'lon': 2.3587393, 'tags': {'amenity': 'pharmacy', 'name': 'Pharmacie Zinvié', 'phone': '+22994017251'}}"
"{'type': 'node', 'id': 6895772621, 'lat': 6.51665, 'lon': 1.9421137, 'tags': {'healthcare': 'yes', 'name': 'CSA-Dahè'}}"
"{'type': 'node', 'id': 6907269728, 'lat': 6.6697575, 'lon': 2.4973669, 'tags': {'amenity': 'pharmacy', 'name': ""Pharmacie de la vallée de l'Oueme""}}"
"{'type': 'node', 'id': 6908619573, 'lat': 6.4849198, 'lon': 2.3260197, 'tags': {'amenity': 'clinic', 'name': 'clinique la plénitude'}}"
"{'type': 'node', 'id': 6908810099, 'lat': 6.4584965, 'lon': 2.3215444, 'tags': {'amenity': 'pharmacy', 'name': 'Pharmacie Saint Pio Nouveau site'}}"
"{'type': 'node', 'id': 6926177388, 'lat': 6.3756403, 'lon': 2.357557, 'tags': {'amenity': 'pharmacy', 'name': 'Pharmacie Safari'}}"
"{'type': 'node', 'id': 6966704885, 'lat': 6.3686477, 'lon': 2.4032719, 'tags': {'amenity': 'pharmacy', 'name': 'Phamarcie Ste Foi'}}"
"{'type': 'node', 'id': 6989609010, 'lat': 6.3782275, 'lon': 2.3534046, 'tags': {'addr:housenumber': '336', 'amenity': 'pharmacy', 'name': 'Cristal Santé'}}"
"{'type': 'node', 'id': 6989619810, 'lat': 6.3717787, 'lon': 2.3569166, 'tags': {'amenity': 'pharmacy', 'name': 'Luli Luli'}}"
"{'type': 'node', 'id': 7000338830, 'lat': 6.3819842, 'lon': 2.463667, 'tags': {'amenity': 'pharmacy', 'name': 'Pharmacie HOUNCHEDE'}}"
"{'type': 'node', 'id': 7120283022, 'lat': 6.3748131, 'lon': 2.448783, 'tags': {'amenity': 'clinic', 'name': 'Clinique de la Vue'}}"
"{'type': 'node', 'id': 7124461217, 'lat': 6.3670517, 'lon': 2.4262933, 'tags': {'addr:housenumber': '300', 'addr:street': 'Rue des missions', 'amenity': 'clinic', 'name': 'Cabinet de Cardiologie', 'phone': '97015894'}}"
"{'type': 'node', 'id': 7124466392, 'lat': 6.4316452, 'lon': 2.3464966, 'tags': {'healthcare': 'yes', 'name': ""Centre de Santé et d'association Dounia""}}"
"{'type': 'node', 'id': 7260593485, 'lat': 7.1602811, 'lon': 1.9397071, 'tags': {'amenity': 'hospital', 'name': 'Centre Saint Camille de Davougon'}}"
"{'type': 'node', 'id': 7280775811, 'lat': 6.4383802, 'lon': 2.3437043, 'tags': {'amenity': 'clinic', 'name': 'Clinique  la gratitude'}}"
"{'type': 'node', 'id': 7315424387, 'lat': 6.9767885, 'lon': 2.7094812, 'tags': {'amenity': 'hospital', 'name': 'Centre de santé de ISSALE IBERE'}}"
"{'type': 'node', 'id': 7321610685, 'lat': 6.5836574, 'lon': 2.551371, 'tags': {'amenity': 'pharmacy', 'name': 'Les Anges'}}"
"{'type': 'node', 'id': 7334681885, 'lat': 6.5906253, 'lon': 3.2283304, 'tags': {'addr:street': 'Balogun Crescent', 'amenity': 'hospital', 'name': 'Balogun Primary Healthcare Center.'}}"
"{'type': 'node', 'id': 7349756885, 'lat': 6.6912104, 'lon': 3.2366323, 'tags': {'amenity': 'clinic', 'beds': '0', 'electricity': 'grid', 'healthcare': 'birthing_center;clinic', 'healthcare:speciality': 'community', 'insurance:health': 'public', 'name': 'Primary Health Center Ota', 'opening_hours': '24/7', 'wheelchair': 'yes'}}"
"{'type': 'node', 'id': 7395617879, 'lat': 6.4051574, 'lon': 2.3073274, 'tags': {'amenity': 'pharmacy', 'name': 'Saint Benoît'}}"
"{'type': 'node', 'id': 7395617931, 'lat': 6.4025359, 'lon': 2.3170017, 'tags': {'amenity': 'pharmacy', 'name': 'Eyitayo Womey'}}"
"{'type': 'node', 'id': 7523506302, 'lat': 6.378935, 'lon': 2.4163683, 'tags': {'healthcare': 'yes', 'name': 'GEH'}}"
"{'type': 'node', 'id': 7523952001, 'lat': 6.3781817, 'lon': 2.3946867, 'tags': {'healthcare': 'yes', 'name': 'Saint Potin'}}"
"{'type': 'node', 'id': 7681376071, 'lat': 6.6614718, 'lon': 2.1596478, 'tags': {'amenity': 'pharmacy', 'name': 'Pharmacie Bethsda'}}"
"{'type': 'node', 'id': 7734061186, 'lat': 6.6485779, 'lon': 2.707342, 'tags': {'healthcare': 'centre', 'healthcare:speciality': 'general', 'name': ""Centre de santé de l'arrondissement Banigbé"", 'operator': 'Publique', 'phone': '+229 69452016'}}"
"{'type': 'node', 'id': 7791419795, 'lat': 6.3847282, 'lon': 2.4028404, 'tags': {'amenity': 'hospital', 'name': 'Saint Luc'}}"
"{'type': 'node', 'id': 7862605449, 'lat': 6.4153935, 'lon': 2.3392691, 'tags': {'healthcare': 'laboratory', 'name': ""Laboratoire d'Ecologie Appliquée""}}"
"{'type': 'node', 'id': 7889741781, 'lat': 6.5983453, 'lon': 2.3642322, 'tags': {'amenity': 'hospital', 'name': 'Hôpital La Croix de Zinvié'}}"
"{'type': 'node', 'id': 8125305498, 'lat': 6.3740004, 'lon': 2.3529931, 'tags': {'amenity': 'clinic', 'name': 'Clinique Pôle Santé'}}"
"{'type': 'node', 'id': 8255798548, 'lat': 6.4327576, 'lon': 2.342613, 'tags': {'amenity': 'pharmacy', 'name': 'Pharmacie fleuve de vie'}}"
"{'type': 'node', 'id': 8269509029, 'lat': 6.4315522, 'lon': 2.3283901, 'tags': {'healthcare': 'clinic', 'name': 'Clinic Bethesda Tankpe', 'survey:date': '2020-12-29', 'wheelchair': 'no'}}"
"{'type': 'node', 'id': 8321777619, 'lat': 6.6189486, 'lon': 2.6843214, 'tags': {'amenity': 'clinic', 'name': 'Centre de santé de KoKoumoulou'}}"
"{'type': 'node', 'id': 8420228890, 'lat': 6.3718519, 'lon': 2.3202218, 'tags': {'amenity': 'pharmacy', 'name': 'Pharmacie Hedomey'}}"
"{'type': 'node', 'id': 8464794335, 'lat': 6.3577491, 'lon': 2.3583851, 'tags': {'amenity': 'pharmacy', 'name': 'Pharmacie Akogbato'}}"
"{'type': 'node', 'id': 8541607217, 'lat': 6.4767406, 'lon': 2.3376812, 'tags': {'amenity': 'pharmacy', 'name': 'St Gérard de Zondja'}}"
"{'type': 'node', 'id': 8560686696, 'lat': 6.4033512, 'lon': 2.2958266, 'tags': {'amenity': 'pharmacy', 'name': 'Pharmacie st Benoît de Womey', 'phone': '+'}}"
"{'type': 'node', 'id': 8610448643, 'lat': 6.5904405, 'lon': 2.1258867, 'tags': {'amenity': 'hospital', 'name': ""Centre de Santé d'Arrondissement de Azohouè Aliho"", 'operator': 'Public'}}"
"{'type': 'node', 'id': 8767105417, 'lat': 6.3768444, 'lon': 2.3811961, 'tags': {'amenity': 'clinic', 'name': 'DAHIN'}}"
"{'type': 'node', 'id': 8997305517, 'lat': 6.6405507, 'lon': 2.7308695, 'tags': {'addr:housenumber': 'BP 50 IGOLO', 'addr:street': 'Issalè', 'amenity': 'pharmacy', 'email': 'randoviou@yahoo.fr', 'name': 'PHARMACIE LA FRONTIÈRE', 'opening_hours': '24/7'}}"
"{'type': 'node', 'id': 9087964640, 'lat': 6.3559807, 'lon': 2.4012285, 'tags': {'healthcare': 'yes', 'name': 'Clinique Patte d’Oie'}}"
"{'type': 'node', 'id': 9428992116, 'lat': 6.4775701, 'lon': 2.6056979, 'tags': {'amenity': 'pharmacy', 'name': 'Pharmacie Djassin'}}"
"{'type': 'node', 'id': 9461431969, 'lat': 6.3969257, 'lon': 2.1988454, 'tags': {'addr:street': 'Pahou', 'amenity': 'pharmacy', 'description': 'Médecine traditionnelle', 'name': 'Maman PK'}}"
"{'type': 'node', 'id': 9563703223, 'lat': 6.4529173, 'lon': 2.5410873, 'tags': {'amenity': 'hospital', 'name': 'Centre de santé de Zougame'}}"
"{'type': 'node', 'id': 9641299881, 'lat': 6.3920659, 'lon': 2.364839, 'tags': {'addr:city': 'Cotonou', 'amenity': 'pharmacy', 'dispensing': 'yes', 'healthcare': 'pharmacy', 'name': 'pharmarcie kindonnou'}}"
"{'type': 'node', 'id': 9711699317, 'lat': 6.466874, 'lon': 2.6430759, 'tags': {'amenity': 'hospital', 'name': 'Clinique St Nicolas'}}"
"{'type': 'node', 'id': 9711699417, 'lat': 6.9995333, 'lon': 2.6070533, 'tags': {'amenity': 'hospital', 'name': 'Centre de santé adja-ouèrè'}}"
"{'type': 'node', 'id': 9786808017, 'lat': 6.4503412, 'lon': 2.3467385, 'tags': {'amenity': 'pharmacy', 'name': 'Pharmacie Oluwatoyin de Kpota'}}"
"{'type': 'node', 'id': 9836973063, 'lat': 6.36613, 'lon': 2.475729, 'tags': {'amenity': 'pharmacy', 'name': 'Pharmaquick'}}"
"{'type': 'node', 'id': 9858650920, 'lat': 6.8216519, 'lon': 2.7636783, 'tags': {'amenity': 'clinic', 'healthcare': 'clinic'}}"
"{'type': 'node', 'id': 9859159401, 'lat': 6.91971, 'lon': 2.0464343, 'tags': {'healthcare': 'yes', 'name': 'Centre de Santé de Tchito'}}"
"{'type': 'node', 'id': 9860347358, 'lat': 6.4770274, 'lon': 2.8601915, 'tags': {'amenity': 'pharmacy'}}"
"{'type': 'node', 'id': 9860347376, 'lat': 6.4787478, 'lon': 2.861101, 'tags': {'amenity': 'clinic', 'healthcare': 'clinic'}}"
"{'type': 'node', 'id': 10018627250, 'lat': 6.3895667, 'lon': 2.3787898, 'tags': {'amenity': 'clinic', 'name': 'MEDOM Benin', 'phone': '60939494'}}"
"{'type': 'node', 'id': 10020905305, 'lat': 6.4364009, 'lon': 2.3332621, 'tags': {'amenity': 'pharmacy', 'name': 'La Référence'}}"
"{'type': 'node', 'id': 10042436985, 'lat': 6.6748532, 'lon': 2.4850894, 'tags': {'amenity': 'hospital', 'name': 'Centre de santé de Ague-Milahin'}}"
"{'type': 'node', 'id': 10056352607, 'lat': 7.0655853, 'lon': 2.2717355, 'tags': {'amenity': 'hospital', 'name': 'Centre de santé de Kousspkpa'}}"
"{'type': 'node', 'id': 10087570109, 'lat': 6.5000977, 'lon': 2.3628831, 'tags': {'amenity': 'pharmacy', 'name': 'Cica Santé'}}"
"{'type': 'node', 'id': 10173932877, 'lat': 6.3897001, 'lon': 2.3789064, 'tags': {'healthcare': 'yes', 'name': 'MEDIOM BENIN'}}"
"{'type': 'node', 'id': 10173946265, 'lat': 6.389095, 'lon': 2.377705, 'tags': {'healthcare': 'yes', 'name': 'CENTRE MEDICAL SEYON'}}"
"{'type': 'node', 'id': 10176038578, 'lat': 6.3902684, 'lon': 2.3857847, 'tags': {'amenity': 'hospital', 'name': 'CABINET DE SOIN EX CRASIB ONG D'}}"
"{'type': 'node', 'id': 10176046337, 'lat': 6.3906159, 'lon': 2.3851954, 'tags': {'amenity': 'hospital', 'name': 'Clinique Sainte Gerarda'}}"
"{'type': 'node', 'id': 10632381251, 'lat': 6.8893314, 'lon': 2.6186754, 'tags': {'amenity': 'pharmacy', 'dispensing': 'yes', 'healthcare': 'pharmacy', 'name': 'Pharmacie Olabissi'}}"
"{'type': 'node', 'id': 10632469835, 'lat': 6.8985175, 'lon': 2.6235435, 'tags': {'healthcare': 'centre', 'healthcare:speciality': 'general;gynaecology', 'name': ""Centre de santé d'Arrondissement d'Ikpinlè""}}"
"{'type': 'node', 'id': 10680268057, 'lat': 6.8819721, 'lon': 2.6576833, 'tags': {'healthcare': 'yes', 'name': 'Centre de Santé de Fouditi'}}"
"{'type': 'node', 'id': 10694827398, 'lat': 6.3846589, 'lon': 2.0083508, 'tags': {'healthcare': 'yes', 'name': 'Cabinet de santé REHOBOTH'}}"
"{'type': 'node', 'id': 10694837567, 'lat': 6.3839235, 'lon': 2.0075034, 'tags': {'amenity': 'pharmacy', 'name': 'Dépôt Pharmaceutique', 'phone': '96069181'}}"
"{'type': 'node', 'id': 10871377139, 'lat': 6.378737, 'lon': 2.6974607, 'tags': {'amenity': 'pharmacy', 'name': 'Grande Pharmacie de Kraké'}}"
"{'type': 'node', 'id': 10912507705, 'lat': 6.5092641, 'lon': 2.6237096, 'tags': {'amenity': 'pharmacy', 'healthcare': 'pharmacy', 'name': 'Pharmacie du Cinquantenaire', 'survey:date': '2023-05-19'}}"
"{'type': 'node', 'id': 10970572902, 'lat': 6.5756925, 'lon': 2.699591, 'tags': {'amenity': 'hospital', 'name': 'Centre de santé Daagbé'}}"
"{'type': 'node', 'id': 10970594155, 'lat': 7.0005453, 'lon': 2.6004394, 'tags': {'amenity': 'hospital', 'name': 'Centre de santé Gbahouété'}}"
"{'type': 'node', 'id': 10980362862, 'lat': 6.504798, 'lon': 2.6812114, 'tags': {'amenity': 'hospital', 'name': 'Clinique Dieu fera', 'opening_hours': '24/7', 'phone': '97677933'}}"
"{'type': 'node', 'id': 10980388289, 'lat': 6.511872, 'lon': 2.6398234, 'tags': {'healthcare': 'nurse', 'name': 'Infirmerie divine miséricorde'}}"
"{'type': 'node', 'id': 10980393630, 'lat': 6.5093865, 'lon': 2.6404369, 'tags': {'amenity': 'clinic', 'name': 'Clinique saint laurent', 'phone': '96150674'}}"
"{'type': 'node', 'id': 10980403918, 'lat': 6.5334696, 'lon': 2.65971, 'tags': {'amenity': 'hospital', 'name': 'Centre de santé Communal adjarra I'}}"
"{'type': 'node', 'id': 10980415708, 'lat': 6.5338976, 'lon': 2.6598112, 'tags': {'amenity': 'hospital', 'name': 'Centre de santé Communal adjarra dispensaire'}}"
"{'type': 'node', 'id': 10980439858, 'lat': 6.5238021, 'lon': 2.6770548, 'tags': {'healthcare': 'yes', 'name': 'Centre Marie Mère Des plus Abandonnés(cabinet de soins)'}}"
"{'type': 'node', 'id': 10980481851, 'lat': 6.4809833, 'lon': 2.7087503, 'tags': {'amenity': 'hospital', 'name': 'Centre de santé de tchakou'}}"
"{'type': 'node', 'id': 10990071259, 'lat': 6.5092447, 'lon': 2.6561331, 'tags': {'amenity': 'hospital', 'name': ""Clinique d'accouchement Sainte Cécile""}}"
"{'type': 'node', 'id': 10990127893, 'lat': 6.5009786, 'lon': 2.6978899, 'tags': {'amenity': 'hospital', 'healthcare': 'hospital', 'name': 'Centre de santé de mededjonou'}}"
"{'type': 'node', 'id': 10990136867, 'lat': 6.5251217, 'lon': 2.6593298, 'tags': {'amenity': 'pharmacy', 'healthcare': 'pharmacy', 'name': ""Pharmacie Centrale d'adjarra"", 'phone': '65649671'}}"
"{'type': 'node', 'id': 10990157994, 'lat': 6.5229159, 'lon': 2.6587898, 'tags': {'amenity': 'hospital', 'healthcare': 'hospital', 'name': 'Cabinet médical ""ab santé life plus""'}}"
"{'type': 'node', 'id': 10990239442, 'lat': 6.5282482, 'lon': 2.667543, 'tags': {'amenity': 'hospital', 'healthcare': 'hospital', 'name': 'Clinique fingnon', 'phone': '65538484'}}"
"{'type': 'node', 'id': 10990246789, 'lat': 6.5266657, 'lon': 2.6713305, 'tags': {'amenity': 'hospital', 'description': 'Centre de récupération nutritionnels', 'healthcare': 'hospital', 'name': 'Ong cœur a cœur', 'phone': '66051878'}}"
"{'type': 'node', 'id': 10990256461, 'lat': 6.5296363, 'lon': 2.6670225, 'tags': {'amenity': 'hospital', 'healthcare': 'hospital', 'name': 'Ong enantche', 'phone': '97225444'}}"
"{'type': 'node', 'id': 10990273547, 'lat': 6.5078655, 'lon': 2.6465786, 'tags': {'amenity': 'pharmacy', 'name': 'Grâce Divine de Agata', 'phone': '64104379'}}"
"{'type': 'node', 'id': 10992660292, 'lat': 6.4896792, 'lon': 2.6664157, 'tags': {'amenity': 'hospital', 'name': 'Grisseur des os'}}"
"{'type': 'node', 'id': 10992666396, 'lat': 6.4899703, 'lon': 2.6657478, 'tags': {'amenity': 'hospital', 'name': 'Voudoun R Gemy', 'phone': '97538909'}}"
"{'type': 'node', 'id': 10992693391, 'lat': 6.5077784, 'lon': 2.6467676, 'tags': {'amenity': 'pharmacy', 'name': 'Pharmacie Agata Grace divine'}}"
"{'type': 'node', 'id': 10992697873, 'lat': 6.4900106, 'lon': 2.665409, 'tags': {'amenity': 'pharmacy', 'name': 'Pharmacie PM Malanhoui', 'opening_hours': 'Mo-Su 07:00-00:00', 'phone': '95391253'}}"
"{'type': 'node', 'id': 10992697923, 'lat': 6.4887396, 'lon': 2.6619863, 'tags': {'amenity': 'hospital', 'name': 'Zone sanitaire 3A', 'phone': '67670785'}}"
"{'type': 'node', 'id': 11071056105, 'lat': 6.3528544, 'lon': 2.0804626, 'tags': {'amenity': 'hospital', 'name': 'CS GANLONONCODJI'}}"
"{'type': 'node', 'id': 11071097106, 'lat': 6.3218255, 'lon': 2.0302272, 'tags': {'amenity': 'hospital', 'name': 'CS HOUAKPE DAHO'}}"
"{'type': 'node', 'id': 11071174805, 'lat': 6.3802754, 'lon': 1.9516185, 'tags': {'amenity': 'hospital', 'name': 'CS DJONJI OUIDAH'}}"
"{'type': 'node', 'id': 11078450605, 'lat': 6.3870516, 'lon': 2.0054367, 'tags': {'amenity': 'hospital', 'name': 'CS AGONKANME'}}"
"{'type': 'node', 'id': 11078500705, 'lat': 6.4001697, 'lon': 1.9662897, 'tags': {'amenity': 'hospital', 'name': 'CS SEGBOHOUE'}}"
"{'type': 'node', 'id': 11102238605, 'lat': 6.4469202, 'lon': 2.0066606, 'tags': {'amenity': 'hospital', 'name': 'CS KPOMASSE CENTRE'}}"
"{'type': 'node', 'id': 11228710701, 'lat': 6.5266868, 'lon': 2.6713883, 'tags': {'amenity': 'clinic', 'contact': '66051878', 'healthcare': 'clinic', 'name': 'St Michel'}}"
"{'type': 'node', 'id': 11228710702, 'lat': 6.5037593, 'lon': 2.6469872, 'tags': {'amenity': 'clinic', 'contact': '96535829', 'name': 'Tasly Monde Benin'}}"
"{'type': 'node', 'id': 11228710703, 'lat': 6.533533, 'lon': 2.6596506, 'tags': {'amenity': 'hospital', 'contact': '20274125', 'name': 'Centre De Sante Communal Adjarra 1'}}"
"{'type': 'node', 'id': 11228710704, 'lat': 6.5092217, 'lon': 2.6750745, 'tags': {'amenity': 'clinic', 'contact': '94010356', 'healthcare': 'clinic', 'name': ""Centre Médical Saint Camille D'Adjarra""}}"
"{'type': 'node', 'id': 11336542469, 'lat': 6.435076, 'lon': 2.6171393, 'tags': {'amenity': 'clinic', 'name': 'Polyclinique The New life'}}"
"{'type': 'node', 'id': 11494372269, 'lat': 6.4252705, 'lon': 2.6247816, 'tags': {'amenity': 'hospital', 'name': 'Centre de Santé Djeregbe'}}"
"{'type': 'node', 'id': 11563921571, 'lat': 6.3721829, 'lon': 2.4788198, 'tags': {'amenity': 'pharmacy', 'description': 'Vérité terrain', 'name': 'Siloé Dégakon', 'phone': '99070606'}}"
"{'type': 'node', 'id': 11685363169, 'lat': 6.4836965, 'lon': 2.3268054, 'tags': {'amenity': 'pharmacy', 'name': 'Pharmacie SEDAMI'}}"
"{'type': 'node', 'id': 11886853246, 'lat': 6.5059412, 'lon': 3.1702262, 'tags': {'amenity': 'hospital', 'name': 'Grace Olambipo Clinic', 'operator': 'private'}}"
"{'type': 'node', 'id': 11886853247, 'lat': 6.5023249, 'lon': 3.1716183, 'tags': {'amenity': 'hospital', 'name': 'Isashi Primary Health Care Center', 'operator': 'private'}}"
"{'type': 'node', 'id': 11886853248, 'lat': 6.4997452, 'lon': 3.170768, 'tags': {'amenity': 'hospital', 'name': 'Lagos State Ministry Of Health Belinda Convalscent And Fertility Centre', 'operator': 'government'}}"
"{'type': 'node', 'id': 11886853249, 'lat': 6.4955932, 'lon': 3.1718919, 'tags': {'amenity': 'hospital', 'name': 'Pioneer Medical Clinic', 'operator': 'private'}}"
"{'type': 'node', 'id': 11886853250, 'lat': 6.4955066, 'lon': 3.1717899, 'tags': {'amenity': 'hospital', 'name': 'Leverage Hospital Specialist Clinic', 'operator': 'private'}}"
"{'type': 'node', 'id': 11886853251, 'lat': 6.496422, 'lon': 3.1711113, 'tags': {'amenity': 'hospital', 'name': 'Tower Of Glory Hospital', 'operator': 'private'}}"
"{'type': 'node', 'id': 11886853252, 'lat': 6.4922566, 'lon': 3.1740108, 'tags': {'amenity': 'hospital', 'name': 'Noble Medical Digonistic Centre', 'operator': 'private'}}"
"{'type': 'node', 'id': 11886853253, 'lat': 6.4902392, 'lon': 3.1999826, 'tags': {'amenity': 'hospital', 'name': 'Grace Land Medical Center', 'operator': 'private'}}"
"{'type': 'node', 'id': 11886853254, 'lat': 6.4927656, 'lon': 3.2000443, 'tags': {'amenity': 'hospital', 'name': 'Pa Clement Ogunsusi', 'operator': 'private'}}"
"{'type': 'node', 'id': 11886853255, 'lat': 6.5029858, 'lon': 3.2065956, 'tags': {'amenity': 'hospital', 'name': 'Adis Bunm Trado Medical Hospital And Maternity Home 14 Nnaema Uzor Street Off Summit Light Road', 'operator': 'private'}}"
"{'type': 'node', 'id': 11886853256, 'lat': 6.5004514, 'lon': 3.2067874, 'tags': {'amenity': 'hospital', 'name': 'Ndieze Homeopathic Medical Services 20 Drchiwumba Off Summit Light Road', 'operator': 'private'}}"
"{'type': 'node', 'id': 11886853257, 'lat': 6.5023249, 'lon': 3.198207, 'tags': {'amenity': 'hospital', 'name': 'Wisdom Hospital And Maternity', 'operator': 'private'}}"
"{'type': 'node', 'id': 11886853258, 'lat': 6.4971682, 'lon': 3.1964502, 'tags': {'amenity': 'hospital', 'name': 'Betheland Hospital', 'operator': 'private'}}"
"{'type': 'node', 'id': 11886996045, 'lat': 6.4944299, 'lon': 3.1438789, 'tags': {'amenity': 'hospital', 'name': 'Ademola Medical Center', 'operator': 'private'}}"
"{'type': 'node', 'id': 11886996046, 'lat': 6.4943833, 'lon': 3.125436, 'tags': {'amenity': 'hospital', 'name': 'Hyssop Eye Clinic', 'operator': 'private'}}"
"{'type': 'node', 'id': 11886996047, 'lat': 6.4961688, 'lon': 3.1253126, 'tags': {'amenity': 'hospital', 'name': 'Ore Ofe Hospital Ijanikin', 'operator': 'private'}}"
"{'type': 'node', 'id': 11886996048, 'lat': 6.4943433, 'lon': 3.1184435, 'tags': {'amenity': 'hospital', 'name': 'Femola Hospital', 'operator': 'private'}}"
"{'type': 'node', 'id': 11886996049, 'lat': 6.497404, 'lon': 3.1186245, 'tags': {'amenity': 'hospital', 'name': 'Ijanikin Primary Health Care Center By Ile Oba Bstop Lagos Badagry Express Road', 'operator': 'private'}}"
"{'type': 'node', 'id': 11886996050, 'lat': 6.4937197, 'lon': 3.1415319, 'tags': {'amenity': 'hospital', 'name': 'Angelic Care Foundation Maternity', 'operator': 'private'}}"
"{'type': 'node', 'id': 11886996051, 'lat': 6.4949056, 'lon': 3.139472, 'tags': {'amenity': 'hospital', 'name': 'Ever Life Hospital', 'operator': 'private'}}"
"{'type': 'node', 'id': 11887050496, 'lat': 6.4769146, 'lon': 3.1240956, 'tags': {'amenity': 'hospital', 'name': 'Era Primary Health Care Center', 'operator': 'private'}}"
"{'type': 'node', 'id': 11887050497, 'lat': 6.4769579, 'lon': 3.1232701, 'tags': {'amenity': 'hospital', 'name': 'Oriowo Maternity Home', 'operator': 'private'}}"
"{'type': 'node', 'id': 11887050498, 'lat': 6.4607312, 'lon': 3.1053704, 'tags': {'amenity': 'hospital', 'name': 'Goodness Medical Center', 'operator': 'private'}}"
"{'type': 'node', 'id': 11887050499, 'lat': 6.4666106, 'lon': 3.1150451, 'tags': {'amenity': 'hospital', 'name': 'Imude Primary Health Care Center', 'operator': 'public'}}"
"{'type': 'node', 'id': 11887050500, 'lat': 6.4768459, 'lon': 3.158218, 'tags': {'amenity': 'hospital', 'name': 'Angelic Care Health Center 124 Adaloko Road By Pako Bstop', 'operator': 'private'}}"
"{'type': 'node', 'id': 11887050501, 'lat': 6.4766967, 'lon': 3.1423406, 'tags': {'amenity': 'hospital', 'name': 'Devital Care Hospital', 'operator': 'private'}}"
"{'type': 'node', 'id': 11887050502, 'lat': 6.4884476, 'lon': 3.1539707, 'tags': {'amenity': 'hospital', 'name': 'Denow Ayetoro Medical Center', 'operator': 'private'}}"
"{'type': 'node', 'id': 11887050503, 'lat': 6.4869359, 'lon': 3.1532773, 'tags': {'amenity': 'hospital', 'name': 'Ketu Medical Clinic', 'operator': 'private'}}"
"{'type': 'node', 'id': 11887082163, 'lat': 6.4042557, 'lon': 3.0292305, 'tags': {'amenity': 'hospital', 'name': 'Primary Health Building Dadiluwi Ilaje Riverine', 'operator': 'public'}}"
"{'type': 'node', 'id': 11887087044, 'lat': 6.4078114, 'lon': 3.0736023, 'tags': {'amenity': 'hospital', 'name': 'Taffi Awori Primary Health Centre', 'operator': 'public'}}"
"{'type': 'node', 'id': 11887482478, 'lat': 6.4730095, 'lon': 3.1512415, 'tags': {'amenity': 'hospital', 'name': 'Alhayat Hospital 2ekuweme Street Off Ogo Oluwa Street By Green And White Bus Stop', 'operator': 'private'}}"
"{'type': 'node', 'id': 11887482479, 'lat': 6.4700726, 'lon': 3.1429884, 'tags': {'amenity': 'hospital', 'name': 'God Cures Hospital', 'operator': 'private'}}"
"{'type': 'node', 'id': 11887512842, 'lat': 6.4601775, 'lon': 3.140227, 'tags': {'amenity': 'hospital', 'name': 'Healing Land Hospital And Maternity', 'operator': 'private'}}"
"{'type': 'node', 'id': 11887512843, 'lat': 6.4670343, 'lon': 3.1412986, 'tags': {'amenity': 'hospital', 'name': 'Ejiwunmi Tradomedical', 'operator': 'private'}}"
"{'type': 'node', 'id': 11887512844, 'lat': 6.4610151, 'lon': 3.1443389, 'tags': {'amenity': 'hospital', 'name': 'Goodness Medical Services', 'operator': 'private'}}"
"{'type': 'node', 'id': 11887512845, 'lat': 6.461792, 'lon': 3.1442732, 'tags': {'amenity': 'hospital', 'name': 'Shibiri Primary Health Centre', 'operator': 'public'}}"
"{'type': 'node', 'id': 11887512846, 'lat': 6.4658497, 'lon': 3.1529447, 'tags': {'amenity': 'hospital', 'name': 'Olutayo Nursing Home', 'operator': 'private'}}"
"{'type': 'node', 'id': 11887512847, 'lat': 6.4648342, 'lon': 3.1534101, 'tags': {'amenity': 'hospital', 'name': 'Illogbo Central Hospital Illogboope', 'operator': 'private'}}"
"{'type': 'node', 'id': 11887512848, 'lat': 6.4616534, 'lon': 3.1538205, 'tags': {'amenity': 'hospital', 'name': 'Muskat Hospital9 Abbi Street By Rasaq Bstop Off Bishiri Ajangbadi Ojo', 'operator': 'private'}}"
"{'type': 'node', 'id': 11887518928, 'lat': 6.4593733, 'lon': 3.1405167, 'tags': {'amenity': 'hospital', 'name': 'Vineyard Convalescent Hospital', 'operator': 'private'}}"
"{'type': 'node', 'id': 11887518929, 'lat': 6.457593, 'lon': 3.1535174, 'tags': {'amenity': 'hospital', 'name': 'Edo Convalescent Homeclinic And Easy Delivery', 'operator': 'private'}}"
"{'type': 'node', 'id': 11887518930, 'lat': 6.4534686, 'lon': 3.1439942, 'tags': {'amenity': 'hospital', 'name': 'Munidola Maternity Center', 'operator': 'private'}}"
"{'type': 'node', 'id': 11887518931, 'lat': 6.4547106, 'lon': 3.1392762, 'tags': {'amenity': 'hospital', 'name': 'Grace Mobolaji Maternity', 'operator': 'private'}}"
"{'type': 'node', 'id': 11887518933, 'lat': 6.4584845, 'lon': 3.131361, 'tags': {'amenity': 'hospital', 'name': 'Summy Indeel Laboratary', 'operator': 'private'}}"
"{'type': 'node', 'id': 11887555938, 'lat': 6.4603501, 'lon': 3.1401533, 'tags': {'amenity': 'hospital', 'name': 'Healing Land Hospital And Maternity', 'operator': 'private'}}"
"{'type': 'node', 'id': 11888950304, 'lat': 6.443889, 'lon': 3.1465262, 'tags': {'amenity': 'hospital', 'name': 'Primary Health Center Ese Ofin Riverine', 'operator': 'public'}}"
"{'type': 'node', 'id': 11888969820, 'lat': 6.4181773, 'lon': 3.1449088, 'tags': {'amenity': 'hospital', 'name': 'Irewe Primary Care Health Center Osulu Kingdom', 'operator': 'public'}}"
"{'type': 'node', 'id': 11889023436, 'lat': 6.4870651, 'lon': 3.1653258, 'tags': {'amenity': 'hospital', 'name': 'Chidove Homoeopathic Medical Center', 'operator': 'private'}}"
"{'type': 'node', 'id': 11889023437, 'lat': 6.4864475, 'lon': 3.1736923, 'tags': {'amenity': 'hospital', 'name': 'Mainframe Hospital And Maternity Centre', 'operator': 'private'}}"
"{'type': 'node', 'id': 11889023438, 'lat': 6.4780452, 'lon': 3.1587236, 'tags': {'amenity': 'hospital', 'name': 'Divine Favour Maternity Center Adoloko', 'operator': 'private'}}"
"{'type': 'node', 'id': 11889023439, 'lat': 6.476177, 'lon': 3.1628032, 'tags': {'amenity': 'hospital', 'name': 'Emmanuel Power Hospital', 'operator': 'private'}}"
"{'type': 'node', 'id': 11889023440, 'lat': 6.4711933, 'lon': 3.1783828, 'tags': {'amenity': 'hospital', 'name': 'Abodunrin Medical Center', 'operator': 'private'}}"
"{'type': 'node', 'id': 11889023441, 'lat': 6.4709387, 'lon': 3.1616921, 'tags': {'amenity': 'hospital', 'name': 'Redeem Medical Center Annex', 'operator': 'private'}}"
"{'type': 'node', 'id': 11889023442, 'lat': 6.4581407, 'lon': 3.1593271, 'tags': {'amenity': 'hospital', 'name': 'Conner Stone Medical Center', 'operator': 'private'}}"
"{'type': 'node', 'id': 11889023443, 'lat': 6.46757, 'lon': 3.1800444, 'tags': {'amenity': 'hospital', 'name': 'Okoko Central Hospital Jakande New Site', 'operator': 'private'}}"
"{'type': 'node', 'id': 11889023444, 'lat': 6.4647236, 'lon': 3.1720206, 'tags': {'amenity': 'hospital', 'name': 'Dikue Medical Centre', 'operator': 'private'}}"
"{'type': 'node', 'id': 11889023445, 'lat': 6.4621438, 'lon': 3.1728575, 'tags': {'amenity': 'hospital', 'name': 'Sabo Crown Hospital', 'operator': 'private'}}"
"{'type': 'node', 'id': 11889023446, 'lat': 6.4617147, 'lon': 3.1753948, 'tags': {'amenity': 'hospital', 'name': 'Garden Hospital Sabo Oniba Town', 'operator': 'private'}}"
"{'type': 'node', 'id': 11889023447, 'lat': 6.458735, 'lon': 3.1770015, 'tags': {'amenity': 'hospital', 'name': 'Deelshaddai Health Canter Home', 'operator': 'private'}}"
"{'type': 'node', 'id': 11889046391, 'lat': 6.4515789, 'lon': 3.1627616, 'tags': {'amenity': 'hospital', 'name': 'Igbede Primary Health Center Igbede Bstop Ojo Igbede', 'operator': 'private'}}"
"{'type': 'node', 'id': 11889139972, 'lat': 6.4648835, 'lon': 3.1889132, 'tags': {'amenity': 'hospital', 'name': 'Blessed Mary Natural Clinic And Maternity', 'operator': 'private'}}"
"{'type': 'node', 'id': 11889139973, 'lat': 6.4665519, 'lon': 3.181698, 'tags': {'amenity': 'hospital', 'name': 'Redeemed Medical Center', 'operator': 'private'}}"
"{'type': 'node', 'id': 11889139974, 'lat': 6.4669943, 'lon': 3.1853673, 'tags': {'amenity': 'hospital', 'name': 'Ifeoluwa Maternity Home', 'operator': 'private'}}"
"{'type': 'node', 'id': 11889139975, 'lat': 6.4659549, 'lon': 3.1831571, 'tags': {'amenity': 'hospital', 'name': 'Kena Hospital', 'operator': 'private'}}"
"{'type': 'node', 'id': 11889139976, 'lat': 6.4671796, 'lon': 3.1872247, 'tags': {'amenity': 'hospital', 'name': 'Kemberi Primary Health Center', 'operator': 'private'}}"
"{'type': 'node', 'id': 11889139977, 'lat': 6.4702271, 'lon': 3.1949793, 'tags': {'amenity': 'hospital', 'name': 'Kiladejo Hospital', 'operator': 'private'}}"
"{'type': 'node', 'id': 11889139978, 'lat': 6.4707042, 'lon': 3.1910831, 'tags': {'amenity': 'hospital', 'name': 'Okokomaiko Primary Health Care Board', 'operator': 'public'}}"
"{'type': 'node', 'id': 11889139979, 'lat': 6.4821828, 'lon': 3.1882533, 'tags': {'amenity': 'hospital', 'name': 'Hon C O Ojelabi Health Center Igbo Elerin', 'operator': 'private'}}"
"{'type': 'node', 'id': 11889139980, 'lat': 6.4835473, 'lon': 3.1872851, 'tags': {'amenity': 'hospital', 'name': 'Bossom Hospital And Maternity', 'operator': 'private'}}"
"{'type': 'node', 'id': 11889139981, 'lat': 6.4835926, 'lon': 3.1867862, 'tags': {'amenity': 'hospital', 'name': 'Bolus Coudlescent Center', 'operator': 'private'}}"
"{'type': 'node', 'id': 11889139982, 'lat': 6.4862936, 'lon': 3.1852627, 'tags': {'amenity': 'hospital', 'name': 'Ancel Hospital', 'operator': 'private'}}"
"{'type': 'node', 'id': 11889159163, 'lat': 6.4568267, 'lon': 3.2021928, 'tags': {'amenity': 'hospital', 'name': 'Fellowship Clinic And Maternity Center', 'operator': 'private'}}"
"{'type': 'node', 'id': 11889159164, 'lat': 6.4560805, 'lon': 3.2022692, 'tags': {'amenity': 'hospital', 'name': ""God's Goal Hospital"", 'operator': 'private'}}"
"{'type': 'node', 'id': 11889159165, 'lat': 6.458504, 'lon': 3.1849846, 'tags': {'amenity': 'hospital', 'healthcare': 'hospital', 'name': 'Divine Release Maternity Home', 'operator': 'private'}}"
"{'type': 'node', 'id': 11889159166, 'lat': 6.4535725, 'lon': 3.1895582, 'tags': {'amenity': 'hospital', 'name': 'Genesis Health Center', 'operator': 'private'}}"
"{'type': 'node', 'id': 11889190332, 'lat': 6.4590801, 'lon': 3.2290417, 'tags': {'amenity': 'hospital', 'name': 'Bonne Fante Hospital', 'operator': 'private'}}"
"{'type': 'node', 'id': 11889190333, 'lat': 6.4592327, 'lon': 3.2229839, 'tags': {'amenity': 'hospital', 'name': 'Safe Healing Nursing Home', 'operator': 'private'}}"
"{'type': 'node', 'id': 11889190334, 'lat': 6.4585031, 'lon': 3.2200912, 'tags': {'amenity': 'hospital', 'name': 'Alexander Memorial Hospital Olugbemi Agric', 'operator': 'private'}}"
"{'type': 'node', 'id': 11889190335, 'lat': 6.4562244, 'lon': 3.2211815, 'tags': {'amenity': 'hospital', 'name': 'St David Med Center', 'operator': 'private'}}"
"{'type': 'node', 'id': 11889190336, 'lat': 6.4463071, 'lon': 3.2276148, 'tags': {'amenity': 'hospital', 'name': 'Tedi Primary Health Center Ojo', 'operator': 'private'}}"
"{'type': 'node', 'id': 11889190337, 'lat': 6.4457141, 'lon': 3.2218426, 'tags': {'amenity': 'hospital', 'name': 'Divine Gift Medical Centre Hospital', 'operator': 'private'}}"
"{'type': 'node', 'id': 11889190338, 'lat': 6.44454, 'lon': 3.2142627, 'tags': {'amenity': 'hospital', 'name': 'New Nigeria Hospital', 'operator': 'private'}}"
"{'type': 'node', 'id': 11889212942, 'lat': 6.4696408, 'lon': 3.2276791, 'tags': {'amenity': 'hospital', 'name': 'MRS Hospital', 'operator': 'private'}}"
"{'type': 'node', 'id': 11889356823, 'lat': 6.5797385, 'lon': 3.0888936, 'tags': {'amenity': 'hospital', 'name': 'Oluwalogbon Medical Centre', 'operator': 'private'}}"
"{'type': 'node', 'id': 11889356824, 'lat': 6.5772458, 'lon': 3.0935238, 'tags': {'amenity': 'hospital', 'name': 'Blessed Trinity Hospital', 'operator': 'private'}}"
"{'type': 'node', 'id': 11889356825, 'lat': 6.5764238, 'lon': 3.0914457, 'tags': {'amenity': 'hospital', 'name': 'De Godswill Hospital', 'operator': 'private'}}"
"{'type': 'node', 'id': 11889356826, 'lat': 6.5657894, 'lon': 3.0814022, 'tags': {'amenity': 'hospital', 'name': 'Ojuoluwa Medical Centre', 'operator': 'private'}}"
"{'type': 'node', 'id': 11889356827, 'lat': 6.5610491, 'lon': 3.0790901, 'tags': {'amenity': 'hospital', 'name': 'Medics Clinical Venture', 'operator': 'private'}}"
"{'type': 'node', 'id': 11889378477, 'lat': 6.588285, 'lon': 3.0805197, 'tags': {'amenity': 'hospital', 'name': 'Saving Grace Hospital', 'operator': 'private'}}"
"{'type': 'node', 'id': 11889378478, 'lat': 6.5987137, 'lon': 3.0715866, 'tags': {'amenity': 'hospital', 'name': 'Ketu Health Centre', 'operator': 'public'}}"
"{'type': 'node', 'id': 11889378479, 'lat': 6.6174031, 'lon': 3.0917099, 'tags': {'amenity': 'hospital', 'name': 'Odugbe Hosipal', 'operator': 'private'}}"
"{'type': 'node', 'id': 11889669564, 'lat': 6.5521424, 'lon': 3.0427006, 'tags': {'amenity': 'hospital', 'name': 'Egudu Health Center', 'operator': 'private'}}"
"{'type': 'node', 'id': 11889706143, 'lat': 6.5011017, 'lon': 3.0874774, 'tags': {'amenity': 'hospital', 'name': 'Nestle Nig Plc Staff Clinic', 'operator': 'others'}}"
"{'type': 'node', 'id': 11889706144, 'lat': 6.5061171, 'lon': 3.0885985, 'tags': {'amenity': 'hospital', 'name': 'Rophe Clinic', 'operator': 'private'}}"
"{'type': 'node', 'id': 11889706145, 'lat': 6.511804, 'lon': 3.0917206, 'tags': {'amenity': 'hospital', 'name': 'Toluwalope Clinic and Maternity', 'operator': 'private'}}"
"{'type': 'node', 'id': 11889706146, 'lat': 6.5296453, 'lon': 3.0774298, 'tags': {'amenity': 'hospital', 'name': 'Rock Of Ages Hospital', 'operator': 'private'}}"
"{'type': 'node', 'id': 11889717157, 'lat': 6.5041077, 'lon': 3.1024092, 'tags': {'amenity': 'hospital', 'name': 'Agbara Primary Health Care Center', 'operator': 'public'}}"
"{'type': 'node', 'id': 11889717158, 'lat': 6.5028899, 'lon': 3.1011794, 'tags': {'amenity': 'hospital', 'name': 'Agbara Medical Center', 'operator': 'private'}}"
"{'type': 'node', 'id': 11889717159, 'lat': 6.5039505, 'lon': 3.1009206, 'tags': {'amenity': 'hospital', 'name': 'Sefa Hospital Clinic And Maternity', 'operator': 'private'}}"
"{'type': 'node', 'id': 11889743915, 'lat': 6.5276893, 'lon': 3.1341237, 'tags': {'amenity': 'hospital', 'name': 'Igbesa Primary Health Center', 'operator': 'public'}}"
"{'type': 'node', 'id': 11889743916, 'lat': 6.5242703, 'lon': 3.1363955, 'tags': {'amenity': 'hospital', 'name': 'Falola Clinic Medical', 'operator': 'private'}}"
"{'type': 'node', 'id': 11889743917, 'lat': 6.5318571, 'lon': 3.1786939, 'tags': {'amenity': 'hospital', 'name': 'Ikogbo Primary Health Center', 'operator': 'public'}}"
"{'type': 'node', 'id': 11889755182, 'lat': 6.5367869, 'lon': 3.135505, 'tags': {'amenity': 'hospital', 'name': 'Falola Medical Clinic', 'operator': 'private'}}"
"{'type': 'node', 'id': 11889755183, 'lat': 6.5406641, 'lon': 3.1293118, 'tags': {'amenity': 'hospital', 'name': 'Olabaji Clinic', 'operator': 'private'}}"
"{'type': 'node', 'id': 11890813755, 'lat': 6.5615953, 'lon': 3.1885584, 'tags': {'amenity': 'hospital', 'name': 'Savelife Hospital Moshe', 'operator': 'private'}}"
"{'type': 'node', 'id': 11890813756, 'lat': 6.5781878, 'lon': 3.1754203, 'tags': {'amenity': 'hospital', 'name': 'Odan Abuja Primary Health Center', 'operator': 'public'}}"
"{'type': 'node', 'id': 11890939738, 'lat': 6.6798885, 'lon': 3.2520658, 'tags': {'amenity': 'hospital', 'name': 'Ilupewo Health Center', 'operator': 'private'}}"
"{'type': 'node', 'id': 11890939739, 'lat': 6.6785672, 'lon': 3.2610545, 'tags': {'amenity': 'hospital', 'name': 'Heaven Hospital Alagbado', 'operator': 'private'}}"
"{'type': 'node', 'id': 11890939740, 'lat': 6.6778665, 'lon': 3.2597651, 'tags': {'amenity': 'hospital', 'name': 'Agbado Okeodo Primary Health Center', 'operator': 'public'}}"
"{'type': 'node', 'id': 11890939741, 'lat': 6.6727483, 'lon': 3.2541525, 'tags': {'amenity': 'hospital', 'name': 'Oke Ilo Health Center', 'operator': 'public'}}"
"{'type': 'node', 'id': 11890939742, 'lat': 6.6698558, 'lon': 3.254056, 'tags': {'amenity': 'hospital', 'name': 'New Merit Hospital Limited', 'operator': 'private'}}"
"{'type': 'node', 'id': 11890939743, 'lat': 6.6669253, 'lon': 3.251009, 'tags': {'amenity': 'hospital', 'name': 'Taqwa Hospital', 'operator': 'private'}}"
"{'type': 'node', 'id': 11891069740, 'lat': 6.6503625, 'lon': 3.2446092, 'tags': {'amenity': 'hospital', 'name': 'Alaso Amikanle Primary Health Care Center', 'operator': 'public'}}"
"{'type': 'node', 'id': 11891069741, 'lat': 6.6461751, 'lon': 3.271031, 'tags': {'amenity': 'hospital', 'name': 'First Wave Medical Center', 'operator': 'public'}}"
"{'type': 'node', 'id': 11891069742, 'lat': 6.6487001, 'lon': 3.2695994, 'tags': {'amenity': 'hospital', 'name': 'Crescent Hospital', 'operator': 'private'}}"
"{'type': 'node', 'id': 11891069743, 'lat': 6.6499389, 'lon': 3.2622528, 'tags': {'amenity': 'hospital', 'name': 'Agbenuba Health Centre', 'operator': 'public'}}"
"{'type': 'node', 'id': 11891069744, 'lat': 6.6542615, 'lon': 3.2601178, 'tags': {'amenity': 'hospital', 'name': 'Surulere Primary Health Care Center', 'operator': 'public'}}"
"{'type': 'node', 'id': 11891069745, 'lat': 6.6579913, 'lon': 3.2575589, 'tags': {'amenity': 'hospital', 'name': 'Cavesbury Private Hospital', 'operator': 'private'}}"
"{'type': 'node', 'id': 11891106130, 'lat': 6.6389225, 'lon': 3.2589068, 'tags': {'amenity': 'hospital', 'name': 'Raufmomic Health Care', 'operator': 'private'}}"
"{'type': 'node', 'id': 11891106131, 'lat': 6.6298853, 'lon': 3.259816, 'tags': {'amenity': 'hospital', 'name': 'Realcare Hospitals', 'operator': 'private'}}"
"{'type': 'node', 'id': 11891106132, 'lat': 6.6424109, 'lon': 3.2690023, 'tags': {'amenity': 'hospital', 'name': 'Ehj Catholic Hospital', 'operator': 'private'}}"
"{'type': 'node', 'id': 11891106133, 'lat': 6.6446532, 'lon': 3.2637247, 'tags': {'amenity': 'hospital', 'name': ""God's Footstep Nursing Home"", 'operator': 'private'}}"
"{'type': 'node', 'id': 11891106134, 'lat': 6.6442882, 'lon': 3.2617338, 'tags': {'amenity': 'hospital', 'name': 'Fueller Health Hospital', 'operator': 'private'}}"
"{'type': 'node', 'id': 11891106135, 'lat': 6.6429134, 'lon': 3.2549036, 'tags': {'amenity': 'hospital', 'name': 'Limad Hospital Ltd', 'operator': 'private'}}"
"{'type': 'node', 'id': 11891216324, 'lat': 6.6140133, 'lon': 3.2597121, 'tags': {'amenity': 'hospital', 'name': 'Glad Tidings Hospital', 'operator': 'private'}}"
"{'type': 'node', 'id': 11891216325, 'lat': 6.6169781, 'lon': 3.2725672, 'tags': {'amenity': 'hospital', 'name': 'Chrisol Medicals Maternity Home', 'operator': 'public'}}"
"{'type': 'node', 'id': 11891216326, 'lat': 6.6216393, 'lon': 3.2745172, 'tags': {'amenity': 'hospital', 'name': 'Lee Way Medical Center', 'operator': 'private'}}"
"{'type': 'node', 'id': 11891216327, 'lat': 6.6211997, 'lon': 3.2761587, 'tags': {'amenity': 'hospital', 'name': 'Double Crown Medical Diagnostic Service', 'operator': 'private'}}"
"{'type': 'node', 'id': 11891318391, 'lat': 6.6070167, 'lon': 3.2582349, 'tags': {'amenity': 'hospital', 'name': 'Agape Medical Centre', 'operator': 'private'}}"
"{'type': 'node', 'id': 11891318392, 'lat': 6.6058117, 'lon': 3.2547547, 'tags': {'amenity': 'hospital', 'name': 'Samas Hospital', 'operator': 'private'}}"
"{'type': 'node', 'id': 11891318393, 'lat': 6.6016119, 'lon': 3.2712241, 'tags': {'amenity': 'hospital', 'name': 'Quest Medical Diagnosis', 'operator': 'private'}}"
"{'type': 'node', 'id': 11891318394, 'lat': 6.5986351, 'lon': 3.2680249, 'tags': {'amenity': 'hospital', 'name': 'Daverhodes Clinic And Maternity Home', 'operator': 'public'}}"
"{'type': 'node', 'id': 11891318395, 'lat': 6.6005988, 'lon': 3.267526, 'tags': {'amenity': 'hospital', 'name': 'Solad Medical Centre And Maternity Hospital', 'operator': 'public'}}"
"{'type': 'node', 'id': 11891318396, 'lat': 6.6063363, 'lon': 3.2543185, 'tags': {'amenity': 'hospital', 'name': 'The Ark Hospital And Maternity Centre', 'operator': 'public'}}"
"{'type': 'node', 'id': 11891318397, 'lat': 6.5931078, 'lon': 3.2337406, 'tags': {'amenity': 'hospital', 'name': 'St Monica Hospital', 'operator': 'private'}}"
"{'type': 'node', 'id': 11891318398, 'lat': 6.6064245, 'lon': 3.2349466, 'tags': {'amenity': 'hospital', 'name': 'Ayobo Primary Health Care Centre', 'operator': 'public'}}"
"{'type': 'node', 'id': 11891318399, 'lat': 6.6045967, 'lon': 3.2614629, 'tags': {'amenity': 'hospital', 'name': 'Abalamo Maternity Centre', 'operator': 'public'}}"
"{'type': 'node', 'id': 11891318400, 'lat': 6.6043183, 'lon': 3.2542075, 'tags': {'amenity': 'hospital', 'name': 'Ipaja Primary Health Centre', 'operator': 'public'}}"
"{'type': 'node', 'id': 11891318401, 'lat': 6.603487, 'lon': 3.2597543, 'tags': {'amenity': 'hospital', 'name': 'Akinsayosikenu Hospital', 'operator': 'public'}}"
"{'type': 'node', 'id': 11891318402, 'lat': 6.6012063, 'lon': 3.2542571, 'tags': {'amenity': 'hospital', 'name': 'Prestige Medical Clinic 6a Aina Obembe Street Ipaja', 'operator': 'public'}}"
"{'type': 'node', 'id': 11891318403, 'lat': 6.6007906, 'lon': 3.2461783, 'tags': {'amenity': 'hospital', 'name': 'Banke Hospital', 'operator': 'private'}}"
"{'type': 'node', 'id': 11891318404, 'lat': 6.5990601, 'lon': 3.245379, 'tags': {'amenity': 'hospital', 'name': ""Tofaan's Hopital"", 'operator': 'public'}}"
"{'type': 'node', 'id': 11891318405, 'lat': 6.5924456, 'lon': 3.2366082, 'tags': {'amenity': 'hospital', 'name': 'Alanni Traditional Hospital and Maternity Home', 'operator': 'public'}}"
"{'type': 'node', 'id': 11891318406, 'lat': 6.5930637, 'lon': 3.2337812, 'tags': {'amenity': 'hospital', 'name': 'St Monica Hospital', 'operator': 'public'}}"
"{'type': 'node', 'id': 11891318407, 'lat': 6.5950567, 'lon': 3.2280734, 'tags': {'amenity': 'hospital', 'name': 'Crown Well Hospital Haggai Diagonistic Ltd', 'operator': 'private'}}"
"{'type': 'node', 'id': 11891318408, 'lat': 6.5932476, 'lon': 3.2218279, 'tags': {'amenity': 'hospital', 'name': 'Damilola Trado Medical Hospital And Maternity Home 7 Agbaje Street Off Olayinka Olatunji Street Orisunmbare Phase 1camp Davies Road Ayobo Lagos', 'operator': 'private'}}"
"{'type': 'node', 'id': 11891367971, 'lat': 6.6399389, 'lon': 3.2780269, 'tags': {'amenity': 'hospital', 'name': 'Araba Medical Center', 'operator': 'private'}}"
"{'type': 'node', 'id': 11891422227, 'lat': 6.5856125, 'lon': 3.2456017, 'tags': {'amenity': 'hospital', 'name': 'Victory Success Maternity Home', 'operator': 'private'}}"
"{'type': 'node', 'id': 11891422228, 'lat': 6.5843188, 'lon': 3.2472619, 'tags': {'amenity': 'hospital', 'name': 'Samas Hospital And Maternity', 'operator': 'private'}}"
"{'type': 'node', 'id': 11891422229, 'lat': 6.5834316, 'lon': 3.2519504, 'tags': {'amenity': 'hospital', 'name': 'Moyo Medical Center', 'operator': 'private'}}"
"{'type': 'node', 'id': 11891422230, 'lat': 6.5835035, 'lon': 3.24624, 'tags': {'amenity': 'hospital', 'name': 'The Vine Medical Center', 'operator': 'private'}}"
"{'type': 'node', 'id': 11891422231, 'lat': 6.5801768, 'lon': 3.2390705, 'tags': {'amenity': 'hospital', 'name': 'St Joseph Eye Clinic', 'operator': 'private'}}"
"{'type': 'node', 'id': 11891422232, 'lat': 6.5858003, 'lon': 3.2372761, 'tags': {'amenity': 'hospital', 'name': 'Fend Clinic', 'operator': 'private'}}"
"{'type': 'node', 'id': 11891527761, 'lat': 6.5798125, 'lon': 3.2074358, 'tags': {'amenity': 'hospital', 'name': 'Isefun Primary Health Care Center', 'operator': 'public'}}"
"{'type': 'node', 'id': 11891527762, 'lat': 6.5794284, 'lon': 3.208378, 'tags': {'amenity': 'hospital', 'name': 'Grace Point Medical Centre', 'operator': 'private'}}"
"{'type': 'node', 'id': 11891527763, 'lat': 6.5779, 'lon': 3.2068397, 'tags': {'amenity': 'hospital', 'name': 'Oluwabamise Convalescent and Maternity Home', 'operator': 'private'}}"
"{'type': 'node', 'id': 11891527764, 'lat': 6.5772432, 'lon': 3.2095313, 'tags': {'amenity': 'hospital', 'name': 'Hope In God Faith Clinic and Maternity Home', 'operator': 'private'}}"
"{'type': 'node', 'id': 11891527765, 'lat': 6.5753227, 'lon': 3.214541, 'tags': {'amenity': 'hospital', 'name': 'Cele Apata Community Health Center', 'operator': 'private'}}"
"{'type': 'node', 'id': 11915885586, 'lat': 6.5749929, 'lon': 3.2582161, 'tags': {'amenity': 'hospital', 'name': 'Ogbomoshotedo Community Health Cetre', 'operator': 'public'}}"
"{'type': 'node', 'id': 11915885587, 'lat': 6.5776122, 'lon': 3.2631125, 'tags': {'amenity': 'hospital', 'name': 'Max Health Consultant Hospital Ltd', 'operator': 'private'}}"
"{'type': 'node', 'id': 11915885588, 'lat': 6.5760867, 'lon': 3.264192, 'tags': {'amenity': 'hospital', 'name': 'Flora Hospital And Maternity', 'operator': 'private'}}"
"{'type': 'node', 'id': 11915885594, 'lat': 6.5658347, 'lon': 3.2560649, 'tags': {'amenity': 'hospital', 'name': 'Dove Hospital', 'operator': 'private'}}"
"{'type': 'node', 'id': 11915885595, 'lat': 6.5622668, 'lon': 3.2696852, 'tags': {'amenity': 'hospital', 'name': 'Amuwo Mile 2 Primary Health Center', 'operator': 'public'}}"
"{'type': 'node', 'id': 11923506886, 'lat': 6.5516654, 'lon': 3.2547252, 'tags': {'amenity': 'hospital', 'name': 'Delife Hospital', 'operator': 'private'}}"
"{'type': 'node', 'id': 11923506887, 'lat': 6.5523489, 'lon': 3.2691702, 'tags': {'amenity': 'hospital', 'name': 'Elf Foundation Primary Health Centre', 'operator': 'public'}}"
"{'type': 'node', 'id': 11923506888, 'lat': 6.5522916, 'lon': 3.2654285, 'tags': {'amenity': 'hospital', 'name': 'Day Spring Hospital', 'operator': 'private'}}"
"{'type': 'node', 'id': 11923506889, 'lat': 6.5499121, 'lon': 3.2596993, 'tags': {'amenity': 'hospital', 'name': 'B Rock Convalescent And Maternity Home', 'operator': 'private'}}"
"{'type': 'node', 'id': 11923506890, 'lat': 6.5491753, 'lon': 3.2661326, 'tags': {'amenity': 'hospital', 'name': 'Broad Hospital And Maternity', 'operator': 'public'}}"
"{'type': 'node', 'id': 11923506891, 'lat': 6.5492845, 'lon': 3.2625411, 'tags': {'amenity': 'hospital', 'name': 'Ogunmoded Memorial Hospital And Maternity Home', 'operator': 'private'}}"
"{'type': 'node', 'id': 11923506892, 'lat': 6.5486903, 'lon': 3.2607213, 'tags': {'amenity': 'hospital', 'name': 'Primex Hospital', 'operator': 'private'}}"
"{'type': 'node', 'id': 11923506893, 'lat': 6.5475418, 'lon': 3.2623118, 'tags': {'amenity': 'hospital', 'name': 'Joba Diagnostic Medical Service', 'operator': 'private'}}"
"{'type': 'node', 'id': 11923506894, 'lat': 6.5467577, 'lon': 3.2645226, 'tags': {'amenity': 'hospital', 'name': 'Kamzone Medical Diagnostic', 'operator': 'private'}}"
"{'type': 'node', 'id': 11923506895, 'lat': 6.5464879, 'lon': 3.265733, 'tags': {'amenity': 'hospital', 'name': 'Health Point Diagnostic', 'operator': 'private'}}"
"{'type': 'node', 'id': 11923506896, 'lat': 6.5458297, 'lon': 3.2725283, 'tags': {'amenity': 'hospital', 'name': 'Joas Medical Diagnostics', 'operator': 'private'}}"
"{'type': 'node', 'id': 11923506897, 'lat': 6.544512, 'lon': 3.2747278, 'tags': {'amenity': 'hospital', 'name': 'Jones Specialist Hospital', 'operator': 'private'}}"
"{'type': 'node', 'id': 11923506898, 'lat': 6.5397848, 'lon': 3.2562178, 'tags': {'amenity': 'hospital', 'name': 'Matcom Medical Diagnostic Service S', 'operator': 'private'}}"
"{'type': 'node', 'id': 11923506902, 'lat': 6.5377516, 'lon': 3.2727282, 'tags': {'amenity': 'hospital', 'name': 'Holiness Hospital', 'operator': 'private'}}"
"{'type': 'node', 'id': 11923596064, 'lat': 6.5218187, 'lon': 3.2578003, 'tags': {'amenity': 'hospital', 'name': 'Afonja Eye Clinic', 'operator': 'private'}}"
"{'type': 'node', 'id': 11923596065, 'lat': 6.5288645, 'lon': 3.2535544, 'tags': {'amenity': 'hospital', 'name': 'Best Option Healthcare And Maternity Home', 'operator': 'private'}}"
"{'type': 'node', 'id': 11923596066, 'lat': 6.5287632, 'lon': 3.2589772, 'tags': {'amenity': 'hospital', 'name': 'Cornell Health Laboratory Service', 'operator': 'private'}}"
"{'type': 'node', 'id': 11923596067, 'lat': 6.5306096, 'lon': 3.2593922, 'tags': {'amenity': 'hospital', 'name': 'Gg Able Medical Diaglab', 'operator': 'private'}}"
"{'type': 'node', 'id': 11923596068, 'lat': 6.5302502, 'lon': 3.259989, 'tags': {'amenity': 'hospital', 'name': 'Faniyet Hospital', 'operator': 'private'}}"
"{'type': 'node', 'id': 11923599869, 'lat': 6.5293548, 'lon': 3.2662413, 'tags': {'amenity': 'hospital', 'name': 'Samadex Clinic', 'operator': 'private'}}"
"{'type': 'node', 'id': 11923599870, 'lat': 6.529504, 'lon': 3.27097, 'tags': {'amenity': 'hospital', 'name': 'Zephaniah Maternity Center', 'operator': 'private'}}"
"{'type': 'node', 'id': 11923599871, 'lat': 6.5230578, 'lon': 3.2705033, 'tags': {'amenity': 'hospital', 'name': 'Molabi Hospital', 'operator': 'private'}}"
"{'type': 'node', 'id': 11923604168, 'lat': 6.5157721, 'lon': 3.2552858, 'tags': {'amenity': 'hospital', 'name': 'Victory Life Medical Diagnostic', 'operator': 'public'}}"
"{'type': 'node', 'id': 11923639569, 'lat': 6.5155549, 'lon': 3.2598013, 'tags': {'amenity': 'hospital', 'name': 'Glory Of God Health Care Centre', 'operator': 'private'}}"
"{'type': 'node', 'id': 11923639570, 'lat': 6.5067047, 'lon': 3.2618196, 'tags': {'amenity': 'hospital', 'name': 'St Grace Natural Medical Clinic And Me Eternity', 'operator': 'public'}}"
"{'type': 'node', 'id': 11924945902, 'lat': 6.5613475, 'lon': 3.2511592, 'tags': {'amenity': 'hospital', 'name': 'Alimosho General Hospital', 'operator': 'public'}}"
"{'type': 'node', 'id': 11924945903, 'lat': 6.5629783, 'lon': 3.2509768, 'tags': {'amenity': 'hospital', 'name': 'Kent Hospital', 'operator': 'private'}}"
"{'type': 'node', 'id': 11924945904, 'lat': 6.5639588, 'lon': 3.2504967, 'tags': {'amenity': 'hospital', 'name': 'Shonowo Hospital', 'operator': 'public'}}"
"{'type': 'node', 'id': 11924945905, 'lat': 6.5682955, 'lon': 3.2460804, 'tags': {'amenity': 'hospital', 'name': 'Purpose Of God Clinic and Maternity', 'operator': 'private'}}"
"{'type': 'node', 'id': 11924945906, 'lat': 6.5649008, 'lon': 3.2394513, 'tags': {'amenity': 'hospital', 'name': 'Santamaria Hospital Annex', 'operator': 'private'}}"
"{'type': 'node', 'id': 11924945907, 'lat': 6.5626145, 'lon': 3.2245503, 'tags': {'amenity': 'hospital', 'name': 'Mount Moriah Hospital And Maternity', 'operator': 'private'}}"
"{'type': 'node', 'id': 11925010462, 'lat': 6.5389294, 'lon': 3.2547051, 'tags': {'amenity': 'hospital', 'name': 'Above Clinic Medical Centre', 'operator': 'private'}}"
"{'type': 'node', 'id': 11925010463, 'lat': 6.5316332, 'lon': 3.245253, 'tags': {'amenity': 'hospital', 'name': 'Solvicaj Laboratory', 'operator': 'private'}}"
"{'type': 'node', 'id': 11925010464, 'lat': 6.5369228, 'lon': 3.2432742, 'tags': {'amenity': 'hospital', 'name': 'Noble Clinic', 'operator': 'private'}}"
