OSM_Data
"{'type': 'node', 'id': 20979380, 'lat': -33.7084683, 'lon': 150.3757125, 'tags': {'amenity': 'pharmacy', 'brand': 'TerryWhite Chemmart', 'brand:wikidata': 'Q24089773', 'brand:wikipedia': 'en:Terry White Chemmart', 'healthcare': 'pharmacy', 'name': 'TerryWhite Chemmart'}}"
"{'type': 'node', 'id': 20979859, 'lat': -33.8897287, 'lon': 151.2834605, 'tags': {'amenity': 'pharmacy', 'check_date': '2022-09-19', 'drive_through': 'no', 'fixme': 'No. 31', 'healthcare': 'pharmacy', 'level': '0', 'name': ""Roper's Seaside Chemist""}}"
"{'type': 'node', 'id': 20979906, 'lat': -33.8891567, 'lon': 151.2752003, 'tags': {'addr:housenumber': '241', 'addr:postcode': '2022', 'addr:state': 'NSW', 'addr:street': 'Oxford Street', 'addr:suburb': 'Bondi Junction', 'addr:unit': '1606', 'amenity': 'clinic', 'healthcare': 'clinic', 'healthcare:speciality': 'urology', 'name': 'Phallosan Forte', 'opening_hours': 'Mo-Fr 09:00-17:00', 'operator': 'Peter White', 'operator:type': 'business', 'phone:AU': '1300 935 470', 'website': 'https://www.phallosan.com.au'}}"
"{'type': 'node', 'id': 20979951, 'lat': -33.8895246, 'lon': 151.2715292, 'tags': {'amenity': 'pharmacy', 'name': 'Bondi Pharmacy', 'wheelchair': 'no'}}"
"{'type': 'node', 'id': 20979952, 'lat': -33.8895562, 'lon': 151.2711111, 'tags': {'addr:housenumber': '68', 'addr:street': 'Hall Street', 'amenity': 'clinic', 'healthcare': 'clinic', 'name': 'V & S Zeldovich Surgery and Family Practice'}}"
"{'type': 'node', 'id': 20979964, 'lat': -33.8889954, 'lon': 151.2701987, 'tags': {'addr:housenumber': '19', 'addr:postcode': '2026', 'addr:state': 'NSW', 'addr:street': ""O'Brien Street"", 'addr:suburb': 'Bondi Beach', 'amenity': 'clinic', 'check_date': '2024-10-10', 'healthcare': 'clinic', 'name': 'Bondi Doctors', 'note': '24/7 GP service', 'opening_hours': 'Mo-Th 08:00-21:00; Fr-Sa 08:00-18:00; Su 08:00-14:00', 'phone': '+61 2 9365 2833'}}"
"{'type': 'node', 'id': 60788134, 'lat': -33.6764602, 'lon': 151.0984025, 'tags': {'amenity': 'pharmacy', 'created_by': 'Potlatch 0.5d', 'dispensing': 'yes'}}"
"{'type': 'node', 'id': 248181257, 'lat': -33.7333366, 'lon': 151.1282589, 'tags': {'amenity': 'pharmacy', 'healthcare': 'pharmacy', 'name': 'Turramurra Pharmacy', 'source': 'knowledge'}}"
"{'type': 'node', 'id': 248300210, 'lat': -33.7184685, 'lon': 151.1171681, 'tags': {'addr:housenumber': '4', 'addr:street': 'Railway Avenue', 'amenity': 'pharmacy', 'dispensing': 'yes', 'healthcare': 'pharmacy', 'name': 'Wahroonga Pharmacy', 'opening_hours': 'Mo-Fr 08:00-18:00; Sa 09:00-15:00; Su 10:00-14:00', 'phone': '+61 2 9489 3180', 'source': 'knowledge', 'website': 'https://www.wahroongapharmacy.com.au/'}}"
"{'type': 'node', 'id': 265859878, 'lat': -33.8962247, 'lon': 151.2065438, 'tags': {'amenity': 'pharmacy', 'dispensing': 'yes', 'healthcare': 'pharmacy', 'name': 'Club Pharmacy'}}"
"{'type': 'node', 'id': 265917440, 'lat': -33.8925377, 'lon': 151.2032207, 'tags': {'addr:housenumber': '118A', 'addr:street': 'Redfern Street', 'amenity': 'pharmacy', 'dispensing': 'yes', 'email': 'goldcrosspharmacy@gmail.com', 'healthcare': 'pharmacy', 'name': 'Gold Cross', 'phone': '+61 2 9698 2155', 'website': 'https://www.compoundingchemists.com.au/'}}"
"{'type': 'node', 'id': 290097172, 'lat': -34.5711261, 'lon': 150.7734074, 'tags': {'amenity': 'pharmacy', 'dispensing': 'yes', 'healthcare': 'pharmacy'}}"
"{'type': 'node', 'id': 302755504, 'lat': -33.8295098, 'lon': 151.2179985, 'tags': {'amenity': 'pharmacy', 'dispensing': 'yes', 'healthcare': 'pharmacy', 'wheelchair': 'yes'}}"
"{'type': 'node', 'id': 302755505, 'lat': -33.8294305, 'lon': 151.2180382, 'tags': {'amenity': 'clinic', 'healthcare': 'clinic', 'name': 'Neutral Bay Medical Centre', 'wheelchair': 'yes'}}"
"{'type': 'node', 'id': 325405131, 'lat': -33.95134, 'lon': 151.2498359, 'tags': {'amenity': 'pharmacy', 'healthcare': 'pharmacy', 'operator': ""Walsh's Village Pharmacy""}}"
"{'type': 'node', 'id': 333038578, 'lat': -33.7515642, 'lon': 151.2878057, 'tags': {'amenity': 'clinic', 'name': 'Warringah Medical Centre'}}"
"{'type': 'node', 'id': 342703327, 'lat': -34.0112777, 'lon': 151.2094288, 'tags': {'amenity': 'pharmacy', 'drive_through': 'no', 'healthcare': 'pharmacy', 'name': 'Kurnell Pharmacy'}}"
"{'type': 'node', 'id': 349880696, 'lat': -34.4346303, 'lon': 150.8610313, 'tags': {'amenity': 'pharmacy', 'healthcare': 'pharmacy', 'name': 'Figtree Plaza Pharmacy'}}"
"{'type': 'node', 'id': 359528063, 'lat': -33.7262573, 'lon': 150.9049397, 'tags': {'amenity': 'pharmacy', 'dispensing': 'yes', 'name': 'Farnham Road Pharmacy'}}"
"{'type': 'node', 'id': 365815943, 'lat': -33.8235837, 'lon': 151.2097853, 'tags': {'amenity': 'pharmacy', 'dispensing': 'yes', 'healthcare': 'pharmacy', 'name': 'Cammeray Pharmacy', 'source': 'survey'}}"
"{'type': 'node', 'id': 426899452, 'lat': -33.7442861, 'lon': 150.6097908, 'tags': {'amenity': 'pharmacy', 'dispensing': 'yes', 'name': 'Blaxland Day n Night Pharmacy', 'source': 'survey'}}"
"{'type': 'node', 'id': 427492045, 'lat': -33.7462472, 'lon': 150.6225323, 'tags': {'amenity': 'pharmacy', 'check_date': '2024-09-01', 'name': 'East Blaxland Pharmacy', 'source': 'survey'}}"
"{'type': 'node', 'id': 428468952, 'lat': -33.8147273, 'lon': 151.0560903, 'tags': {'amenity': 'pharmacy', 'dispensing': 'yes', 'name': 'Health Information Pharmacy'}}"
"{'type': 'node', 'id': 448598884, 'lat': -33.9195743, 'lon': 150.9234492, 'tags': {'amenity': 'pharmacy', 'healthcare': 'pharmacy'}}"
"{'type': 'node', 'id': 448610213, 'lat': -33.886523, 'lon': 150.8888224, 'tags': {'amenity': 'pharmacy', 'brand': 'Priceline Pharmacy', 'brand:wikidata': 'Q7242652', 'healthcare': 'pharmacy', 'name': 'Priceline Pharmacy', 'website': 'https://www.priceline.com.au/'}}"
"{'type': 'node', 'id': 453717345, 'lat': -33.692015, 'lon': 151.0928955, 'tags': {'addr:housenumber': '66', 'addr:postcode': '2077', 'addr:street': 'Rosamond Street', 'amenity': 'hospital', 'healthcare': 'hospital', 'name': 'Mount Wilga Private Hospital', 'phone': '+61 2 9847 5000'}}"
"{'type': 'node', 'id': 460201760, 'lat': -33.4059259, 'lon': 151.4661515, 'tags': {'amenity': 'pharmacy', 'name': 'Forresters Beach Pharmacy'}}"
"{'type': 'node', 'id': 460417562, 'lat': -33.8279504, 'lon': 151.2000083, 'tags': {'amenity': 'dentist', 'healthcare': 'dentist', 'source': 'survey'}}"
"{'type': 'node', 'id': 462748450, 'lat': -33.3852261, 'lon': 151.3665365, 'tags': {'addr:housenumber': '1', 'addr:postcode': '2250', 'addr:state': 'NSW', 'addr:street': 'Pacific Highway', 'addr:suburb': 'Lisarow', 'addr:unit': '22', 'amenity': 'pharmacy', 'healthcare': 'pharmacy', 'name': 'Chemist Outlet'}}"
"{'type': 'node', 'id': 520714939, 'lat': -33.9484525, 'lon': 150.9544227, 'tags': {'amenity': 'pharmacy', 'name': ""Chen's Pharmacy""}}"
"{'type': 'node', 'id': 520760844, 'lat': -33.9479888, 'lon': 150.9533774, 'tags': {'amenity': 'doctors', 'healthcare': 'doctor', 'name': 'Doctor K.S Cho GP'}}"
"{'type': 'node', 'id': 537535098, 'lat': -33.718994, 'lon': 150.9202169, 'tags': {'amenity': 'pharmacy', 'brand': 'TerryWhite Chemmart', 'brand:wikidata': 'Q24089773', 'brand:wikipedia': 'en:Terry White Chemmart', 'check_date': '2023-05-26', 'dispensing': 'yes', 'healthcare': 'pharmacy', 'name': 'TerryWhite Chemmart', 'opening_hours': 'Mo-We,Fr 08:30-20:00; Th 08:30-21:00; Sa 09:00-17:30; Su 09:30-17:30', 'wheelchair': 'yes'}}"
"{'type': 'node', 'id': 572593876, 'lat': -33.6709583, 'lon': 151.1147616, 'tags': {'amenity': 'pharmacy', 'name': 'Mt Colah Pharmacy', 'opening_hours': 'Mo-Fr 09:00-18:00; Sa 09:00-12:30; Su off', 'phone': '+61 2 9477 3319', 'wheelchair': 'limited'}}"
"{'type': 'node', 'id': 574171453, 'lat': -33.9170763, 'lon': 151.2305943, 'tags': {'amenity': 'pharmacy', 'healthcare': 'pharmacy', 'name': 'Pharmacy@UNSW', 'opening_hours': 'Mo-Fr 09:00-18:00'}}"
"{'type': 'node', 'id': 599918445, 'lat': -33.4864063, 'lon': 151.3253636, 'tags': {'addr:housenumber': '63', 'addr:postcode': '2256', 'addr:state': 'NSW', 'addr:street': 'Blackwall Road', 'addr:suburb': 'Woy Woy', 'amenity': 'pharmacy', 'brand': 'Amcal', 'brand:wikidata': 'Q63367373', 'contact:website': 'https://www.amcal.com.au/store-locator/nsw/amcal-pharmacy-woy-woy-lance-clarke', 'dispensing': 'yes', 'drive_through': 'no', 'healthcare': 'pharmacy', 'name': 'Amcal', 'opening_hours': 'Mo-Sa 08:30-17:00', 'operator': 'Peninsula Plaza, 63 Blackwall Road Woy Woy', 'wheelchair': 'yes'}}"
"{'type': 'node', 'id': 600744658, 'lat': -33.7668128, 'lon': 150.6223304, 'tags': {'amenity': 'pharmacy', 'name': 'Glenbrook Village Pharmacy'}}"
"{'type': 'node', 'id': 606203400, 'lat': -33.8287076, 'lon': 150.9517746, 'tags': {'amenity': 'pharmacy'}}"
"{'type': 'node', 'id': 611861835, 'lat': -33.7974102, 'lon': 151.0257948, 'tags': {'amenity': 'pharmacy', 'healthcare': 'pharmacy'}}"
"{'type': 'node', 'id': 667281915, 'lat': -34.0667627, 'lon': 151.0144082, 'tags': {'amenity': 'doctors', 'healthcare': 'doctor', 'name': 'St, George Surgery'}}"
"{'type': 'node', 'id': 668463872, 'lat': -33.7631636, 'lon': 150.9948782, 'tags': {'amenity': 'pharmacy', 'healthcare': 'pharmacy'}}"
"{'type': 'node', 'id': 691424093, 'lat': -33.6609071, 'lon': 151.0058762, 'tags': {'amenity': 'pharmacy', 'healthcare': 'pharmacy', 'name': 'Kenthurst Pharmacist Advice', 'source': 'survey'}}"
"{'type': 'node', 'id': 708794606, 'lat': -34.4251413, 'lon': 150.8858704, 'tags': {'amenity': 'pharmacy', 'healthcare': 'pharmacy', 'name': 'Hospital Hill Pharmacy'}}"
"{'type': 'node', 'id': 717054303, 'lat': -33.7709209, 'lon': 150.9100883, 'tags': {'amenity': 'pharmacy', 'name': 'Cincotta Chemist'}}"
"{'type': 'node', 'id': 743326523, 'lat': -33.8595605, 'lon': 151.2086055, 'tags': {'addr:housenumber': '97', 'addr:postcode': '2000', 'addr:state': 'NSW', 'addr:street': 'George Street', 'addr:suburb': 'The Rocks', 'amenity': 'pharmacy', 'dispensing': 'yes', 'healthcare': 'pharmacy', 'name': 'The Rocks Chemist', 'opening_hours': 'Mo-Fr 08:00-20:00, Sa,Su 08:30-20:00', 'phone': '+61 2 9247 2625'}}"
"{'type': 'node', 'id': 752353846, 'lat': -33.7623201, 'lon': 151.2154799, 'tags': {'amenity': 'pharmacy', 'healthcare': 'pharmacy', 'name': 'Forestville Pharmacy'}}"
"{'type': 'node', 'id': 762746777, 'lat': -33.7536562, 'lon': 151.2880062, 'tags': {'amenity': 'pharmacy', 'healthcare': 'pharmacy'}}"
"{'type': 'node', 'id': 762748351, 'lat': -33.7725295, 'lon': 151.279466, 'tags': {'amenity': 'pharmacy'}}"
"{'type': 'node', 'id': 763661472, 'lat': -33.8834012, 'lon': 151.1145161, 'tags': {'amenity': 'pharmacy', 'healthcare': 'pharmacy', 'name': 'Post Office Pharmacy'}}"
"{'type': 'node', 'id': 768580847, 'lat': -33.9598654, 'lon': 151.1534758, 'tags': {'addr:housenumber': '279', 'addr:street': 'Bay Street', 'amenity': 'pharmacy', 'healthcare': 'pharmacy', 'name': 'Starchem Discount Pharmacy'}}"
"{'type': 'node', 'id': 812721610, 'lat': -33.7490737, 'lon': 151.0655752, 'tags': {'amenity': 'dentist', 'healthcare': 'dentist', 'name': 'McConnell Dental Surgeons'}}"
"{'type': 'node', 'id': 829661521, 'lat': -33.703342, 'lon': 151.0972617, 'tags': {'amenity': 'pharmacy', 'brand': 'Pharmacy 4 Less', 'brand:wikidata': 'Q63367608', 'dispensing': 'yes', 'healthcare': 'pharmacy', 'name': 'Pharmacy 4 Less', 'opening_hours': '08:00-22:00'}}"
"{'type': 'node', 'id': 833627572, 'lat': -34.0847747, 'lon': 151.1514554, 'tags': {'amenity': 'pharmacy', 'check_date': '2023-01-28', 'healthcare': 'pharmacy', 'name': 'Bundeena Pharmacy'}}"
"{'type': 'node', 'id': 847354460, 'lat': -33.7338392, 'lon': 151.0042287, 'tags': {'amenity': 'pharmacy'}}"
"{'type': 'node', 'id': 864315723, 'lat': -33.7478519, 'lon': 150.7217943, 'tags': {'amenity': 'pharmacy', 'healthcare': 'pharmacy', 'name': 'Cambridge Park Chemist'}}"
"{'type': 'node', 'id': 938118381, 'lat': -33.3616305, 'lon': 151.3699981, 'tags': {'amenity': 'pharmacy', 'healthcare': 'pharmacy', 'name': 'Advantage Pharmacy'}}"
"{'type': 'node', 'id': 984498774, 'lat': -33.9546932, 'lon': 150.9980514, 'tags': {'amenity': 'pharmacy', 'name': ""Bisaro's Pharmacy""}}"
"{'type': 'node', 'id': 984838633, 'lat': -33.9568962, 'lon': 151.0027769, 'tags': {'amenity': 'pharmacy', 'healthcare': 'pharmacy', 'name': 'Chemist'}}"
"{'type': 'node', 'id': 984893213, 'lat': -33.9517024, 'lon': 151.0164861, 'tags': {'amenity': 'pharmacy', 'name': 'Soul Pattinson Chemist'}}"
"{'type': 'node', 'id': 1042215929, 'lat': -33.7108357, 'lon': 151.1373026, 'tags': {'amenity': 'pharmacy'}}"
"{'type': 'node', 'id': 1060251269, 'lat': -33.8099183, 'lon': 151.1319696, 'tags': {'amenity': 'pharmacy'}}"
"{'type': 'node', 'id': 1081751273, 'lat': -33.9676448, 'lon': 151.1051325, 'tags': {'amenity': 'pharmacy', 'healthcare': 'pharmacy'}}"
"{'type': 'node', 'id': 1084662528, 'lat': -33.892478, 'lon': 151.2144052, 'tags': {'addr:street': 'Bourke Street', 'amenity': 'dentist', 'check_date': '2023-11-10', 'healthcare': 'dentist', 'name': 'Dentist On Bourke'}}"
"{'type': 'node', 'id': 1084662540, 'lat': -33.8923582, 'lon': 151.2144347, 'tags': {'amenity': 'doctors', 'healthcare': 'doctor'}}"
"{'type': 'node', 'id': 1095964199, 'lat': -33.962925, 'lon': 151.1330809, 'tags': {'amenity': 'clinic', 'healthcare': 'clinic', 'name': 'iHealth Medical Centre', 'opening_hours': 'Sa 08:30-12:00; Su,PH off; Mo-Fr 08:30-12:00,13:00-16:30'}}"
"{'type': 'node', 'id': 1121134351, 'lat': -33.9602538, 'lon': 151.1545025, 'tags': {'amenity': 'pharmacy'}}"
"{'type': 'node', 'id': 1170757346, 'lat': -33.7715426, 'lon': 151.083006, 'tags': {'addr:housenumber': '36', 'addr:street': 'Oxford Street', 'addr:unit': '1', 'amenity': 'pharmacy', 'brand': 'Chemist Warehouse', 'brand:wikidata': 'Q48782120', 'healthcare': 'pharmacy', 'name': 'Chemist Warehouse', 'wheelchair': 'limited'}}"
"{'type': 'node', 'id': 1202865531, 'lat': -34.4147469, 'lon': 150.8720337, 'tags': {'addr:street': 'Gipps Road', 'amenity': 'pharmacy', 'healthcare': 'pharmacy', 'name': 'Keiraville Pharmacy', 'phone': '+61 2 4229 5548', 'website': 'https://www.keiravillepharmacy.com.au/', 'wheelchair': 'yes'}}"
"{'type': 'node', 'id': 1228157939, 'lat': -33.713109, 'lon': 150.3308535, 'tags': {'addr:housenumber': '163', 'addr:postcode': '2780', 'addr:state': 'NSW', 'addr:street': 'Leura Mall', 'addr:suburb': 'Leura', 'amenity': 'pharmacy', 'healthcare': 'pharmacy', 'name': 'Best Buy Pharmacy', 'opening_hours': 'Mo-Fr 08:30-18:00; Sa 09:00-17:00; Su 09:00-16:00; PH 10:00-16:00'}}"
"{'type': 'node', 'id': 1252062751, 'lat': -33.8879925, 'lon': 151.1254573, 'tags': {'addr:housenumber': '1', 'addr:postcode': '2131', 'addr:street': 'Hercules Street', 'amenity': 'pharmacy', 'dispensing': 'yes', 'healthcare': 'pharmacy', 'name': 'Day & Night Chemist Ashfield'}}"
"{'type': 'node', 'id': 1262691759, 'lat': -33.8286364, 'lon': 151.229712, 'tags': {'amenity': 'pharmacy', 'check_date': '2022-07-21', 'healthcare': 'pharmacy', 'level': '0', 'name': 'Cremorne Town Centre Pharmacy', 'opening_hours': 'Mo-Th 08:00-19:30; Fr-Sa 08:00-19:00; Su 09:00-18:00', 'wheelchair': 'yes'}}"
"{'type': 'node', 'id': 1264487053, 'lat': -33.8288539, 'lon': 151.2296566, 'tags': {'amenity': 'doctors', 'check_date': '2022-07-21', 'healthcare': 'doctor', 'level': '0', 'name': 'Cremorne Medical Practice', 'opening_hours': 'Mo-Th 07:30-19:00; Fr 07:30-18:00', 'phone': '+61 2 9908 2233'}}"
"{'type': 'node', 'id': 1277990601, 'lat': -33.8735613, 'lon': 151.2056898, 'tags': {'brand': 'Australian Red Cross Blood Service', 'brand:wikidata': 'Q4824602', 'donation:compensation': 'no', 'entrance': 'yes', 'healthcare': 'blood_donation', 'name': 'Australian Red Cross Blood Service', 'operator': 'Australian Red Cross', 'short_name': 'Blood Service', 'source': 'survey', 'source:location': 'nearmap'}}"
"{'type': 'node', 'id': 1280189343, 'lat': -34.0432132, 'lon': 151.1186684, 'tags': {'amenity': 'pharmacy', 'brand': 'Pharmacy 4 Less', 'brand:wikidata': 'Q63367608', 'healthcare': 'pharmacy', 'name': 'Pharmacy 4 Less'}}"
"{'type': 'node', 'id': 1280189347, 'lat': -34.042421, 'lon': 151.122661, 'tags': {'amenity': 'pharmacy', 'healthcare': 'pharmacy', 'name': 'Cincotta Chemist'}}"
"{'type': 'node', 'id': 1280189358, 'lat': -34.0417659, 'lon': 151.1220514, 'tags': {'amenity': 'pharmacy', 'healthcare': 'pharmacy', 'name': 'Caringbah Station Pharmacy'}}"
"{'type': 'node', 'id': 1280189383, 'lat': -34.0426816, 'lon': 151.1208472, 'tags': {'addr:housenumber': '29-35', 'addr:street': 'President Avenue', 'amenity': 'pharmacy', 'brand': 'Chemist Warehouse', 'brand:wikidata': 'Q48782120', 'brand:wikipedia': 'en:Chemist Warehouse', 'dispensing': 'yes', 'healthcare': 'pharmacy', 'name': 'Chemist Warehouse', 'opening_hours': 'Mo-Fr 07:30-22:30; Sa,Su 07:30-20:00', 'website': 'https://www.chemistwarehouse.com.au/'}}"
"{'type': 'node', 'id': 1281315626, 'lat': -34.0527842, 'lon': 151.1525208, 'tags': {'amenity': 'pharmacy', 'brand': 'Blooms The Chemist', 'brand:wikidata': 'Q63367543', 'healthcare': 'pharmacy', 'name': 'Blooms The Chemist', 'shop': 'chemist', 'source': 'survey', 'source:location': 'bing'}}"
"{'type': 'node', 'id': 1281315674, 'lat': -34.0527534, 'lon': 151.1528066, 'tags': {'amenity': 'pharmacy', 'brand': 'Priceline Pharmacy', 'brand:wikidata': 'Q7242652', 'brand:wikipedia': 'en:Priceline (Australia)', 'healthcare': 'pharmacy', 'name': 'Priceline Pharmacy', 'source': 'survey', 'source:location': 'nearmap'}}"
"{'type': 'node', 'id': 1294050360, 'lat': -34.0430964, 'lon': 151.1210712, 'tags': {'amenity': 'doctors', 'healthcare': 'doctor', 'name': 'Caringbah Medical Center', 'opening_hours': 'Mo-Su 07:00-20:00'}}"
"{'type': 'node', 'id': 1294141240, 'lat': -34.0448344, 'lon': 151.1231531, 'tags': {'amenity': 'doctors', 'healthcare': 'doctor', 'name': 'Caringbah Family Practice'}}"
"{'type': 'node', 'id': 1294232889, 'lat': -34.036911, 'lon': 151.101876, 'tags': {'amenity': 'pharmacy', 'healthcare': 'pharmacy'}}"
"{'type': 'node', 'id': 1345365443, 'lat': -34.052707, 'lon': 151.1216451, 'tags': {'amenity': 'pharmacy', 'dispensing': 'yes', 'healthcare': 'pharmacy', 'name': 'Caringbah South Pharmacy'}}"
"{'type': 'node', 'id': 1345463400, 'lat': -34.4077709, 'lon': 150.879359, 'tags': {'amenity': 'doctors', 'healthcare': 'doctor', 'name': 'Campus Health Clinic Wollongong University', 'website': 'https://unicentre.uow.edu.au/retail/generalfacilities/health/index.htm'}}"
"{'type': 'node', 'id': 1346598581, 'lat': -33.7958649, 'lon': 151.2769959, 'tags': {'amenity': 'pharmacy', 'name': 'Fairlight Pharmacy'}}"
"{'type': 'node', 'id': 1495368500, 'lat': -33.7144078, 'lon': 151.05073, 'tags': {'amenity': 'pharmacy', 'dispensing': 'yes'}}"
"{'type': 'node', 'id': 1495378466, 'lat': -33.7300761, 'lon': 151.0167033, 'tags': {'amenity': 'pharmacy', 'brand': 'Chemist Warehouse', 'brand:wikidata': 'Q48782120', 'dispensing': 'yes', 'healthcare': 'pharmacy', 'name': 'Chemist Warehouse', 'website': 'https://www.chemistwarehouse.com.au/'}}"
"{'type': 'node', 'id': 1495462089, 'lat': -33.65266, 'lon': 151.0463833, 'tags': {'amenity': 'pharmacy', 'dispensing': 'yes', 'name': 'Galston Village Pharmacy'}}"
"{'type': 'node', 'id': 1604530409, 'lat': -33.826631, 'lon': 150.9822808, 'tags': {'amenity': 'pharmacy', 'healthcare': 'pharmacy'}}"
"{'type': 'node', 'id': 1608400446, 'lat': -33.8151652, 'lon': 150.9719852, 'tags': {'addr:housenumber': '326', 'addr:postcode': '2145', 'addr:state': 'NSW', 'addr:street': 'Great Western Highway', 'addr:suburb': 'Wentworthville', 'addr:unit': 'Shop 15', 'amenity': 'pharmacy', 'healthcare': 'pharmacy', 'name': 'Chemsave', 'phone': '+61 2 8868 3400'}}"
"{'type': 'node', 'id': 1611289093, 'lat': -33.8149108, 'lon': 151.0031479, 'tags': {'addr:housenumber': '202-214', 'addr:street': 'Church Street', 'addr:suburb': 'Parramatta', 'amenity': 'pharmacy', 'brand': 'Chemist Warehouse', 'brand:wikidata': 'Q48782120', 'brand:wikipedia': 'en:Chemist Warehouse', 'healthcare': 'pharmacy', 'name': 'Chemist Warehouse', 'opening_hours': 'Mo-Fr 07:00-13:00, Sa-Su 08:00-22:00', 'source': 'knowledge'}}"
"{'type': 'node', 'id': 1613718817, 'lat': -33.8322416, 'lon': 150.9684811, 'tags': {'amenity': 'pharmacy', 'name': 'Hilltop Pharmacy'}}"
"{'type': 'node', 'id': 1616126944, 'lat': -33.8065989, 'lon': 150.9885205, 'tags': {'amenity': 'pharmacy'}}"
"{'type': 'node', 'id': 1641154351, 'lat': -34.029871, 'lon': 151.0810638, 'tags': {'amenity': 'pharmacy', 'healthcare': 'pharmacy', 'name': 'David Wilson Chemist', 'wheelchair': 'yes'}}"
"{'type': 'node', 'id': 1693981372, 'lat': -33.7261991, 'lon': 150.90488, 'tags': {'healthcare': 'centre', 'opening_hours': 'Mo-Fr 08:00-19:00; Sa 08:00-13:00; Su 09:00-13:00'}}"
"{'type': 'node', 'id': 1695831065, 'lat': -33.727763, 'lon': 150.887115, 'tags': {'healthcare': 'centre'}}"
"{'type': 'node', 'id': 1699212432, 'lat': -33.7981886, 'lon': 151.2858837, 'tags': {'amenity': 'pharmacy', 'brand': 'Chemist Warehouse', 'brand:wikidata': 'Q48782120', 'healthcare': 'pharmacy', 'name': 'Chemist Warehouse'}}"
"{'type': 'node', 'id': 1702189944, 'lat': -34.5002643, 'lon': 150.8168158, 'tags': {'addr:housename': 'Kanahooka Pharmacy', 'addr:housenumber': 'Shop 1, 56', 'addr:postcode': '2530', 'addr:street': 'Lakeside Drive', 'amenity': 'pharmacy', 'name': 'Kanahooka Pharmacy'}}"
"{'type': 'node', 'id': 1709959044, 'lat': -33.9754419, 'lon': 151.0475075, 'tags': {'addr:housenumber': '1020', 'addr:postcode': '2210', 'addr:street': 'Forest Road', 'amenity': 'pharmacy', 'check_date': '2022-12-19', 'currency:XBT': 'yes', 'healthcare': 'pharmacy', 'name': 'Lugarno Pharmacist Advice', 'opening_hours': 'Mo-Fr 09:00-18:00; Sa 09:00-12:30', 'payment:onchain': 'yes', 'website': 'https://pharmacistadvice.com.au/'}}"
"{'type': 'node', 'id': 1716321323, 'lat': -33.8098437, 'lon': 150.9716802, 'tags': {'amenity': 'pharmacy'}}"
"{'type': 'node', 'id': 1732566733, 'lat': -33.8999199, 'lon': 151.1845252, 'tags': {'amenity': 'pharmacy', 'healthcare': 'pharmacy', 'name': 'Erskineville Chemist', 'source': 'survey'}}"
"{'type': 'node', 'id': 1745116469, 'lat': -33.9526278, 'lon': 151.0510595, 'tags': {'amenity': 'pharmacy', 'dispensing': 'yes', 'drive_through': 'no', 'healthcare': 'pharmacy', 'name': ""Galluzzo's Pharmacy""}}"
"{'type': 'node', 'id': 1745116470, 'lat': -33.9526412, 'lon': 151.0521967, 'tags': {'amenity': 'pharmacy', 'name': ""Galluzzo's Home Care Chemist""}}"
"{'type': 'node', 'id': 1814888806, 'lat': -33.8828092, 'lon': 151.0023191, 'tags': {'amenity': 'pharmacy'}}"
"{'type': 'node', 'id': 1815543230, 'lat': -33.837731, 'lon': 151.197137, 'tags': {'addr:city': 'Waverton', 'addr:housenumber': '100', 'addr:postcode': '2060', 'addr:street': 'Bay Road', 'addr:unit': '3', 'amenity': 'pharmacy', 'healthcare': 'pharmacy', 'name': ""Chester's Pharmacy"", 'opening_hours': 'Mo-Fr 08:00-19:00; Sa 09:00-12:00; Su off'}}"
"{'type': 'node', 'id': 1822907050, 'lat': -33.8075533, 'lon': 151.0887057, 'tags': {'amenity': 'pharmacy', 'dispensing': 'yes', 'healthcare': 'pharmacy', 'name': 'West Ryde Discount Drug Store'}}"
"{'type': 'node', 'id': 1833885954, 'lat': -34.0039999, 'lon': 151.0619262, 'tags': {'addr:housenumber': '66A', 'addr:street': 'Wolger Street', 'amenity': 'doctors', 'healthcare': 'doctor', 'healthcare:speciality': 'general', 'name': 'Como Medical Practice', 'phone': '+61 2 9528 2813'}}"
"{'type': 'node', 'id': 1833885958, 'lat': -34.0040401, 'lon': 151.0619193, 'tags': {'addr:housenumber': '66', 'addr:street': 'Wolger Street', 'amenity': 'pharmacy', 'dispensing': 'yes', 'drive_through': 'no', 'healthcare': 'pharmacy', 'name': 'comopharmacy', 'phone': '+61 2 9528 3510', 'source:name': 'survey'}}"
"{'type': 'node', 'id': 1842516002, 'lat': -33.9934467, 'lon': 151.0243103, 'tags': {'amenity': 'pharmacy', 'healthcare': 'pharmacy', 'name': 'Alfords Point Chemist'}}"
"{'type': 'node', 'id': 1849704562, 'lat': -33.5865043, 'lon': 150.8594829, 'tags': {'amenity': 'pharmacy', 'name': 'Pitt Town Pharmacy'}}"
"{'type': 'node', 'id': 1858008997, 'lat': -33.9946044, 'lon': 151.139859, 'tags': {'addr:housenumber': '33', 'addr:street': 'Clareville Avenue', 'amenity': 'pharmacy', 'healthcare': 'pharmacy', 'name': 'Dolls Point Pharmacy'}}"
"{'type': 'node', 'id': 1858194309, 'lat': -33.7037897, 'lon': 151.0998608, 'tags': {'addr:housenumber': '21', 'addr:postcode': '2077', 'addr:street': 'Florence Street', 'amenity': 'pharmacy', 'dispensing': 'yes', 'healthcare': 'pharmacy', 'name': 'Oze-Pharmacy', 'name:en': 'Superpharmacy', 'opening_hours': 'Mo-We, Fr 08:00-20:00; Th 08:00-21:00; Sa 08:30-18:00; Su 09:00-16:00', 'phone': '+61 2 9987 2233', 'website': 'https://www.superpharmacy.com.au'}}"
"{'type': 'node', 'id': 1862621782, 'lat': -33.8961272, 'lon': 151.1539957, 'tags': {'amenity': 'pharmacy', 'healthcare': 'pharmacy', 'name': 'Petersham Pharmacy'}}"
"{'type': 'node', 'id': 1894436109, 'lat': -34.494153, 'lon': 150.7929743, 'tags': {'amenity': 'pharmacy'}}"
"{'type': 'node', 'id': 1894436173, 'lat': -34.4949062, 'lon': 150.7939816, 'tags': {'amenity': 'pharmacy', 'wheelchair': 'yes'}}"
"{'type': 'node', 'id': 1894451668, 'lat': -34.4943784, 'lon': 150.7936345, 'tags': {'addr:housenumber': '1-11', 'addr:street': 'Bong Bong Road', 'amenity': 'doctors', 'healthcare': 'doctor', 'name': 'Dapto Medical & Dental Centre', 'opening_hours': 'Mo-Th 07:00-22:00; Fr 07:00-20:00; Sa 08:00-21:00; Su 08:00-18:00', 'phone': '+61 2 4262 4555', 'website': 'https://www.daptomedicalcentre.com.au/', 'wheelchair': 'yes'}}"
"{'type': 'node', 'id': 1909511596, 'lat': -33.748784, 'lon': 151.1119384, 'tags': {'amenity': 'pharmacy', 'dispensing': 'yes', 'drive_through': 'no', 'healthcare': 'pharmacy', 'name': 'South Turramurra Pharmacy'}}"
"{'type': 'node', 'id': 1941072355, 'lat': -33.9170125, 'lon': 151.2315794, 'tags': {'amenity': 'doctors', 'healthcare': 'doctor', 'name': 'University Health Service', 'opening_hours': 'Mo-Th 08:00-18:00; Fr 08:00-17:00'}}"
"{'type': 'node', 'id': 1974474980, 'lat': -33.6821128, 'lon': 150.9163546, 'tags': {'amenity': 'pharmacy', 'healthcare': 'pharmacy'}}"
"{'type': 'node', 'id': 1974543191, 'lat': -33.7943605, 'lon': 151.1223533, 'tags': {'addr:housenumber': '203-213', 'addr:postcode': '2113', 'addr:street': 'Coxs Road', 'amenity': 'pharmacy', 'dispensing': 'yes', 'healthcare': 'pharmacy', 'name': 'North Ryde Pharmacy'}}"
"{'type': 'node', 'id': 2019456453, 'lat': -33.7842396, 'lon': 151.0940961, 'tags': {'addr:street': 'Balaclava Road', 'amenity': 'pharmacy', 'healthcare': 'pharmacy'}}"
"{'type': 'node', 'id': 2057078723, 'lat': -33.777884, 'lon': 150.8944937, 'tags': {'addr:city': 'Blacktown', 'addr:housenumber': '74D', 'addr:postcode': '2148', 'addr:state': 'NSW', 'addr:street': 'Walters Road', 'amenity': 'pharmacy', 'dispensing': 'yes', 'name': ""Walter's Road Chemist"", 'payment:cash': 'yes', 'payment:debit_cards': 'yes', 'payment:visa': 'yes', 'source': 'Local_knowledge'}}"
"{'type': 'node', 'id': 2057129290, 'lat': -33.7779888, 'lon': 150.8944873, 'tags': {'amenity': 'doctors', 'healthcare': 'doctor', 'source': 'local_knowledge'}}"
"{'type': 'node', 'id': 2059351557, 'lat': -33.8889939, 'lon': 151.232691, 'tags': {'amenity': 'doctors', 'healthcare': 'doctor', 'healthcare:speciality': 'general', 'name': 'Woollahra General Practice'}}"
"{'type': 'node', 'id': 2063993517, 'lat': -33.7617818, 'lon': 150.8999578, 'tags': {'amenity': 'doctors', 'healthcare': 'alternative', 'healthcare:speciality': 'chiropractic', 'source': 'local knowledge'}}"
"{'type': 'node', 'id': 2072548999, 'lat': -33.7611434, 'lon': 151.1285284, 'tags': {'amenity': 'pharmacy', 'wheelchair': 'yes'}}"
"{'type': 'node', 'id': 2138667333, 'lat': -33.7859215, 'lon': 150.9505761, 'tags': {'addr:housenumber': '27-30', 'addr:street': 'Portico Parade', 'addr:unit': '3', 'amenity': 'clinic', 'healthcare': 'clinic', 'name': 'Bridgeview Medical Practice', 'phone': '+61 2 9631 6400', 'source': 'local_knowledge'}}"
"{'type': 'node', 'id': 2139757571, 'lat': -33.952591, 'lon': 151.0317581, 'tags': {'amenity': 'dentist', 'healthcare': 'dentist', 'name': 'Padstow Ideal Dental', 'source': 'local_knowledge'}}"
"{'type': 'node', 'id': 2139909580, 'lat': -33.9392876, 'lon': 151.0182394, 'tags': {'amenity': 'pharmacy', 'healthcare': 'pharmacy', 'name': 'Revesby North Pharmacy', 'source': 'survey'}}"
"{'type': 'node', 'id': 2141091420, 'lat': -33.9527786, 'lon': 151.0322745, 'tags': {'addr:housenumber': '11', 'addr:postcode': '2211', 'addr:state': 'NSW', 'addr:street': 'Padstow Parade', 'addr:suburb': 'Padstow', 'amenity': 'doctors', 'healthcare': 'doctor', 'name': 'Padstow Parade Clinic', 'opening_hours': 'Mo-Fr 09:00-19:00; Sa 09:00-17:00; Su 09:00-13:00', 'phone': '+61 2 9772 1788', 'source': 'survey', 'website': 'https://www.healthdirect.gov.au/australian-health-services/20056607/padstow-parade-clinic/services/padstow-2211-11-padstow-parade'}}"
"{'type': 'node', 'id': 2141119805, 'lat': -33.9538052, 'lon': 151.0334907, 'tags': {'addr:city': 'Padstow', 'addr:housenumber': '57-59', 'addr:postcode': '2211', 'addr:state': 'NSW', 'addr:street': 'Padstow Parade', 'addr:suburb': 'Padstow', 'amenity': 'pharmacy', 'brand': 'Blooms The Chemist', 'brand:wikidata': 'Q63367543', 'dispensing': 'yes', 'healthcare': 'pharmacy', 'name': 'Blooms The Chemist', 'opening_hours': 'Mo-Fr 08:00-20:00; Sa 08:00-18:00; Su 09:00-16:00', 'shop': 'chemist', 'source': 'survey', 'website': 'https://www.bloomsthechemist.com.au/store-padstow'}}"
"{'type': 'node', 'id': 2141119840, 'lat': -33.9539254, 'lon': 151.034039, 'tags': {'addr:city': 'Padstow', 'addr:housenumber': '11', 'addr:postcode': '2211', 'addr:state': 'NSW', 'addr:street': 'Faraday Road', 'addr:suburb': 'Padstow', 'amenity': 'pharmacy', 'brand': 'PharmaSave', 'brand:wikidata': 'Q63367906', 'dispensing': 'yes', 'healthcare': 'pharmacy', 'name': 'PharmaSave', 'opening_hours': 'Mo-Fr 08:30-19:30; Sa 08:30-16:00; Su 09:00-13:00', 'operator': 'Faraday Road Pharmacy', 'phone': '+61 2 9773 6426', 'source': 'survey', 'website': 'https://www.pharmasave.com.au/stores/pharmasave-faraday-road/'}}"
"{'type': 'node', 'id': 2141119881, 'lat': -33.9531111, 'lon': 151.0326498, 'tags': {'addr:city': 'Padstow', 'addr:housenumber': '23', 'addr:postcode': '2211', 'addr:state': 'NSW', 'addr:street': 'Padstow Parade', 'addr:suburb': 'Padstow', 'amenity': 'pharmacy', 'dispensing': 'yes', 'healthcare': 'pharmacy', 'name': ""Smith's Pharmacy"", 'opening_hours': 'Mo-Fr 08:00-19:00; Sa 08:30-17:00', 'source': 'survey', 'website': 'https://www.healthdirect.gov.au/australian-health-services/20062858/smiths-mediadvice-pharmacy-padstow/services/padstow-2211-padstow'}}"
"{'type': 'node', 'id': 2175005959, 'lat': -33.8317144, 'lon': 151.2387317, 'tags': {'amenity': 'pharmacy'}}"
"{'type': 'node', 'id': 2179164266, 'lat': -34.0724042, 'lon': 150.8042873, 'tags': {'amenity': 'pharmacy', 'brand': 'Chemist Warehouse', 'brand:wikidata': 'Q48782120', 'brand:wikipedia': 'en:Chemist Warehouse', 'healthcare': 'pharmacy', 'name': 'Chemist Warehouse'}}"
"{'type': 'node', 'id': 2184534610, 'lat': -33.7745495, 'lon': 150.9142664, 'tags': {'healthcare': 'pathology', 'name': 'moven+partners'}}"
"{'type': 'node', 'id': 2195224984, 'lat': -33.76358, 'lon': 150.7749204, 'tags': {'amenity': 'dentist', 'fixme': ""Can anyone confirm this is still here? I can't see signage for it"", 'healthcare': 'dentist', 'name': 'Family Dental Centre', 'phone': '+61 2 9623 8188', 'source': 'survey'}}"
"{'type': 'node', 'id': 2195224986, 'lat': -33.7635522, 'lon': 150.7747594, 'tags': {'amenity': 'pharmacy', 'dispensing': 'yes', 'healthcare': 'pharmacy', 'name': 'Easy Script Compounding Pharmacy'}}"
"{'type': 'node', 'id': 2195224987, 'lat': -33.7636011, 'lon': 150.7750422, 'tags': {'addr:city': 'St Marys', 'addr:housenumber': '63', 'addr:street': 'Phillip Street', 'amenity': 'clinic', 'healthcare': 'clinic', 'name': 'St Marys Medical Centre', 'phone': '+61 2 9623 4288', 'source': 'survey'}}"
"{'type': 'node', 'id': 2200924192, 'lat': -33.8235963, 'lon': 151.2404853, 'tags': {'amenity': 'pharmacy', 'name': 'Bridgepoint Pharmacy'}}"
"{'type': 'node', 'id': 2202478247, 'lat': -33.7739434, 'lon': 150.9134286, 'tags': {'addr:city': 'Blacktown', 'addr:housenumber': '21-23', 'addr:street': 'Grafton Street', 'healthcare': 'centre', 'name': 'Western Imaging Group', 'source': 'survey'}}"
"{'type': 'node', 'id': 2260917900, 'lat': -33.8070328, 'lon': 150.9699169, 'tags': {'addr:housenumber': '73-75', 'addr:postcode': '2145', 'addr:state': 'NSW', 'addr:street': 'Dunmore Street', 'addr:suburb': 'Wentworthville', 'healthcare': 'radiology', 'healthcare:speciality': 'radiology', 'name': 'PRP Diagnostic Imaging'}}"
"{'type': 'node', 'id': 2292413375, 'lat': -33.8007447, 'lon': 151.2576306, 'tags': {'amenity': 'pharmacy', 'dispensing': 'no', 'name': 'Balgowlah Heights Pharmacy', 'opening_hours': 'Mo-Fr 08:30-18:30; Sa 08:30-14:00', 'phone': '+61 2 9948 2995', 'source': 'survey'}}"
"{'type': 'node', 'id': 2299037124, 'lat': -34.0165445, 'lon': 151.0651917, 'tags': {'addr:housenumber': '82', 'addr:street': 'Railway Crescent', 'amenity': 'pharmacy', 'healthcare': 'pharmacy', 'name': 'The Jannali Pharmacy'}}"
"{'type': 'node', 'id': 2310365715, 'lat': -33.753595, 'lon': 151.1759305, 'tags': {'addr:housenumber': '50', 'addr:street': 'Koola Avenue', 'addr:unit': '9', 'amenity': 'pharmacy', 'dispensing': 'yes', 'healthcare': 'pharmacy', 'name': 'East Killara Pharmacy', 'phone': '+61 2 9498 4808'}}"
"{'type': 'node', 'id': 2319236963, 'lat': -33.9486902, 'lon': 151.0806034, 'tags': {'amenity': 'pharmacy', 'healthcare': 'pharmacy', 'name': 'Beverly Hills Pharmacy'}}"
"{'type': 'node', 'id': 2320134775, 'lat': -33.9711676, 'lon': 151.0823955, 'tags': {'amenity': 'doctors', 'healthcare': 'doctor', 'name': 'Family Medical Practice'}}"
"{'type': 'node', 'id': 2329157172, 'lat': -33.9522841, 'lon': 151.0335119, 'tags': {'addr:housenumber': '18', 'addr:postcode': '2211', 'addr:state': 'NSW', 'addr:street': 'Howard Road', 'addr:suburb': 'Padstow', 'addr:unit': '4', 'amenity': 'doctors', 'healthcare': 'doctor', 'name': 'The Good Shepherd Medical Centre', 'phone': '+61 2 9771 9109', 'source': 'survey', 'website': 'https://www.healthdirect.gov.au/australian-health-services/20057155/the-good-shepherd-medical-centre-padstow/services/padstow-2211-howard'}}"
"{'type': 'node', 'id': 2337825032, 'lat': -33.6274746, 'lon': 150.838458, 'tags': {'amenity': 'pharmacy', 'name': 'Goodprice Pharmacy Warehouse'}}"
"{'type': 'node', 'id': 2339241629, 'lat': -33.7755652, 'lon': 150.7131154, 'tags': {'amenity': 'doctors', 'healthcare': 'doctor', 'source': 'voice'}}"
"{'type': 'node', 'id': 2339241632, 'lat': -33.7756446, 'lon': 150.7130118, 'tags': {'amenity': 'pharmacy', 'dispensing': 'yes', 'healthcare': 'pharmacy', 'source': 'voice'}}"
"{'type': 'node', 'id': 2339241638, 'lat': -33.7756423, 'lon': 150.7131408, 'tags': {'amenity': 'dentist', 'healthcare': 'dentist', 'source': 'voice'}}"
"{'type': 'node', 'id': 2339241678, 'lat': -33.7756832, 'lon': 150.7130908, 'tags': {'healthcare': 'physiotherapist', 'source': 'voice'}}"
"{'type': 'node', 'id': 2342631349, 'lat': -33.6048297, 'lon': 150.8207056, 'tags': {'amenity': 'doctors', 'healthcare': 'doctor', 'name': 'Kable Street General Practice', 'source': 'survey'}}"
"{'type': 'node', 'id': 2342887827, 'lat': -34.0454267, 'lon': 151.0508968, 'tags': {'amenity': 'pharmacy', 'healthcare': 'pharmacy'}}"
"{'type': 'node', 'id': 2356678819, 'lat': -34.0364254, 'lon': 151.0709228, 'tags': {'addr:housenumber': '9', 'addr:street': 'Cedar Place', 'healthcare': 'psychotherapist', 'name': 'Gymea Lily Therapy Centre', 'website': 'https://www.gymealily.org/'}}"
"{'type': 'node', 'id': 2365229921, 'lat': -33.89725, 'lon': 151.1788, 'tags': {'addr:city': 'Newtown', 'addr:housenumber': '327', 'addr:postcode': '2042', 'addr:street': 'King Street', 'amenity': 'doctors', 'healthcare': 'doctor', 'name': 'Newtown Medical Practice'}}"
"{'type': 'node', 'id': 2365231369, 'lat': -33.896893, 'lon': 151.179563, 'tags': {'addr:city': 'Newtown', 'addr:housenumber': '304-306', 'addr:postcode': '2042', 'addr:street': 'King Street', 'amenity': 'pharmacy', 'dispensing': 'yes', 'healthcare': 'pharmacy', 'name': ""Bob's Chemist Newtown""}}"
"{'type': 'node', 'id': 2365231907, 'lat': -33.895788, 'lon': 151.181351, 'tags': {'amenity': 'pharmacy', 'brand': 'Chemist Warehouse', 'brand:wikidata': 'Q48782120', 'brand:wikipedia': 'en:Chemist Warehouse', 'dispensing': 'yes', 'healthcare': 'pharmacy', 'name': 'Chemist Warehouse'}}"
"{'type': 'node', 'id': 2365247986, 'lat': -33.89895, 'lon': 151.173714, 'tags': {'amenity': 'pharmacy', 'healthcare': 'pharmacy', 'name': 'Cincotta Discount Chemist', 'wheelchair': 'yes'}}"
"{'type': 'node', 'id': 2380637421, 'lat': -33.7832529, 'lon': 151.2672888, 'tags': {'amenity': 'pharmacy', 'healthcare': 'pharmacy', 'name': 'Manly Vale Pharmacy'}}"
"{'type': 'node', 'id': 2394898826, 'lat': -33.8952407, 'lon': 151.0903525, 'tags': {'amenity': 'doctors', 'healthcare': 'doctor', 'source': 'survey'}}"
"{'type': 'node', 'id': 2394898827, 'lat': -33.8952843, 'lon': 151.0903407, 'tags': {'amenity': 'pharmacy', 'healthcare': 'pharmacy', 'source': 'survey'}}"
"{'type': 'node', 'id': 2397171198, 'lat': -33.9099356, 'lon': 151.0965183, 'tags': {'health_specialty:podiatry': 'yes', 'healthcare': 'podiatrist', 'image': 'http://osm.stayneutral.com/1373761584.1.jpg', 'source': 'survey'}}"
"{'type': 'node', 'id': 2404311395, 'lat': -33.7894382, 'lon': 150.9961651, 'tags': {'amenity': 'pharmacy', 'healthcare': 'pharmacy', 'name': 'Tolar Pharmacy'}}"
"{'type': 'node', 'id': 2444076697, 'lat': -33.9494895, 'lon': 151.0812709, 'tags': {'amenity': 'pharmacy', 'healthcare': 'pharmacy', 'name': 'Boian Chemist', 'source': 'survey'}}"
"{'type': 'node', 'id': 2447872388, 'lat': -34.0581946, 'lon': 151.0274206, 'tags': {'amenity': 'pharmacy', 'healthcare': 'pharmacy', 'name': 'Yarrawarrah Pharmacy'}}"
"{'type': 'node', 'id': 2472080038, 'lat': -33.6355741, 'lon': 150.285348, 'tags': {'amenity': 'pharmacy', 'check_date': '2023-11-05', 'healthcare': 'pharmacy', 'name': ""Dash's Blackheath Pharmacy"", 'website': 'https://www.healthdirect.gov.au/australian-health-services/healthcare-service/blackheath-2785-nsw/dash-s-blackheath-pharmacy/pharmacy/8e43763c-3eee-7aed-24ef-69b5a85753dd'}}"
"{'type': 'node', 'id': 2503442457, 'lat': -34.0462307, 'lon': 151.1329844, 'tags': {'amenity': 'pharmacy', 'healthcare': 'pharmacy'}}"
"{'type': 'node', 'id': 2573959519, 'lat': -33.7565801, 'lon': 150.7016778, 'tags': {'healthcare': 'pathology', 'name': 'Barratt & Smith Pathology', 'source': 'voice'}}"
"{'type': 'node', 'id': 2573959536, 'lat': -33.7560236, 'lon': 151.1526871, 'tags': {'amenity': 'doctors', 'fixme': 'check hours for weekends', 'healthcare': 'doctor', 'name': 'Gordon Medical Centre', 'opening_hours': 'Mo-Su 08:00-16:00', 'source': 'voice'}}"
"{'type': 'node', 'id': 2573959543, 'lat': -33.7196258, 'lon': 150.4304253, 'tags': {'amenity': 'pharmacy', 'healthcare': 'pharmacy', 'name': 'Lawson Pharmacy', 'source': 'voice'}}"
"{'type': 'node', 'id': 2573959551, 'lat': -33.7555592, 'lon': 150.701988, 'tags': {'addr:housenumber': '19', 'addr:street': 'Evan Street', 'amenity': 'dentist', 'healthcare': 'dentist', 'name': 'Evan Street Denture Clinic', 'source': 'voice', 'website': 'https://evanstdentureclinic.com.au'}}"
"{'type': 'node', 'id': 2573959559, 'lat': -33.9129016, 'lon': 151.2395958, 'tags': {'amenity': 'pharmacy', 'dispensing': 'yes', 'healthcare': 'pharmacy', 'name': ""Simon's Pharmacy"", 'note': 'Free Local Delivery', 'opening_hours': 'Mo-Fr 09:00-19:00; Sa 09:00-15:00', 'phone': '+61 2 9399 3040'}}"
"{'type': 'node', 'id': 2610663248, 'lat': -33.6008865, 'lon': 150.7510016, 'tags': {'amenity': 'doctors', 'healthcare': 'doctor', 'name': 'Better Health Medical Centre'}}"
"{'type': 'node', 'id': 2610663250, 'lat': -33.7324316, 'lon': 151.1267717, 'tags': {'amenity': 'pharmacy', 'brand': 'Chemist Warehouse', 'brand:wikidata': 'Q48782120', 'brand:wikipedia': 'en:Chemist Warehouse', 'dispensing': 'yes', 'healthcare': 'pharmacy', 'name': 'Chemist Warehouse'}}"
"{'type': 'node', 'id': 2610663261, 'lat': -33.5820555, 'lon': 150.7197708, 'tags': {'amenity': 'dentist', 'healthcare': 'dentist', 'name': 'Hawkesbury Dentistry', 'source': 'voice'}}"
"{'type': 'node', 'id': 2610718340, 'lat': -33.6009361, 'lon': 150.7510953, 'tags': {'healthcare': 'alternative', 'healthcare:speciality': 'osteopathy', 'source': 'voice'}}"
"{'type': 'node', 'id': 2611986659, 'lat': -34.0066752, 'lon': 151.0809648, 'tags': {'amenity': 'pharmacy', 'healthcare': 'pharmacy', 'name': 'Oyster Bay Community Pharmacy'}}"
"{'type': 'node', 'id': 2613244959, 'lat': -34.0547321, 'lon': 151.1517866, 'tags': {'addr:housenumber': '107', 'healthcare': 'pathology', 'source': 'survey', 'source:location': 'bing'}}"
"{'type': 'node', 'id': 2613244996, 'lat': -34.051086, 'lon': 151.1527585, 'tags': {'amenity': 'doctors', 'healthcare': 'doctor', 'source': 'survey', 'source:location': 'extrapolation'}}"
"{'type': 'node', 'id': 2613255771, 'lat': -34.0524262, 'lon': 151.1529296, 'tags': {'healthcare': 'optometrist', 'name': 'Cronulla Vision', 'source': 'survey', 'source:location': 'bing'}}"
"{'type': 'node', 'id': 2613255849, 'lat': -34.0538263, 'lon': 151.152432, 'tags': {'amenity': 'dentist', 'healthcare': 'dentist', 'source': 'survey', 'source:location': 'bing'}}"
"{'type': 'node', 'id': 2615979191, 'lat': -33.8687387, 'lon': 151.1294368, 'tags': {'amenity': 'pharmacy', 'brand': 'Pharmacy 4 Less', 'brand:wikidata': 'Q63367608', 'healthcare': 'pharmacy', 'name': 'Pharmacy 4 Less'}}"
"{'type': 'node', 'id': 2615979192, 'lat': -33.8695324, 'lon': 151.1292633, 'tags': {'amenity': 'pharmacy', 'brand': 'Chemist Warehouse', 'brand:wikidata': 'Q48782120', 'healthcare': 'pharmacy', 'name': 'Chemist Warehouse', 'opening_hours': 'Mo-Fr 08:00-21:00; Sa 08:00-19:00; PH,Su 09:00-19:00'}}"
"{'type': 'node', 'id': 2618190720, 'lat': -33.8076784, 'lon': 150.9716688, 'tags': {'addr:housenumber': '27', 'addr:postcode': '2145', 'addr:street': 'Dunmore Street', 'amenity': 'pharmacy', 'source': 'survey'}}"
"{'type': 'node', 'id': 2624220454, 'lat': -33.9143665, 'lon': 151.0352709, 'tags': {'addr:housenumber': '67', 'addr:postcode': '2200', 'addr:state': 'NSW', 'addr:street': 'Rickard Road', 'addr:suburb': 'Bankstown', 'amenity': 'doctors', 'healthcare': 'doctor', 'name': 'Primary Health Care Medical & Dental Centre', 'opening_hours': 'Mo-Su 07:00-22:00', 'phone': '+61 2 9790 0024', 'website': 'https://www.forhealthbankstown.com.au/'}}"
"{'type': 'node', 'id': 2625839866, 'lat': -33.8225326, 'lon': 151.1939381, 'tags': {'addr:city': 'St Leonards', 'addr:country': 'AU', 'addr:postcode': '2065', 'addr:state': 'NSW', 'addr:street': 'Herbert Street', 'amenity': 'pharmacy', 'brand': 'Priceline Pharmacy', 'brand:wikidata': 'Q7242652', 'brand:wikipedia': 'en:Priceline (Australia)', 'check_date': '2022-07-21', 'drive_through': 'no', 'healthcare': 'pharmacy', 'level': '0', 'name': 'Priceline Pharmacy', 'opening_hours': 'Mo-Fr 07:00-20:00; Sa 09:00-17:00; Su 10:00-16:00', 'wheelchair': 'yes'}}"
"{'type': 'node', 'id': 2625841420, 'lat': -33.822996, 'lon': 151.1943694, 'tags': {'addr:city': 'St Leonards', 'addr:country': 'AU', 'addr:state': 'NSW', 'addr:street': 'Pacific Highway underpass', 'amenity': 'pharmacy', 'drive_through': 'no', 'name': 'Forum Pharmacy', 'opening_hours': 'Mo-Fr 07:00-20:00; Sa 09:00-16:00; Su 10:00-15:00', 'wheelchair': 'yes'}}"
"{'type': 'node', 'id': 2625882134, 'lat': -33.8239924, 'lon': 151.2010435, 'tags': {'amenity': 'pharmacy', 'dispensing': 'yes', 'drive_through': 'no', 'fixme': 'Not sure of opening time, it just says closes 10pm on exterior signage. May need to go in store to find actual trading hours.', 'healthcare': 'pharmacy', 'name': 'Day Night Chemist', 'opening_hours': 'Mo-Su 08:00-22:00'}}"
"{'type': 'node', 'id': 2625916462, 'lat': -33.8229457, 'lon': 151.1938222, 'tags': {'addr:city': 'St Leonards', 'addr:country': 'AU', 'addr:postcode': '2065', 'addr:state': 'NSW', 'addr:street': 'Herbert Street', 'amenity': 'doctors', 'healthcare': 'doctor', 'healthcare:speciality': 'general', 'name': 'Forum Medical Centre', 'opening_hours': 'Mo-Fr 08:00-17:30; Sa 08:30-13:00; Su 08:00-12:00', 'wheelchair': 'yes'}}"
"{'type': 'node', 'id': 2643489994, 'lat': -34.2227832, 'lon': 150.592267, 'tags': {'addr:housenumber': '117', 'addr:street': 'Remembrance Driveway', 'addr:unit': '12', 'amenity': 'pharmacy', 'brand': 'Priceline Pharmacy', 'brand:wikidata': 'Q7242652', 'brand:wikipedia': 'en:Priceline (Australia)', 'healthcare': 'pharmacy', 'name': 'Priceline Pharmacy', 'opening_hours': 'Mo-Fr 08:30-19:00; Sa,Su 09:00-17:00', 'phone': '+61 2 4681 8713'}}"
"{'type': 'node', 'id': 2643642763, 'lat': -33.9297808, 'lon': 151.1944458, 'tags': {'amenity': 'pharmacy', 'brand': 'TerryWhite Chemmart', 'brand:wikidata': 'Q24089773', 'healthcare': 'pharmacy', 'name': 'TerryWhite Chemmart', 'source': 'voice'}}"
"{'type': 'node', 'id': 2687325208, 'lat': -34.021113, 'lon': 151.098317, 'tags': {'amenity': 'pharmacy', 'healthcare': 'pharmacy', 'name': 'Box Village Pharmacy'}}"
"{'type': 'node', 'id': 2700943526, 'lat': -33.8538158, 'lon': 151.0082576, 'tags': {'amenity': 'pharmacy', 'name': 'Dellwood Pharmacy', 'source': 'survey'}}"
"{'type': 'node', 'id': 2753209667, 'lat': -33.965301, 'lon': 151.1340735, 'tags': {'amenity': 'pharmacy', 'healthcare': 'pharmacy', 'name': 'Health Save Pharmacy'}}"
"{'type': 'node', 'id': 2763940587, 'lat': -33.9248995, 'lon': 151.2121868, 'tags': {'amenity': 'doctors', 'healthcare': 'doctor', 'name': 'Advance Eastlakes Medical Centre'}}"
"{'type': 'node', 'id': 2784732672, 'lat': -33.6826356, 'lon': 150.9171897, 'tags': {'addr:housenumber': '16', 'addr:postcode': '2155', 'addr:street': 'Adelphi Street', 'addr:suburb': 'Rouse Hill', 'amenity': 'clinic', 'name': 'Hills Doctors', 'source': 'survey'}}"
"{'type': 'node', 'id': 2786816031, 'lat': -33.9656004, 'lon': 151.1343068, 'tags': {'amenity': 'clinic', 'healthcare': 'clinic', 'name': 'Health Plus Medical Centre'}}"
"{'type': 'node', 'id': 2787026311, 'lat': -33.8363974, 'lon': 150.9901392, 'tags': {'amenity': 'pharmacy', 'healthcare': 'pharmacy', 'name': 'Cincotta Chemist', 'source': 'survey'}}"
"{'type': 'node', 'id': 2789640230, 'lat': -33.8948007, 'lon': 151.1641204, 'tags': {'addr:city': 'Stanmore', 'addr:housenumber': '110', 'addr:postcode': '2048', 'addr:street': 'Cambridge Street', 'amenity': 'doctors', 'healthcare': 'doctor', 'name': 'Stanmore Family Medical Centre', 'phone': '+61 2 9569 2213'}}"
"{'type': 'node', 'id': 2817280347, 'lat': -33.8348112, 'lon': 150.9821032, 'tags': {'addr:housenumber': '333', 'addr:postcode': '2160', 'addr:street': 'Merrylands Road', 'addr:suburb': 'Merrylands', 'amenity': 'clinic', 'healthcare': 'clinic', 'name': 'Triple Three Medical Centre'}}"
"{'type': 'node', 'id': 2817285328, 'lat': -33.8331454, 'lon': 150.9926062, 'tags': {'addr:postcode': '2160', 'addr:street': 'Pitt Street', 'addr:suburb': 'Merrylands', 'amenity': 'clinic', 'name': 'Pitt Street Medical Centre', 'opening_hours': 'Mo-Fr 07:00-22:00; Sa,Su,PH 08:00-22:00'}}"
"{'type': 'node', 'id': 2841603768, 'lat': -33.9260806, 'lon': 151.2433094, 'tags': {'healthcare': 'physiotherapist', 'name': 'Body Balance Physiotherapy', 'shop': 'medical', 'source': 'voice'}}"
"{'type': 'node', 'id': 2864025779, 'lat': -33.8697539, 'lon': 150.9578429, 'tags': {'amenity': 'clinic', 'name': 'Fairfield Medical Centre', 'source': 'survey'}}"
"{'type': 'node', 'id': 2867997296, 'lat': -33.9055489, 'lon': 151.1444761, 'tags': {'addr:housenumber': '486', 'addr:postcode': '2203', 'addr:street': 'Marrickville Road', 'addr:suburb': 'Dulwich Hill', 'amenity': 'dentist', 'healthcare': 'dentist', 'name': 'Dulwich Dental Services', 'source': 'survey'}}"
"{'type': 'node', 'id': 2868017525, 'lat': -33.9042732, 'lon': 151.139522, 'tags': {'amenity': 'clinic', 'name': 'Holy family Medical Centre'}}"
"{'type': 'node', 'id': 2884687732, 'lat': -33.8745552, 'lon': 151.094172, 'tags': {'amenity': 'pharmacy', 'name': 'Discount Chemist'}}"
"{'type': 'node', 'id': 2905141155, 'lat': -33.7149102, 'lon': 150.9700441, 'tags': {'addr:housenumber': '76', 'addr:postcode': '2155', 'addr:street': 'Wrights Road', 'addr:suburb': 'Kellyville', 'amenity': 'dentist', 'healthcare': 'dentist', 'source': 'survey'}}"
"{'type': 'node', 'id': 2914065155, 'lat': -33.7156034, 'lon': 150.9600719, 'tags': {'addr:housenumber': '4', 'addr:postcode': '2155', 'addr:street': 'Windsor Road', 'addr:suburb': 'Kellyville', 'amenity': 'clinic', 'healthcare': 'clinic', 'name': 'Kellyville Chiropractic'}}"
"{'type': 'node', 'id': 2915387413, 'lat': -33.7891611, 'lon': 151.0795509, 'tags': {'addr:housenumber': '3', 'addr:postcode': '2122', 'addr:street': 'Hillview Road', 'addr:suburb': 'Eastwood', 'amenity': 'clinic', 'name': 'Hillview Medical Centre', 'source': 'survey'}}"
"{'type': 'node', 'id': 2935025002, 'lat': -33.5820014, 'lon': 150.7204741, 'tags': {'addr:city': 'North Richmond', 'addr:housenumber': '6-16', 'addr:postcode': '2754', 'addr:street': 'Riverview Street', 'amenity': 'dentist', 'healthcare': 'dentist', 'name': 'Riverlands Dental', 'opening_hours': 'Mo-We 08:30-17:00; Th 09:00-19:00; Fr 08:30-17:00; Sa 08:00-12:00'}}"
"{'type': 'node', 'id': 2938269401, 'lat': -33.893049, 'lon': 151.184999, 'tags': {'addr:city': 'Newtown', 'addr:housenumber': '90-92', 'addr:postcode': '2042', 'addr:street': 'King Street', 'amenity': 'pharmacy', 'dispensing': 'yes', 'healthcare': 'pharmacy', 'name': 'Day & Night Chemist @ Newtown', 'opening_hours': 'Mo-Sa 09:00-21:00; Su 10:00-21:00', 'wheelchair': 'yes'}}"
"{'type': 'node', 'id': 2969807217, 'lat': -33.7533264, 'lon': 151.1759725, 'tags': {'addr:housenumber': '50', 'addr:street': 'Koola Avenue', 'addr:unit': '5', 'amenity': 'doctors', 'healthcare': 'doctor', 'name': 'East Killara Medical Practice', 'opening_hours': 'Mo-Fr 08:00-17:00', 'phone': '+61 2 9499 7798', 'survey:date': '2022-01-31'}}"
"{'type': 'node', 'id': 3104781954, 'lat': -33.7971904, 'lon': 151.0048002, 'tags': {'addr:housenumber': '25', 'addr:postcode': '2151', 'addr:street': 'Iron Street', 'addr:suburb': 'North Parramatta', 'amenity': 'clinic', 'source': 'survey'}}"
"{'type': 'node', 'id': 3121595346, 'lat': -33.7912072, 'lon': 150.9970751, 'tags': {'addr:housenumber': '54', 'addr:postcode': '2152', 'addr:street': 'Windsor Road', 'addr:suburb': 'Northmead', 'amenity': 'clinic', 'healthcare': 'dentist', 'medical_service:dental_services': 'yes', 'name': 'Sydney Denture Clinic', 'source': 'survey'}}"
"{'type': 'node', 'id': 3121614413, 'lat': -33.781301, 'lon': 150.996662, 'tags': {'addr:housenumber': '168', 'addr:postcode': '2153', 'addr:street': 'Windsor Road', 'addr:suburb': 'Winston Hills', 'healthcare': 'clinic', 'healthcare:speciality': 'chiropractic', 'name': 'Hands On Chiropractic', 'source': 'survey'}}"
"{'type': 'node', 'id': 3123406333, 'lat': -33.6130529, 'lon': 151.1392614, 'tags': {'amenity': 'pharmacy', 'dispensing': 'yes', 'drive_through': 'no', 'healthcare': 'pharmacy', 'name': 'Berowra Village Pharmacy'}}"
"{'type': 'node', 'id': 3123406335, 'lat': -33.6131611, 'lon': 151.1391529, 'tags': {'amenity': 'clinic', 'healthcare': 'clinic', 'name': 'Berowra Family Medical Practice'}}"
"{'type': 'node', 'id': 3123633531, 'lat': -33.8088858, 'lon': 151.0059988, 'tags': {'addr:city': 'Parramatta', 'addr:housenumber': '1', 'addr:postcode': '2150', 'addr:street': 'Victoria Road', 'amenity': 'clinic', 'healthcare': 'clinic', 'phone': '+61 2 8628 0053;+61 2 9630 9970', 'source': 'survey', 'website': 'http://www.plusmedicalclinic.com.au/'}}"
"{'type': 'node', 'id': 3147131042, 'lat': -33.8045051, 'lon': 151.0117891, 'tags': {'addr:housenumber': '32', 'addr:postcode': '2151', 'addr:street': 'Short Street', 'addr:suburb': 'North Parramatta', 'healthcare': 'clinic', 'healthcare:speciality': 'chiropractic', 'name': 'Parramatta Chiropractic and Health Centre', 'phone': '+61 2 9683 6110', 'source': 'survey', 'website': 'https://pchc.com.au/'}}"
"{'type': 'node', 'id': 3158862068, 'lat': -33.8080516, 'lon': 151.0099472, 'tags': {'addr:housenumber': '58', 'addr:postcode': '2151', 'addr:street': 'Ross Street', 'addr:suburb': 'North Parramatta', 'amenity': 'clinic', 'healthcare': 'clinic', 'name': 'Frontline Medical Centre', 'source': 'survey'}}"
"{'type': 'node', 'id': 3159172027, 'lat': -33.7034776, 'lon': 151.100544, 'tags': {'addr:housenumber': '21', 'addr:postcode': '2077', 'addr:street': 'Hunter Street', 'amenity': 'pharmacy', 'brand': 'Chemist Warehouse', 'brand:wikidata': 'Q48782120', 'brand:wikipedia': 'en:Chemist Warehouse', 'healthcare': 'pharmacy', 'name': 'Chemist Warehouse', 'opening_hours': 'Mo-Fr 08:00-21:00; Sa 08:00-18:00; Su 09:00-18:00', 'phone': '+61 2 9487 1394', 'website': 'https://www.chemistwarehouse.com.au/'}}"
"{'type': 'node', 'id': 3162173690, 'lat': -33.7035433, 'lon': 151.100516, 'tags': {'amenity': 'doctors', 'healthcare': 'clinic', 'name': 'Hornsby Fountain Medical Centre', 'opening_hours': 'Mo-Fr 08:00-17:30; Sa,Su 09:00-16:00', 'website': 'https://www.hornsbymc.com.au/'}}"
"{'type': 'node', 'id': 3162173691, 'lat': -33.7034001, 'lon': 151.1005432, 'tags': {'amenity': 'clinic', 'healthcare': 'clinic', 'name': 'Madison Day Surgery', 'opening_hours': 'Mo-Fr 08:30-17:00'}}"
"{'type': 'node', 'id': 3162173692, 'lat': -33.7033338, 'lon': 151.1005725, 'tags': {'amenity': 'clinic', 'healthcare': 'clinic', 'name': 'Balmoral Medical Centre Hornsby', 'opening_hours': 'Mo-Fr 08:00-17:00; Sa 08:00-16:00'}}"
"{'type': 'node', 'id': 3162173694, 'lat': -33.7032113, 'lon': 151.100589, 'tags': {'amenity': 'pharmacy', 'name': 'Florence Pharmacy', 'opening_hours': 'Mo-Fr 09:00-19:00; Sa 09:00-16:00'}}"
"{'type': 'node', 'id': 3191155666, 'lat': -33.7975656, 'lon': 151.025732, 'tags': {'amenity': 'doctors', 'healthcare': 'doctor', 'name': 'Oatlands Family Practice'}}"
"{'type': 'node', 'id': 3232853592, 'lat': -33.7831446, 'lon': 151.0478616, 'tags': {'amenity': 'pharmacy', 'name': 'MediAdvice', 'source': 'survey'}}"
"{'type': 'node', 'id': 3237425499, 'lat': -33.8545085, 'lon': 150.9881304, 'tags': {'addr:housenumber': '268', 'addr:postcode': '2161', 'addr:street': 'Guildford Road', 'addr:suburb': 'Guildford', 'amenity': 'pharmacy', 'healthcare': 'pharmacy', 'name': 'Guildford Road Pharmacy', 'phone': '+61 2 9632 6571', 'source': 'survey', 'website': 'http://www.guildfordroadpharmacy.com.au/', 'wheelchair': 'no'}}"
"{'type': 'node', 'id': 3237425501, 'lat': -33.8545153, 'lon': 150.9882024, 'tags': {'addr:housenumber': '268', 'addr:postcode': '2161', 'addr:street': 'Guildford Road', 'addr:suburb': 'Guildford', 'amenity': 'clinic', 'healthcare': 'clinic', 'name': 'Guildford Road Medical Centre', 'source': 'survey'}}"
"{'type': 'node', 'id': 3237425502, 'lat': -33.8543102, 'lon': 150.987256, 'tags': {'addr:housenumber': '302', 'addr:postcode': '2161', 'addr:street': 'Guildford Road', 'addr:suburb': 'Guildford', 'amenity': 'clinic', 'healthcare': 'clinic', 'name': 'St Marys Medical Centre', 'source': 'survey'}}"
"{'type': 'node', 'id': 3237425513, 'lat': -33.8539907, 'lon': 150.9853813, 'tags': {'addr:housenumber': '356', 'addr:postcode': '2161', 'addr:street': 'Guildford Road', 'addr:suburb': 'Guildford', 'amenity': 'pharmacy', 'healthcare': 'pharmacy', 'source': 'survey', 'wheelchair': 'yes'}}"
"{'type': 'node', 'id': 3237425523, 'lat': -33.8522632, 'lon': 151.0005811, 'tags': {'addr:postcode': '2161', 'addr:street': 'Excelsior Street', 'addr:suburb': 'Guildford', 'amenity': 'pharmacy', 'name': 'Excel Pharmacy', 'source': 'survey'}}"
"{'type': 'node', 'id': 3239171045, 'lat': -33.8621319, 'lon': 150.9387702, 'tags': {'addr:postcode': '2165', 'addr:street': 'The Boulevarde', 'addr:suburb': 'Fairfield Heights', 'amenity': 'pharmacy', 'name': 'Fairfield Heights Pharmacy'}}"
"{'type': 'node', 'id': 3274290861, 'lat': -33.7737856, 'lon': 151.0820408, 'tags': {'amenity': 'dentist', 'check_date': '2024-09-16', 'healthcare': 'dentist', 'name': 'Advanced Dentistry', 'source': 'survey'}}"
"{'type': 'node', 'id': 3274290873, 'lat': -33.7732439, 'lon': 151.0832342, 'tags': {'addr:housenumber': '36', 'addr:postcode': '2121', 'addr:street': 'Langston Place', 'addr:suburb': 'Epping', 'amenity': 'pharmacy', 'brand': 'TerryWhite Chemmart', 'brand:wikidata': 'Q24089773', 'brand:wikipedia': 'en:Terry White Chemmart', 'healthcare': 'pharmacy', 'name': 'TerryWhite Chemmart', 'opening_hours': 'Mo-Fr 08:00-19:00; Sa 08:30-15:30; Su 10:00-14:00', 'phone': '+61 2 9876 3175', 'source': 'survey', 'wheelchair': 'yes'}}"
"{'type': 'node', 'id': 3320039123, 'lat': -33.7915593, 'lon': 151.080801, 'tags': {'amenity': 'pharmacy', 'brand': 'Chemist Warehouse', 'brand:wikidata': 'Q48782120', 'brand:wikipedia': 'en:Chemist Warehouse', 'healthcare': 'pharmacy', 'name': 'Chemist Warehouse', 'source': 'survey', 'wheelchair': 'yes'}}"
"{'type': 'node', 'id': 3320039127, 'lat': -33.7902477, 'lon': 151.0809593, 'tags': {'amenity': 'doctors', 'healthcare': 'doctor', 'source': 'survey', 'wheelchair': 'yes'}}"
"{'type': 'node', 'id': 3335324090, 'lat': -33.8480903, 'lon': 151.1280711, 'tags': {'addr:housenumber': '551', 'addr:postcode': '2046', 'addr:street': 'Great North Road', 'addr:suburb': 'Abbotsford', 'amenity': 'pharmacy', 'healthcare': 'pharmacy', 'source': 'survey'}}"
"{'type': 'node', 'id': 3401293008, 'lat': -33.6984375, 'lon': 150.9415314, 'tags': {'amenity': 'pharmacy', 'brand': 'Chemist Warehouse', 'brand:wikidata': 'Q48782120', 'healthcare': 'pharmacy', 'name': 'Chemist Warehouse'}}"
"{'type': 'node', 'id': 3450558021, 'lat': -33.7512167, 'lon': 150.6954313, 'tags': {'amenity': 'pharmacy', 'brand': 'Chemist Warehouse', 'brand:wikidata': 'Q48782120', 'brand:wikipedia': 'en:Chemist Warehouse', 'dispensing': 'yes', 'healthcare': 'pharmacy', 'name': 'Chemist Warehouse', 'website': 'https://www.chemistwarehouse.com.au/'}}"
"{'type': 'node', 'id': 3450558245, 'lat': -33.7873131, 'lon': 150.8342479, 'tags': {'amenity': 'doctors', 'healthcare': 'doctor', 'name': 'Minchinbury Family Practice'}}"
"{'type': 'node', 'id': 3502499375, 'lat': -34.034537, 'lon': 151.0712121, 'tags': {'amenity': 'pharmacy', 'dispensing': 'yes', 'healthcare': 'pharmacy', 'name': 'Kirrawee Pharmacy'}}"
"{'type': 'node', 'id': 3511255891, 'lat': -33.8010501, 'lon': 151.1989723, 'tags': {'addr:city': 'Willoughby', 'addr:housenumber': '77', 'addr:postcode': '2068', 'addr:street': 'Penshurst Street', 'amenity': 'clinic', 'name': 'Physiocise'}}"
"{'type': 'node', 'id': 3513602264, 'lat': -33.8963982, 'lon': 151.1993202, 'tags': {'amenity': 'pharmacy', 'healthcare': 'pharmacy', 'name': ""Kirby's Pharmacy""}}"
"{'type': 'node', 'id': 3513602273, 'lat': -33.8958138, 'lon': 151.199194, 'tags': {'amenity': 'doctors', 'healthcare': 'doctor', 'name': 'Healthcare Family Medical Centre'}}"
"{'type': 'node', 'id': 3529607348, 'lat': -33.8316119, 'lon': 151.18621, 'tags': {'amenity': 'pharmacy', 'name': 'Greenwich Village Pharmacy'}}"
"{'type': 'node', 'id': 3587834307, 'lat': -34.0647967, 'lon': 151.0133341, 'tags': {'amenity': 'pharmacy', 'healthcare': 'pharmacy', 'name': 'Moods Pharmacy'}}"
"{'type': 'node', 'id': 3592218743, 'lat': -33.7992506, 'lon': 150.7772691, 'tags': {'amenity': 'dentist', 'healthcare': 'dentist', 'source': 'voice'}}"
"{'type': 'node', 'id': 3592233610, 'lat': -33.7964734, 'lon': 150.7902733, 'tags': {'healthcare': 'physiotherapist', 'name': 'Connect Physio', 'shop': 'medical', 'source': 'voice'}}"
"{'type': 'node', 'id': 3592233611, 'lat': -33.7530741, 'lon': 150.7018508, 'tags': {'amenity': 'pharmacy', 'dispensing': 'yes', 'healthcare': 'pharmacy', 'name': 'Discount Drug Stores', 'operator': 'Discount Drug Stores'}}"
"{'type': 'node', 'id': 3592233616, 'lat': -33.7526996, 'lon': 150.700699, 'tags': {'amenity': 'doctors', 'check_date': '2023-10-30', 'healthcare': 'doctor', 'name': 'Penrith Medical Centre', 'xray': 'yes'}}"
"{'type': 'node', 'id': 3609960853, 'lat': -33.8836163, 'lon': 151.1964366, 'tags': {'addr:housenumber': '82', 'addr:street': 'Mountain Street', 'amenity': 'doctors', 'healthcare': 'doctor', 'name': 'Ultimo Medical Practice', 'note': '100% Bulk Bill'}}"
"{'type': 'node', 'id': 3617634593, 'lat': -33.8826098, 'lon': 151.1570768, 'tags': {'amenity': 'pharmacy', 'brand': 'Chemist Warehouse', 'brand:wikidata': 'Q48782120', 'brand:wikipedia': 'en:Chemist Warehouse', 'dispensing': 'yes', 'full_name': 'Chemist Warehouse Leichhardt', 'healthcare': 'pharmacy', 'name': 'Chemist Warehouse', 'opening_hours': 'Mo-Fr 08:00-21:00; Sa 08:30-19:00; Su 09:00-19:00', 'website': 'https://www.chemistwarehouse.com.au/', 'wheelchair': 'yes'}}"
"{'type': 'node', 'id': 3700611392, 'lat': -33.9305076, 'lon': 151.1491392, 'tags': {'healthcare': 'physiotherapist', 'name': 'Wolli Creek Physiotherapy'}}"
"{'type': 'node', 'id': 3700611532, 'lat': -33.9305862, 'lon': 151.149007, 'tags': {'amenity': 'dentist', 'healthcare': 'dentist', 'name': 'Dr. L. Chew', 'opening_hours': 'Mo,Tu,Th 10:00-19:00; We,Fr 10:00-18:00; Sa 08:00-12:00; Su off', 'wheelchair': 'limited'}}"
"{'type': 'node', 'id': 3719873210, 'lat': -33.912765, 'lon': 151.1039062, 'tags': {'amenity': 'clinic', 'healthcare': 'clinic', 'healthcare:speciality': 'general', 'name': 'Campsie Family Medical Centre'}}"
"{'type': 'node', 'id': 3769818676, 'lat': -33.8410216, 'lon': 151.0369928, 'tags': {'healthcare': 'physiotherapist', 'name': 'Peak Health Physiotherapy'}}"
"{'type': 'node', 'id': 3894049953, 'lat': -34.452267, 'lon': 150.4429971, 'tags': {'addr:housenumber': '58', 'addr:street': 'Bowral Road', 'amenity': 'doctors', 'healthcare': 'doctor', 'name': 'Mittagong HealthCare Centre'}}"
"{'type': 'node', 'id': 3894051968, 'lat': -34.4506623, 'lon': 150.447822, 'tags': {'amenity': 'dentist', 'healthcare': 'dentist', 'name': 'CBD Dental', 'note': 'Formerly Denture Clinic'}}"
"{'type': 'node', 'id': 3912408810, 'lat': -33.9854384, 'lon': 150.8916865, 'tags': {'healthcare': 'vaccination_centre', 'healthcare:speciality': 'covid19', 'name': 'South Western Sydney Vaccination Centre', 'operator': 'NSW Health', 'website': 'https://nswhvam.health.nsw.gov.au/vam?vaccine_center=3076456P'}}"
"{'type': 'node', 'id': 3933536542, 'lat': -33.7636378, 'lon': 150.7085974, 'tags': {'amenity': 'doctors', 'healthcare': 'doctor', 'name': 'The Medical Clinic'}}"
"{'type': 'node', 'id': 3949642164, 'lat': -33.8743195, 'lon': 151.2092031, 'tags': {'amenity': 'pharmacy', 'brand': 'Priceline Pharmacy', 'brand:wikidata': 'Q7242652', 'brand:wikipedia': 'en:Priceline (Australia)', 'healthcare': 'pharmacy', 'name': 'Priceline Pharmacy', 'shop': 'chemist'}}"
"{'type': 'node', 'id': 3960768730, 'lat': -33.9378217, 'lon': 151.165551, 'tags': {'amenity': 'pharmacy', 'brand': 'Guardian', 'brand:wikidata': 'Q63367814', 'healthcare': 'pharmacy', 'name': 'Guardian'}}"
"{'type': 'node', 'id': 3977545469, 'lat': -33.8829488, 'lon': 151.1939376, 'tags': {'amenity': 'pharmacy', 'brand': 'Priceline Pharmacy', 'brand:wikidata': 'Q7242652', 'brand:wikipedia': 'en:Priceline (Australia)', 'dispensing': 'yes', 'healthcare': 'pharmacy', 'level': '3', 'name': 'Priceline Pharmacy', 'website': 'https://www.priceline.com.au/'}}"
"{'type': 'node', 'id': 3981216562, 'lat': -33.8766386, 'lon': 151.2064216, 'tags': {'amenity': 'pharmacy', 'brand': 'Priceline Pharmacy', 'brand:wikidata': 'Q7242652', 'brand:wikipedia': 'en:Priceline (Australia)', 'healthcare': 'pharmacy', 'level': '-1', 'name': 'Priceline Pharmacy', 'opening_hours': 'Mo-Fr 08:00-21:00; Sa 08:00-20:00; Su 10:00-21:00'}}"
"{'type': 'node', 'id': 3996822757, 'lat': -33.8721597, 'lon': 151.2078869, 'tags': {'amenity': 'dentist', 'healthcare': 'dentist', 'level': '1', 'name': 'Pacific Smiles'}}"
"{'type': 'node', 'id': 4036221995, 'lat': -33.8633436, 'lon': 151.2038438, 'tags': {'amenity': 'pharmacy', 'healthcare': 'pharmacy', 'name': 'Kent St Pharmacy', 'shop': 'chemist'}}"
"{'type': 'node', 'id': 4047441510, 'lat': -33.9170526, 'lon': 151.2409662, 'tags': {'amenity': 'dentist', 'healthcare': 'dentist', 'name': 'Randwick Dental Clinic'}}"
"{'type': 'node', 'id': 4047441797, 'lat': -33.9169469, 'lon': 151.2409953, 'tags': {'amenity': 'pharmacy', 'brand': 'Chemist Warehouse', 'brand:wikidata': 'Q48782120', 'brand:wikipedia': 'en:Chemist Warehouse', 'healthcare': 'pharmacy', 'name': 'Chemist Warehouse'}}"
"{'type': 'node', 'id': 4057788890, 'lat': -33.8735424, 'lon': 151.204308, 'tags': {'amenity': 'dentist', 'check_date:opening_hours': '2024-06-27', 'healthcare': 'dentist', 'name': 'Sussex Dental Care', 'opening_hours': 'Mo-Fr 09:00-18:00', 'wheelchair': 'no'}}"
"{'type': 'node', 'id': 4103896050, 'lat': -33.8782508, 'lon': 151.2150121, 'tags': {'addr:city': 'Darlinghurst', 'addr:housenumber': '30', 'addr:postcode': '2010', 'addr:street': 'Burton Street', 'amenity': 'dentist', 'healthcare': 'dentist', 'name': 'Darlinghurst Dental', 'phone': '+61 2 9331 1766', 'website': 'https://darlinghurstdental.com.au/'}}"
"{'type': 'node', 'id': 4147990022, 'lat': -33.8475577, 'lon': 151.0729152, 'tags': {'addr:housenumber': '5', 'addr:postcode': '2127', 'addr:state': 'NSW', 'addr:street': 'Australia Avenue', 'addr:suburb': 'Sydney Olympic Park', 'addr:unit': '9', 'amenity': 'pharmacy', 'drive_through': 'no', 'healthcare': 'pharmacy', 'name': 'Pikes Pharmacy', 'opening_hours': 'Mo-Fr 08:30-19:30', 'phone': '+61 2 9746 2072', 'wheelchair': 'yes'}}"
"{'type': 'node', 'id': 4176043574, 'lat': -34.0284205, 'lon': 150.733637, 'tags': {'amenity': 'pharmacy', 'healthcare': 'pharmacy', 'wheelchair': 'yes'}}"
"{'type': 'node', 'id': 4208167189, 'lat': -33.8939418, 'lon': 151.1639605, 'tags': {'amenity': 'pharmacy', 'healthcare': 'pharmacy', 'name': 'Stanmore Pharmacy', 'opening_hours': 'Mo-Fr 08:30-18:30; Sa 09:00-13:00; Su off'}}"
"{'type': 'node', 'id': 4225187047, 'lat': -33.8923919, 'lon': 151.2457277, 'tags': {'amenity': 'hospital', 'emergency': 'no', 'healthcare': 'hospital', 'name': 'Bondi Junction Private Hospital', 'operator:type': 'private'}}"
"{'type': 'node', 'id': 4225187051, 'lat': -33.98221, 'lon': 150.960896, 'tags': {'amenity': 'hospital', 'emergency': 'yes', 'healthcare': 'hospital', 'name': 'Holsworthy Health Centre', 'operator': 'Australian Army', 'operator:type': 'government', 'phone': '+61 2 8782 1340', 'website': 'https://www.defence.gov.au/adf-members-families/health-well-being/garrison/health-centres/central-nsw#holsworthy'}}"
"{'type': 'node', 'id': 4225187052, 'lat': -33.835206, 'lon': 151.150132, 'tags': {'amenity': 'hospital', 'healthcare': 'hospital', 'name': 'Hunters Hill Private Hospital', 'source': 'NSW LPI Base Map', 'source:date': '2016-06'}}"
"{'type': 'node', 'id': 4225187059, 'lat': -33.8743612, 'lon': 151.2261153, 'tags': {'alt_name': ""Saint Luke's Care Private Hospital"", 'amenity': 'hospital', 'emergency': 'no', 'healthcare': 'hospital', 'name': ""Saint Luke's Private Hospital"", 'operator:type': 'private', 'website': 'https://www.slc.org.au/hospital-clinic/hospital/'}}"
"{'type': 'node', 'id': 4225187062, 'lat': -33.832533, 'lon': 151.0977, 'tags': {'amenity': 'hospital', 'healthcare': 'hospital', 'name': 'Thomas Walker Hospital', 'website': 'https://www.healthdirect.gov.au/australian-health-services/20148615/thomas-walker/services/concord-west-2138-hospital', 'wikidata': 'Q55642367'}}"
"{'type': 'node', 'id': 4228128894, 'lat': -33.8836117, 'lon': 150.6934948, 'tags': {'amenity': 'doctors', 'healthcare': 'doctor', 'name': 'The Luddenham Medical Centre'}}"
"{'type': 'node', 'id': 4228128895, 'lat': -33.8836572, 'lon': 150.6935427, 'tags': {'amenity': 'pharmacy', 'healthcare': 'pharmacy', 'name': 'Luddenham Pharmacy'}}"
"{'type': 'node', 'id': 4242650692, 'lat': -33.8614771, 'lon': 151.211027, 'tags': {'amenity': 'pharmacy', 'healthcare': 'pharmacy', 'name': 'Quay Pharmacy', 'opening_hours': 'Mo-Fr 07:30-20:30; Sa,Su 08:00-20:30', 'wheelchair': 'limited'}}"
"{'type': 'node', 'id': 4258169494, 'lat': -33.8760368, 'lon': 151.2125138, 'tags': {'addr:housenumber': 'Level 3, 26', 'addr:postcode': '2010', 'addr:state': 'NSW', 'addr:street': 'College Street', 'amenity': 'doctors', 'email': 'info@holdsworthhouse.com.au', 'healthcare': 'doctor', 'name': 'Holdsworth House', 'opening_hours': 'Mo-Su 08:00-19:00', 'phone': '+61 2 9331 7228', 'website': 'https://www.holdsworthhouse.com.au/'}}"
"{'type': 'node', 'id': 4281935342, 'lat': -33.7263442, 'lon': 150.9046706, 'tags': {'addr:city': 'quakers hill', 'addr:housenumber': '206', 'addr:postcode': '2763', 'addr:street': 'Farnham Road', 'addr:unit': '5', 'amenity': 'clinic', 'healthcare': 'clinic', 'healthcare:speciality': 'ultrasound;xray', 'name': 'Quakers Hill X Ray & Ultrasound', 'opening_hours': 'Mo-Fr 09:30-14:00,16:00-18:00; Sa 09:30-12:30; Su off', 'operator': 'Quakers Hill X Ray & Ultrasound', 'phone': '+61 2 9837 5100', 'website': 'https://quakershillxrayultrasound.com/'}}"
"{'type': 'node', 'id': 4312124816, 'lat': -33.8316863, 'lon': 151.0737206, 'tags': {'addr:housenumber': '3', 'addr:postcode': '2127', 'addr:state': 'NSW', 'addr:street': 'The Piazza', 'addr:suburb': 'Wentworth Point', 'amenity': 'doctors', 'healthcare': 'doctor', 'healthcare:speciality': 'general', 'name': 'Waterfront Medical Centre'}}"
"{'type': 'node', 'id': 4337898684, 'lat': -33.9360581, 'lon': 150.8436815, 'tags': {'amenity': 'pharmacy', 'healthcare': 'pharmacy', 'name': 'Allcare Pharmacy'}}"
"{'type': 'node', 'id': 4337898686, 'lat': -33.9361043, 'lon': 150.8439505, 'tags': {'amenity': 'doctors', 'healthcare': 'doctor', 'name': 'Carnes Hill X-ray and Physio'}}"
"{'type': 'node', 'id': 4353574191, 'lat': -33.8394763, 'lon': 151.2086187, 'tags': {'amenity': 'pharmacy', 'healthcare': 'pharmacy', 'name': 'North Sydney Discount Drug Store', 'operator': 'Discount Drug Stores'}}"
"{'type': 'node', 'id': 4417478123, 'lat': -33.9593133, 'lon': 150.8830785, 'tags': {'amenity': 'pharmacy', 'brand': 'Chemist Warehouse', 'brand:wikidata': 'Q48782120', 'brand:wikipedia': 'en:Chemist Warehouse', 'dispensing': 'yes', 'healthcare': 'pharmacy', 'name': 'Chemist Warehouse', 'website': 'https://www.chemistwarehouse.com.au/'}}"
"{'type': 'node', 'id': 4433813192, 'lat': -33.7951843, 'lon': 151.1873732, 'tags': {'amenity': 'clinic', 'healthcare': 'clinic', 'name': 'Chatswood Medical & Dental Centre', 'name:en': 'Chatswood Medical & Dental Centre'}}"
"{'type': 'node', 'id': 4438530889, 'lat': -33.8744111, 'lon': 151.2230818, 'tags': {'addr:housenumber': '66', 'addr:street': 'Darlinghurst Road', 'amenity': 'social_facility', 'email': 'ask@uniting.org', 'fixme': 'Not sure how best to tag thissocial facility? Clinic?', 'healthcare': 'yes', 'name': 'Uniting Medically Supervised Injecting Centre', 'operator': 'Uniting', 'operator:type': 'religious', 'phone': '+61 2 9360 1191', 'social_facility:for': 'drug_addicted', 'website': 'https://www.uniting.org/community-impact/uniting-medically-supervised-injecting-centre--msic', 'wikidata': 'Q67357910'}}"
"{'type': 'node', 'id': 4448583531, 'lat': -33.8696744, 'lon': 151.1966975, 'tags': {'amenity': 'pharmacy', 'healthcare': 'pharmacy', 'name': 'Pyrmont Pharmacy'}}"
"{'type': 'node', 'id': 4474553705, 'lat': -33.8336339, 'lon': 151.1273559, 'tags': {'amenity': 'clinic', 'name': 'Chiro & SportsMed.'}}"
"{'type': 'node', 'id': 4546060190, 'lat': -33.9228024, 'lon': 150.9266908, 'tags': {'amenity': 'clinic', 'healthcare': 'clinic', 'name': 'Eye Surgery', 'name:en': 'Eye Surgery'}}"
"{'type': 'node', 'id': 4546122490, 'lat': -33.9236742, 'lon': 150.9212831, 'tags': {'amenity': 'dentist', 'healthcare': 'dentist', 'name': 'MY Liverpool Denture Centre'}}"
"{'type': 'node', 'id': 4546297595, 'lat': -33.9164174, 'lon': 150.9251178, 'tags': {'healthcare': 'blood_donation', 'name': 'Lifeblood Donor Centre', 'name:en': 'Lifeblood Donor Centre'}}"
"{'type': 'node', 'id': 4546305893, 'lat': -33.9208637, 'lon': 150.9241975, 'tags': {'amenity': 'doctors', 'healthcare': 'doctor', 'name': 'Medical Center', 'name:en': 'Medical Center'}}"
"{'type': 'node', 'id': 4546306395, 'lat': -33.9212516, 'lon': 150.9241218, 'tags': {'amenity': 'dentist', 'healthcare': 'dentist', 'name': 'Perfect', 'name:en': 'Perfect'}}"
"{'type': 'node', 'id': 4547796919, 'lat': -33.8828583, 'lon': 150.9999159, 'tags': {'amenity': 'dentist', 'healthcare': 'dentist', 'name': 'Dental Centre', 'name:en': 'Dental Centre'}}"
"{'type': 'node', 'id': 4547808294, 'lat': -33.9183535, 'lon': 150.923194, 'tags': {'amenity': 'dentist', 'healthcare': 'dentist', 'name': 'No Gaps', 'name:en': 'No Gaps'}}"
"{'type': 'node', 'id': 4547844390, 'lat': -33.8830952, 'lon': 151.0016246, 'tags': {'amenity': 'pharmacy', 'name': 'Kennelly', 'name:en': 'Kennelly'}}"
"{'type': 'node', 'id': 4547853391, 'lat': -33.8829058, 'lon': 151.0002914, 'tags': {'amenity': 'pharmacy', 'healthcare': 'pharmacy', 'name': 'Gleeson Chem World', 'name:en': 'Gleeson Chem World'}}"
"{'type': 'node', 'id': 4547858590, 'lat': -33.8831045, 'lon': 151.001693, 'tags': {'amenity': 'doctors', 'healthcare': 'doctor', 'name': 'The Lexcel Medical Centre'}}"
"{'type': 'node', 'id': 4547862689, 'lat': -33.8831748, 'lon': 151.0023167, 'tags': {'amenity': 'pharmacy', 'name': ""Minett's Chemist"", 'name:en': ""Minett's Chemist""}}"
"{'type': 'node', 'id': 4548466992, 'lat': -33.9368399, 'lon': 151.1689662, 'tags': {'amenity': 'pharmacy', 'brand': 'Amcal', 'brand:wikidata': 'Q63367373', 'brand:wikipedia': 'en:Amcal', 'check_date': '2022-07-26', 'dispensing': 'yes', 'healthcare': 'pharmacy', 'level': '2', 'name': 'Amcal', 'wheelchair': 'yes'}}"
"{'type': 'node', 'id': 4571592289, 'lat': -33.8645033, 'lon': 151.2072728, 'tags': {'addr:housenumber': 'Shop 1, 261', 'addr:postcode': '2000', 'addr:street': 'George Street', 'amenity': 'pharmacy', 'healthcare': 'pharmacy', 'name': 'Health Line Pharmacy', 'opening_hours': 'Mo-Fr 07:30-18:50; Sa 09:00-13:00'}}"
"{'type': 'node', 'id': 4691628547, 'lat': -33.9105486, 'lon': 151.1046589, 'tags': {'amenity': 'dentist', 'healthcare': 'dentist', 'name': 'Smiles on South'}}"
"{'type': 'node', 'id': 4719685689, 'lat': -33.9152052, 'lon': 151.0364231, 'tags': {'addr:housenumber': '66-72', 'addr:street': 'Rickard Road', 'amenity': 'clinic', 'name': 'PsychCentral'}}"
"{'type': 'node', 'id': 4731336922, 'lat': -33.7778233, 'lon': 151.0521224, 'tags': {'addr:housenumber': '811', 'addr:postcode': '2118', 'addr:street': 'Pennant Hills Road', 'amenity': 'pharmacy', 'name': 'Cincotta Discount Chemist', 'opening_hours': 'Mo-Fr 09:00-20:00; Sa 09:00-17:00; Su 09:00-16:00', 'wheelchair': 'yes'}}"
"{'type': 'node', 'id': 4731387906, 'lat': -33.8927571, 'lon': 151.249243, 'tags': {'amenity': 'pharmacy', 'healthcare': 'pharmacy', 'name': 'Pharmacy Online'}}"
"{'type': 'node', 'id': 4731396883, 'lat': -33.7302958, 'lon': 150.9711806, 'tags': {'healthcare': 'centre', 'name': 'The Hills Medical & Dental Centre'}}"
"{'type': 'node', 'id': 4735970621, 'lat': -33.8753243, 'lon': 151.222237, 'tags': {'amenity': 'pharmacy', 'brand': 'Amcal', 'brand:wikidata': 'Q63367373', 'check_date': '2024-10-25', 'healthcare': 'pharmacy', 'name': 'Amcal'}}"
"{'type': 'node', 'id': 4735972922, 'lat': -33.87316, 'lon': 151.2250906, 'tags': {'amenity': 'pharmacy', 'healthcare': 'pharmacy', 'name': 'Blakes Pharmacy', 'name:en': 'Blakes Pharmacy', 'opening_hours': 'Mo-Fr 08:30-23:00; Sa-Su 09:00-21:00', 'website': 'https://www.blakespharmacy.com.au/'}}"
"{'type': 'node', 'id': 4759723748, 'lat': -33.8047932, 'lon': 151.0013338, 'tags': {'addr:housenumber': '2A', 'addr:postcode': '2150', 'addr:street': 'Fennell Street', 'amenity': 'clinic', 'name': 'PEIRS - Prevention, Early Intervention & Recovery Service', 'phone': '+61 2 9840 3549'}}"
"{'type': 'node', 'id': 4759741230, 'lat': -33.8052271, 'lon': 151.0014003, 'tags': {'addr:housenumber': '1-5', 'addr:postcode': '2150', 'addr:street': 'Fennell Street', 'amenity': 'clinic', 'name': 'Northcott Disability Services'}}"
"{'type': 'node', 'id': 4784427569, 'lat': -33.9989663, 'lon': 150.8650024, 'tags': {'amenity': 'pharmacy', 'healthcare': 'pharmacy'}}"
"{'type': 'node', 'id': 4788724035, 'lat': -33.8704508, 'lon': 151.2068121, 'tags': {'amenity': 'pharmacy', 'brand': 'Priceline Pharmacy', 'brand:wikidata': 'Q7242652', 'brand:wikipedia': 'en:Priceline (Australia)', 'check_date': '2022-07-17', 'healthcare': 'pharmacy', 'level': '0', 'name': 'Priceline Pharmacy'}}"
"{'type': 'node', 'id': 4789534887, 'lat': -33.7134057, 'lon': 150.9719186, 'tags': {'amenity': 'doctors', 'healthcare': 'doctor', 'name': 'Health Centre Point'}}"
"{'type': 'node', 'id': 4789534890, 'lat': -33.7132034, 'lon': 150.9717014, 'tags': {'amenity': 'doctors', 'healthcare': 'doctor', 'name': 'Kellyville Village Medical Centre'}}"
"{'type': 'node', 'id': 4865595821, 'lat': -33.8655917, 'lon': 151.2046112, 'tags': {'amenity': 'pharmacy', 'brand': 'Priceline Pharmacy', 'brand:wikidata': 'Q7242652', 'brand:wikipedia': 'en:Priceline (Australia)', 'healthcare': 'pharmacy', 'name': 'Priceline Pharmacy'}}"
"{'type': 'node', 'id': 4865595822, 'lat': -33.8670086, 'lon': 151.20866, 'tags': {'amenity': 'pharmacy', 'brand': 'Priceline Pharmacy', 'brand:wikidata': 'Q7242652', 'check_date': '2024-10-03', 'healthcare': 'pharmacy', 'name': 'Priceline Pharmacy'}}"
"{'type': 'node', 'id': 4865599422, 'lat': -33.8672437, 'lon': 151.211029, 'tags': {'amenity': 'pharmacy', 'brand': 'Priceline Pharmacy', 'brand:wikidata': 'Q7242652', 'brand:wikipedia': 'en:Priceline (Australia)', 'healthcare': 'pharmacy', 'name': 'Priceline Pharmacy'}}"
"{'type': 'node', 'id': 4927535469, 'lat': -33.8593012, 'lon': 151.2784243, 'tags': {'amenity': 'pharmacy', 'healthcare': 'pharmacy', 'name': 'Vaucluse Pharmacy'}}"
"{'type': 'node', 'id': 4928567297, 'lat': -33.8769834, 'lon': 151.2448094, 'tags': {'addr:housenumber': '422', 'addr:postcode': '2028', 'addr:street': 'New South Head Road', 'addr:suburb': 'Double Bay', 'amenity': 'doctors', 'check_date': '2023-06-04', 'healthcare': 'doctor', 'name': 'Double Bay Doctors', 'phone': '+61 2 9328 3100', 'website': 'https://www.doublebaydoctors.com/'}}"
"{'type': 'node', 'id': 4928568027, 'lat': -33.8774667, 'lon': 151.2443466, 'tags': {'addr:housenumber': '463', 'addr:postcode': '2028', 'addr:street': 'New South Head Road', 'addr:suburb': 'Double Bay', 'amenity': 'pharmacy', 'brand': 'Chemist Warehouse', 'brand:wikidata': 'Q48782120', 'check_date': '2023-06-04', 'healthcare': 'pharmacy', 'level': '0', 'name': 'Chemist Warehouse'}}"
"{'type': 'node', 'id': 4934130252, 'lat': -33.8922361, 'lon': 151.2501724, 'tags': {'amenity': 'pharmacy', 'brand': 'Chemist Warehouse', 'brand:wikidata': 'Q48782120', 'brand:wikipedia': 'en:Chemist Warehouse', 'healthcare': 'pharmacy', 'name': 'Chemist Warehouse'}}"
"{'type': 'node', 'id': 4936516721, 'lat': -33.8842458, 'lon': 151.1946195, 'tags': {'amenity': 'doctors', 'healthcare': 'doctor', 'name': 'Broadway Sydney Medical Centre'}}"
"{'type': 'node', 'id': 4943333511, 'lat': -33.7941822, 'lon': 151.1886237, 'tags': {'addr:city': 'Chatswood', 'addr:country': 'AU', 'addr:housenumber': '2A', 'addr:postcode': '2067', 'addr:state': 'NSW', 'addr:street': 'Blakesley Street', 'amenity': 'dentist', 'contact:email': 'info@chatswooddentalcentre.com.au', 'contact:phone': '+61 2 9412 3805', 'contact:website': 'https://chatswooddentalcentresydney.com.au/', 'healthcare': 'dentist', 'name': 'Chatswood Dental Centre', 'opening_hours': 'Mo-Th 08:00-17:30; Fr 09:00-16:00; Sa 08:00-17:00; Su closed', 'payment:american_express': 'yes', 'payment:cash': 'yes', 'payment:mastercard': 'yes', 'payment:visa': 'yes', 'wheelchair': 'yes'}}"
"{'type': 'node', 'id': 4944005316, 'lat': -33.8711548, 'lon': 151.2677308, 'tags': {'amenity': 'doctors', 'healthcare': 'doctor', 'name': 'Rise Bay Medical Clinic'}}"
"{'type': 'node', 'id': 4944005318, 'lat': -33.8711224, 'lon': 151.2678022, 'tags': {'addr:housenumber': '733', 'addr:street': 'Nee South Head Road', 'amenity': 'dentist', 'healthcare': 'dentist', 'name': 'MDentistry', 'phone': '+61 2 9371 6605', 'website': 'https://www.mdentistry.com.au/'}}"
"{'type': 'node', 'id': 4945470762, 'lat': -33.8701685, 'lon': 151.2693305, 'tags': {'addr:street': 'New South Head Road', 'amenity': 'pharmacy', 'name': 'Rose Bay Pharmacy'}}"
"{'type': 'node', 'id': 4946433595, 'lat': -34.1910299, 'lon': 150.9810035, 'tags': {'amenity': 'doctors', 'healthcare': 'doctor', 'name': ""Doctor's Surgery""}}"
"{'type': 'node', 'id': 4951825294, 'lat': -33.8790168, 'lon': 151.2361001, 'tags': {'amenity': 'dentist', 'healthcare': 'dentist', 'name': 'Todays Dental'}}"
"{'type': 'node', 'id': 4952397553, 'lat': -33.7331021, 'lon': 151.0070094, 'tags': {'addr:city': 'Castle Hill', 'addr:housenumber': '1', 'addr:postcode': '2154', 'addr:street': 'Terminus Street', 'addr:unit': '3', 'amenity': 'clinic', 'email': 'clinic@hillsspinal.com', 'fax': '+61 2 9680 7245', 'name': 'Hills Spinal Health', 'phone': '+61 2 9680 7533', 'website': 'https://www.hillsspinal.com/'}}"
"{'type': 'node', 'id': 4954082732, 'lat': -33.7128792, 'lon': 150.9729431, 'tags': {'amenity': 'pharmacy', 'drive_through': 'no', 'healthcare': 'pharmacy', 'name': 'National Pharmacies'}}"
"{'type': 'node', 'id': 4957993321, 'lat': -33.6601193, 'lon': 151.309525, 'tags': {'amenity': 'pharmacy', 'healthcare': 'pharmacy', 'name': 'Your community pharmacy', 'name:en': 'Your community pharmacy'}}"
"{'type': 'node', 'id': 4983941351, 'lat': -33.9025616, 'lon': 151.2546361, 'tags': {'amenity': 'pharmacy'}}"
"{'type': 'node', 'id': 4983941354, 'lat': -33.877485, 'lon': 151.243184, 'tags': {'amenity': 'doctors', 'healthcare': 'doctor', 'level': '2', 'name': 'Dr. Tobias Pincock'}}"
"{'type': 'node', 'id': 4983942248, 'lat': -33.8774977, 'lon': 151.2431564, 'tags': {'amenity': 'doctors', 'healthcare': 'doctor', 'level': '1', 'name': 'Dr. Tavakoli'}}"
"{'type': 'node', 'id': 4986166741, 'lat': -33.9122975, 'lon': 151.1032777, 'tags': {'addr:housenumber': '10', 'addr:street': 'Amy Street', 'addr:suburb': 'Campsie', 'amenity': 'clinic', 'healthcare': 'clinic', 'healthcare:speciality': 'general', 'name': 'Associated Medical Centre'}}"
"{'type': 'node', 'id': 5003536389, 'lat': -33.7303446, 'lon': 151.1601843, 'tags': {'amenity': 'pharmacy', 'healthcare': 'pharmacy', 'name': 'St Ives pharmacy'}}"
"{'type': 'node', 'id': 5021701802, 'lat': -33.7260786, 'lon': 150.9766118, 'tags': {'amenity': 'pharmacy', 'healthcare': 'pharmacy', 'name': 'Healthshed Discount Pharmacy'}}"
"{'type': 'node', 'id': 5035807506, 'lat': -34.0602896, 'lon': 151.1546424, 'tags': {'amenity': 'pharmacy', 'brand': 'Blooms The Chemist', 'brand:wikidata': 'Q63367543', 'healthcare': 'pharmacy', 'name': 'Blooms The Chemist', 'shop': 'chemist'}}"
"{'type': 'node', 'id': 5035807507, 'lat': -34.0603331, 'lon': 151.1546039, 'tags': {'amenity': 'clinic', 'healthcare': 'clinic', 'name': 'Pinnacle Dental Group'}}"
"{'type': 'node', 'id': 5074693178, 'lat': -33.9451122, 'lon': 151.1400814, 'tags': {'addr:housenumber': '25', 'addr:street': 'Railway Street', 'amenity': 'pharmacy', 'name': 'Banksia Pharmacy'}}"
"{'type': 'node', 'id': 5099943838, 'lat': -33.85748, 'lon': 151.181352, 'tags': {'amenity': 'pharmacy', 'dispensing': 'yes', 'drive_through': 'no', 'name': 'BALMAIN COMMUNITY PHARMACY'}}"
"{'type': 'node', 'id': 5099943839, 'lat': -33.857454, 'lon': 151.180469, 'tags': {'amenity': 'pharmacy', 'dispensing': 'yes', 'drive_through': 'no'}}"
"{'type': 'node', 'id': 5099993628, 'lat': -33.857875, 'lon': 151.180705, 'tags': {'addr:housenumber': '2', 'addr:street': 'Beattie Street', 'amenity': 'doctors', 'healthcare': 'doctor'}}"
"{'type': 'node', 'id': 5111961121, 'lat': -33.8741693, 'lon': 151.2081942, 'tags': {'amenity': 'doctors', 'bulkbilling': 'yes', 'healthcare': 'doctor'}}"
"{'type': 'node', 'id': 5111961324, 'lat': -33.8741463, 'lon': 151.2081949, 'tags': {'amenity': 'pharmacy', 'healthcare': 'pharmacy'}}"
"{'type': 'node', 'id': 5114250540, 'lat': -33.8580122, 'lon': 151.1799896, 'tags': {'amenity': 'dentist', 'healthcare': 'dentist'}}"
"{'type': 'node', 'id': 5114250542, 'lat': -33.8580006, 'lon': 151.1800614, 'tags': {'healthcare': 'physiotherapist'}}"
"{'type': 'node', 'id': 5172818449, 'lat': -33.7939502, 'lon': 151.0567388, 'tags': {'addr:city': 'Dundas Valley', 'addr:housenumber': '2', 'addr:postcode': '2117', 'addr:state': 'NSW', 'addr:street': 'Alexander Street', 'amenity': 'dentist', 'fax': '+61 2 9871 8290', 'healthcare': 'dentist', 'name': 'Dundas Dental', 'opening_hours': 'Mo-Fr 08:00-17:30; Sa 08:00-13:00', 'phone': '+61 2 9871 1110', 'website': 'http://www.dundasdental.com.au/index.html'}}"
"{'type': 'node', 'id': 5174209152, 'lat': -33.6857913, 'lon': 150.9520572, 'tags': {'amenity': 'pharmacy', 'healthcare': 'pharmacy', 'name': 'Choice Pharmacy', 'wheelchair': 'yes'}}"
"{'type': 'node', 'id': 5174209163, 'lat': -33.6856402, 'lon': 150.9518054, 'tags': {'amenity': 'clinic', 'healthcare': 'clinic', 'name': 'North Kellyville Medical Centre'}}"
"{'type': 'node', 'id': 5174209164, 'lat': -33.6856574, 'lon': 150.9518962, 'tags': {'healthcare': 'alternative', 'healthcare:speciality': 'chiropractic', 'name': 'Essential health Chiropractic', 'wheelchair': 'yes'}}"
"{'type': 'node', 'id': 5174209165, 'lat': -33.6858841, 'lon': 150.9517146, 'tags': {'healthcare': 'alternative', 'name': 'Yan Acupuncture & Massage'}}"
"{'type': 'node', 'id': 5207828482, 'lat': -33.9006381, 'lon': 150.8597925, 'tags': {'addr:city': 'Sydney', 'addr:housenumber': '263', 'addr:postcode': '2168', 'addr:state': 'NSW', 'addr:street': 'Green Valley Road, Green Valley', 'amenity': 'dentist', 'healthcare': 'dentist', 'name': 'Green Valley Dental', 'opening_hours': 'Mo-Fr 09:00-18:30, Sa 09:00-15:00', 'operator': 'Tofeh Hanna', 'payment:cards': 'yes', 'phone': '+61 2 9825 0092', 'website': 'https://www.greenvalleydental.com.au/'}}"
"{'type': 'node', 'id': 5220722173, 'lat': -33.8666319, 'lon': 151.2108379, 'tags': {'addr:housenumber': '20', 'addr:street': 'Elizabeth Street', 'description': 'Blood Bank until January 2018', 'healthcare': 'blood_bank', 'name': 'Australian Red Cross Blood Service', 'website': 'https://www.donateblood.com.au/blood-donor-centre/elizabeth-street-donor-centre-sydney-0'}}"
"{'type': 'node', 'id': 5232007277, 'lat': -33.8673592, 'lon': 151.1924467, 'tags': {'amenity': 'doctors', 'healthcare': 'doctor', 'name': 'Star City Medical Centre'}}"
"{'type': 'node', 'id': 5237392123, 'lat': -33.7005003, 'lon': 150.5627578, 'tags': {'amenity': 'clinic', 'healthcare': 'clinic', 'name': 'Springwood Community Healthcare'}}"
"{'type': 'node', 'id': 5237464929, 'lat': -33.7142399, 'lon': 150.3096098, 'tags': {'amenity': 'dentist', 'healthcare': 'dentist', 'name': 'Katoomba Dental'}}"
"{'type': 'node', 'id': 5237774303, 'lat': -33.880422, 'lon': 151.2044516, 'tags': {'addr:housenumber': '75-77', 'addr:street': 'Ultimo Road', 'amenity': 'pharmacy', 'healthcare': 'pharmacy', 'name': 'Chinese Ginsengs & Herbs Co.', 'name:vi': 'Trung Hoa Sm Nhung Dc Hng'}}"
"{'type': 'node', 'id': 5237774310, 'lat': -33.722098, 'lon': 150.4530353, 'tags': {'amenity': 'pharmacy', 'healthcare': 'pharmacy', 'name': 'Hazelbrook Pharmacy'}}"
"{'type': 'node', 'id': 5238963380, 'lat': -33.8940637, 'lon': 151.266078, 'tags': {'amenity': 'clinic', 'healthcare': 'clinic', 'name': 'Bondi Healthcare'}}"
"{'type': 'node', 'id': 5238963387, 'lat': -33.8929097, 'lon': 151.2554535, 'tags': {'amenity': 'clinic', 'check_date': '2024-08-21', 'healthcare': 'clinic', 'name': 'Bondi Road Doctors'}}"
"{'type': 'node', 'id': 5238963391, 'lat': -33.8941049, 'lon': 151.264077, 'tags': {'amenity': 'pharmacy', 'name': 'Carricks Discount Pharmacy'}}"
"{'type': 'node', 'id': 5240187414, 'lat': -33.8805566, 'lon': 151.2052108, 'tags': {'addr:housenumber': '768', 'addr:street': 'George Street', 'amenity': 'clinic', 'healthcare': 'clinic', 'name': 'Leslie Chan Herbalist'}}"
"{'type': 'node', 'id': 5262849505, 'lat': -34.0353653, 'lon': 151.0710614, 'tags': {'amenity': 'doctors', 'description': 'In a heritage-listed building.', 'healthcare': 'doctor', 'healthcare:speciality': 'general', 'name': 'Kirrawee Family Medical Practice', 'website': 'https://www.kirraweefmp.com.au/'}}"
"{'type': 'node', 'id': 5265144609, 'lat': -33.9123959, 'lon': 151.1181354, 'tags': {'amenity': 'pharmacy', 'brand': 'Priceline Pharmacy', 'brand:wikidata': 'Q7242652', 'brand:wikipedia': 'en:Priceline (Australia)', 'healthcare': 'pharmacy', 'name': 'Priceline Pharmacy'}}"
"{'type': 'node', 'id': 5265144614, 'lat': -33.9122711, 'lon': 151.1183204, 'tags': {'amenity': 'doctors', 'healthcare': 'doctor', 'name': 'Canterbury Plaza Medical Centre'}}"
"{'type': 'node', 'id': 5265145034, 'lat': -33.9125351, 'lon': 151.1174859, 'tags': {'amenity': 'doctors', 'healthcare': 'doctor', 'name': 'Dr Mardini'}}"
"{'type': 'node', 'id': 5265361614, 'lat': -34.0363661, 'lon': 151.0703635, 'tags': {'addr:city': 'kirrawee', 'addr:housenumber': '179', 'addr:postcode': '2232', 'addr:state': 'NSW', 'addr:street': 'Oak Road', 'addr:suburb': 'Kirrawee', 'amenity': 'clinic', 'healthcare': 'clinic', 'healthcare:speciality': ""general;geriatrics;mental_health_care;vaccination;women's_health;men's_health;chronic_disease_management;family_medicine;asthma_treatment;weight_loss;pregnancy_care"", 'name': 'Kirrawee Doctors', 'website': 'https://kirraweedoctors.com.au/'}}"
"{'type': 'node', 'id': 5265363067, 'lat': -34.0363727, 'lon': 151.0703944, 'tags': {'addr:housenumber': '179', 'addr:postcode': '2232', 'addr:state': 'NSW', 'addr:street': 'Oak Road', 'addr:suburb': 'Kirrawee', 'amenity': 'clinic', 'brand': '4Cyte', 'healthcare': 'sample_collection', 'healthcare:speciality': 'pathology', 'name': '4Cyte Pathology', 'opening_hours': 'Mo-Fr 07:30-12:30', 'operator': '4Cyte', 'phone': '+61 2 8834 5452', 'website': 'https://www.4cyte.com.au/locations/4cyte-pathology-kirrawee'}}"
"{'type': 'node', 'id': 5266731458, 'lat': -34.032526, 'lon': 151.075274, 'tags': {'healthcare': 'physiotherapist', 'name': 'Aevum', 'website': 'https://www.aevumhealth.com.au/'}}"
"{'type': 'node', 'id': 5267145687, 'lat': -34.030849, 'lon': 151.0569587, 'tags': {'healthcare': 'podiatrist'}}"
"{'type': 'node', 'id': 5272909677, 'lat': -34.0540867, 'lon': 151.153201, 'tags': {'addr:city': 'Cronulla', 'addr:housenumber': '31-33', 'addr:postcode': '2230', 'addr:street': 'Gerrale Street', 'addr:unit': '2', 'amenity': 'doctors', 'fax': '+61 2 9523 0765', 'healthcare': 'doctor', 'healthcare:speciality': 'general', 'name': 'Dr Paul Goh GP', 'phone': '+61 2 9523 0200'}}"
"{'type': 'node', 'id': 5274677872, 'lat': -33.7219799, 'lon': 151.0254598, 'tags': {'alt_name': 'Oakhill Chemist', 'amenity': 'pharmacy', 'name': 'Oakhill Pharmacy', 'source': 'Survey'}}"
"{'type': 'node', 'id': 5278928904, 'lat': -33.7325008, 'lon': 151.0055509, 'tags': {'amenity': 'pharmacy', 'dispensing': 'yes', 'healthcare': 'pharmacy', 'name': 'Family Wise Medical Practices Castle Hill', 'source': 'Survey'}}"
"{'type': 'node', 'id': 5290823103, 'lat': -33.8743493, 'lon': 150.8766724, 'tags': {'amenity': 'doctors', 'healthcare': 'doctor', 'name': 'Dr David W Lam GP'}}"
"{'type': 'node', 'id': 5293460563, 'lat': -33.7310605, 'lon': 150.9693459, 'tags': {'addr:city': 'Baulkham Hills', 'addr:country': 'AU', 'addr:housenumber': '4', 'addr:postcode': '2153', 'addr:state': 'NSW', 'addr:street': 'Columbia Court', 'addr:unit': 'Suite 219', 'amenity': 'dentist', 'healthcare': 'dentist', 'healthcare:speciality': 'dental_oral_maxillo_facial_surgery;endodontics', 'name': 'Australian Dental Specialists', 'opening_hours': 'Mo-Fr 08:30-17:00; Sa,Su off', 'operator': 'Dr Varayini Yoganathan', 'phone': '+61 2 9680 4311', 'website': 'https://www.australiandentalspecialists.com/'}}"
"{'type': 'node', 'id': 5295514702, 'lat': -33.9293352, 'lon': 151.1536598, 'tags': {'amenity': 'pharmacy', 'dispensing': 'yes', 'level': '0', 'name': 'Discover Pharmacy + Compounding', 'opening_hours': 'Mo-Fr 08:30-19:00; Sa 09:00-18:00; Su 09:00-17:00', 'wheelchair': 'yes'}}"
"{'type': 'node', 'id': 5298897291, 'lat': -33.8843849, 'lon': 150.9282929, 'tags': {'amenity': 'dentist', 'healthcare': 'dentist', 'name': 'Always Smiles Dental'}}"
"{'type': 'node', 'id': 5298897292, 'lat': -33.8837531, 'lon': 150.9257882, 'tags': {'amenity': 'pharmacy', 'healthcare': 'pharmacy', 'name': 'Canley Heights Pharmacy'}}"
"{'type': 'node', 'id': 5299038868, 'lat': -34.0344361, 'lon': 151.0712326, 'tags': {'amenity': 'dentist', 'healthcare': 'dentist', 'name': 'All Smilez'}}"
"{'type': 'node', 'id': 5311908709, 'lat': -33.793429, 'lon': 151.1853621, 'tags': {'addr:city': 'Chatswood', 'addr:country': 'AU', 'addr:housenumber': '16-18', 'addr:postcode': '2067', 'addr:state': 'NSW', 'addr:street': 'Malvern Avenue', 'addr:unit': '6', 'amenity': 'dentist', 'healthcare': 'dentist', 'name': 'Chats Dental', 'opening_hours': 'Mo-Fr 09:00-17:00; Sa 09:00-13:00; Su off', 'operator': 'Catherine Yang', 'phone': '+61 2 8065 1080', 'website': 'https://chatsdental.com.au'}}"
"{'type': 'node', 'id': 5323317791, 'lat': -33.8798215, 'lon': 151.1563953, 'tags': {'addr:city': 'Leichhardt', 'addr:housenumber': '210', 'addr:postcode': '2040', 'addr:street': 'Norton Street', 'amenity': 'doctors', 'healthcare': 'doctor', 'healthcare:speciality': 'general', 'name': 'Leichhardt General Practice', 'wheelchair': 'yes'}}"
"{'type': 'node', 'id': 5323317793, 'lat': -33.8822211, 'lon': 151.1575563, 'tags': {'addr:city': 'Leichhardt', 'addr:housenumber': '30-38', 'addr:postcode': '2040', 'addr:street': 'Short Street', 'amenity': 'doctors', 'healthcare': 'doctor', 'healthcare:speciality': 'general;stomatology', 'name': 'Leichhardt Medical + Dental Centre', 'opening_hours': 'Mo-Fr 07:00-20:00; Sa,Su 08:00-20:00', 'operator': 'Primary Health Care Limited', 'wheelchair': 'yes'}}"
"{'type': 'node', 'id': 5334177680, 'lat': -33.9070996, 'lon': 151.0240567, 'tags': {'amenity': 'pharmacy', 'healthcare': 'pharmacy', 'name': 'Chemsave'}}"
"{'type': 'node', 'id': 5335678532, 'lat': -33.7860152, 'lon': 150.9506087, 'tags': {'addr:housenumber': '27-30', 'addr:street': 'Portico Parade', 'addr:unit': '3', 'amenity': 'pharmacy', 'drive_through': 'no', 'healthcare': 'pharmacy', 'name': 'Bridgeview Medical Practice Pharmacy', 'opening_hours': 'Mo-Fr 08:00-20:00, Sa 08:00-15:00', 'operator': 'Pharmacy Nutrition Warehouse'}}"
"{'type': 'node', 'id': 5337688297, 'lat': -33.8909911, 'lon': 151.2450382, 'tags': {'amenity': 'dentist', 'healthcare': 'dentist', 'name': 'Dental Surgery'}}"
"{'type': 'node', 'id': 5337890741, 'lat': -33.8919033, 'lon': 151.2492619, 'tags': {'amenity': 'pharmacy', 'brand': 'Priceline Pharmacy', 'brand:wikidata': 'Q7242652', 'brand:wikipedia': 'en:Priceline (Australia)', 'healthcare': 'pharmacy', 'name': 'Priceline Pharmacy'}}"
"{'type': 'node', 'id': 5338208474, 'lat': -33.8927976, 'lon': 151.2495125, 'tags': {'addr:housenumber': '3A', 'addr:postcode': '2022', 'addr:state': 'NSW', 'addr:street': 'Bronte Road', 'addr:suburb': 'Bondi Junction', 'healthcare': 'clinic', 'healthcare:speciality': 'general;dentist;psychiatry', 'name': 'Bondi Junction Medical and Dental Centre', 'opening_hours': 'Mo-Fr 07:00-22:00, Sa-Su 08:00-18:00', 'opening_hours:covid19': 'Mo-Fr 07:00-18:00, Sa-Su 08:00-15:00', 'operator': 'Healius Medical & Dental Centres', 'phone': '+61 2 8305 7777', 'website': 'https://www.bondijunctionmedical.com.au/'}}"
"{'type': 'node', 'id': 5338209231, 'lat': -33.8920988, 'lon': 151.2475508, 'tags': {'addr:housenumber': '133, 135', 'addr:postcode': '2022', 'addr:state': 'NSW', 'addr:street': 'Oxford Street', 'addr:suburb': 'Bondi Junction', 'addr:unit': '1', 'amenity': 'pharmacy', 'brand': 'Chemist Warehouse', 'brand:wikidata': 'Q48782120', 'brand:wikipedia': 'en:Chemist Warehouse', 'dispensing': 'yes', 'drive_through': 'no', 'healthcare': 'pharmacy', 'name': 'Chemist Warehouse', 'opening_hours': 'Mo-Fr 07:30-22:00; Sa-Su 08:00-19:00', 'phone': '+61 2 9387 3022'}}"
"{'type': 'node', 'id': 5352007352, 'lat': -33.7964299, 'lon': 151.1848878, 'tags': {'healthcare': 'yes', 'name': 'Qscan'}}"
"{'type': 'node', 'id': 5359966702, 'lat': -33.8464631, 'lon': 151.2129249, 'tags': {'amenity': 'pharmacy', 'healthcare': 'pharmacy', 'name': 'Chemmart'}}"
"{'type': 'node', 'id': 5359966706, 'lat': -33.8463996, 'lon': 151.212949, 'tags': {'amenity': 'dentist', 'healthcare': 'dentist', 'name': 'Village Dental'}}"
"{'type': 'node', 'id': 5367303510, 'lat': -33.881286, 'lon': 151.2165016, 'tags': {'amenity': 'pharmacy', 'check_date': '2024-08-02', 'healthcare': 'pharmacy', 'name': 'Serafim Pharmacy'}}"
"{'type': 'node', 'id': 5369921303, 'lat': -33.8725949, 'lon': 151.2188932, 'tags': {'amenity': 'pharmacy', 'healthcare': 'pharmacy', 'name': 'Woolloomooloo Pharmacy', 'opening_hours': 'Mo-Fr 08:30-18:00; Sa 09:00-13:00', 'website': 'https://www.wpharmacy.com.au/'}}"
"{'type': 'node', 'id': 5371862827, 'lat': -34.5480994, 'lon': 150.3742704, 'tags': {'healthcare': 'podiatrist', 'name': 'Highlands Podiatry'}}"
"{'type': 'node', 'id': 5371864183, 'lat': -34.5477145, 'lon': 150.3743457, 'tags': {'amenity': 'dentist', 'healthcare': 'dentist'}}"
"{'type': 'node', 'id': 5377687531, 'lat': -33.8719562, 'lon': 151.2248926, 'tags': {'check_date': '2023-08-31', 'healthcare': 'optometrist', 'name': 'Macleay Optics', 'website': 'https://macleayoptics.com.au/'}}"
"{'type': 'node', 'id': 5385716440, 'lat': -33.9085863, 'lon': 151.102265, 'tags': {'amenity': 'clinic', 'healthcare': 'clinic', 'name': 'Campsie Medical Practice'}}"
"{'type': 'node', 'id': 5404620953, 'lat': -33.9531975, 'lon': 151.1379141, 'tags': {'amenity': 'clinic', 'healthcare': 'clinic', 'name': 'Bay Healthcare - Medical Centre'}}"
"{'type': 'node', 'id': 5404621062, 'lat': -33.952094, 'lon': 151.1381637, 'tags': {'amenity': 'pharmacy', 'healthcare': 'pharmacy', 'name': ""Alderson's Pharmacy""}}"
"{'type': 'node', 'id': 5404621095, 'lat': -33.9510461, 'lon': 151.1387135, 'tags': {'healthcare': 'optometrist', 'name': 'Grbevski Associates'}}"
"{'type': 'node', 'id': 5404682097, 'lat': -33.9524369, 'lon': 151.1375813, 'tags': {'amenity': 'pharmacy', 'healthcare': 'pharmacy', 'name': 'Chemist Outlet'}}"
"{'type': 'node', 'id': 5404682116, 'lat': -33.9519945, 'lon': 151.1378295, 'tags': {'amenity': 'pharmacy', 'healthcare': 'pharmacy', 'name': 'Rockdale Compound Pharmacy'}}"
"{'type': 'node', 'id': 5416281060, 'lat': -33.7947947, 'lon': 150.9344227, 'tags': {'addr:street': 'Claudia Road', 'amenity': 'pharmacy', 'healthcare': 'pharmacy', 'name': 'Xtreme Chemist'}}"
"{'type': 'node', 'id': 5417391070, 'lat': -33.8870452, 'lon': 151.2092418, 'tags': {'addr:housenumber': '135', 'addr:street': 'Devonshire Street', 'healthcare': 'psychotherapist', 'name': ""Sara's Place""}}"
"{'type': 'node', 'id': 5419408815, 'lat': -33.8135591, 'lon': 151.0019494, 'tags': {'addr:city': 'Parramatta', 'addr:housenumber': '156', 'addr:street': 'Marsden Street', 'amenity': 'dentist', 'healthcare': 'dentist', 'name': 'Parramatta Dental Surgery'}}"
"{'type': 'node', 'id': 5419453246, 'lat': -33.8136931, 'lon': 151.0045624, 'tags': {'amenity': 'pharmacy', 'healthcare': 'pharmacy', 'name': 'Shopsmart Wholesale Pharmacy'}}"
"{'type': 'node', 'id': 5421723046, 'lat': -33.818603, 'lon': 151.0036436, 'tags': {'amenity': 'dentist', 'healthcare': 'dentist'}}"
"{'type': 'node', 'id': 5434235523, 'lat': -33.8502308, 'lon': 151.0333173, 'tags': {'amenity': 'clinic', 'healthcare': 'clinic', 'name': 'Family Medical Practice'}}"
"{'type': 'node', 'id': 5434235530, 'lat': -33.8507672, 'lon': 151.0329153, 'tags': {'amenity': 'pharmacy', 'check_date': '2023-08-12', 'healthcare': 'pharmacy', 'name': 'Sansons Pharmacy', 'opening_hours': 'Mo-Fr 08:00-20:00; Sa 09:00-17:00; Su 10:00-16:00', 'phone': '+61 2 9649 7147'}}"
"{'type': 'node', 'id': 5434235550, 'lat': -33.8513485, 'lon': 151.0330501, 'tags': {'amenity': 'clinic', 'healthcare': 'clinic', 'name': 'Dr. Mervat Akladious GP'}}"
