OSM_Data
"{'type': 'node', 'id': 4796264671, 'lat': 30.2504068, 'lon': 115.4271509, 'tags': {'amenity': 'hospital', 'healthcare': 'hospital', 'name': '蕲春县妇幼保健院'}}"
"{'type': 'node', 'id': 4807882988, 'lat': 30.2418759, 'lon': 115.4230973, 'tags': {'amenity': 'hospital', 'healthcare': 'hospital', 'name': '蕲春县人民医院'}}"
"{'type': 'node', 'id': 7165865661, 'lat': 30.4477332, 'lon': 114.8696045, 'tags': {'amenity': 'hospital', 'healthcare': 'hospital', 'name': '黄冈市中心医院', 'name:en': 'Huanggang Central Hospital', 'name:vi': 'Bệnh viện Trung tâm Hoàng Cương', 'wikidata': 'Q88240585'}}"
"{'type': 'node', 'id': 7165865662, 'lat': 30.4492238, 'lon': 114.8713467, 'tags': {'amenity': 'hospital', 'healthcare': 'hospital', 'name': '黄州人民医院', 'name:en': ""Huangzhou People's Hospital""}}"
"{'type': 'node', 'id': 8774650551, 'lat': 30.8350412, 'lon': 114.8027616, 'tags': {'amenity': 'hospital', 'healthcare': 'hospital', 'name': '武汉新洲佳人医院', 'name:en': 'Wuhan Xinzhoujiaren Hospital', 'name:zh': '武汉新洲佳人医院'}}"
"{'type': 'node', 'id': 9868840604, 'lat': 30.8359608, 'lon': 114.793985, 'tags': {'amenity': 'pharmacy', 'dispensing': 'yes', 'healthcare': 'pharmacy', 'name': '康源大药房'}}"
"{'type': 'node', 'id': 9868918633, 'lat': 30.8458487, 'lon': 114.7915284, 'tags': {'amenity': 'hospital', 'healthcare': 'hospital', 'name': '新洲区红十字会医院', 'name:zh': '新洲区邾城街第二社区卫生服务中心'}}"
"{'type': 'node', 'id': 9923710933, 'lat': 30.1996699, 'lon': 115.0150256, 'tags': {'addr:city': '黄石市', 'addr:district': '下陆区', 'addr:housename': '10#', 'addr:housenumber': '101', 'addr:province': '湖北省', 'addr:street': '白马路', 'addr:suburb': '天域名流二期', 'amenity': 'pharmacy', 'brand': '湖北吴都药业连锁有限公司', 'dispensing': 'yes', 'healthcare': 'pharmacy', 'level': '1', 'name': '白马山大药房', 'name:zh-Hans': '白马山大药房', 'note:zh-Hans': '医保定点编码：1076', 'official_name': '湖北吴都药业连锁有限公司黄石白马山大药房'}}"
"{'type': 'node', 'id': 9923743816, 'lat': 30.1955362, 'lon': 115.0088061, 'tags': {'addr:city': '黄石市', 'addr:district': '下陆区', 'addr:housenumber': '37-109', 'addr:province': '湖北省', 'addr:street': '苏州路', 'amenity': 'pharmacy', 'dispensing': 'yes', 'healthcare': 'pharmacy', 'name': '黄石市康源堂大药房', 'name:zh-Hans': '康源堂大药房', 'official_name': '黄石市康源堂大药房'}}"
"{'type': 'node', 'id': 9967946602, 'lat': 30.4003826, 'lon': 114.8778738, 'tags': {'amenity': 'hospital', 'healthcare': 'hospital'}}"
"{'type': 'node', 'id': 9982852551, 'lat': 30.230539, 'lon': 115.0652384, 'tags': {'access': 'permissive', 'healthcare': 'sample_collection', 'level': '1', 'name': '湖北师范大学核酸检测点', 'sample_collection': 'covid19'}}"
"{'type': 'node', 'id': 9993208686, 'lat': 30.2043437, 'lon': 115.0410205, 'tags': {'amenity': 'hospital', 'healthcare': 'midwife', 'name': '黄石锦欣妇产医院'}}"
"{'type': 'node', 'id': 10248770437, 'lat': 30.4532622, 'lon': 114.9237744, 'tags': {'amenity': 'hospital', 'healthcare': 'hospital', 'name': '校医院'}}"
"{'type': 'node', 'id': 10267646108, 'lat': 30.2318298, 'lon': 114.9760625, 'tags': {'amenity': 'clinic', 'name': '刘畈村卫生室'}}"
"{'type': 'node', 'id': 10269221374, 'lat': 30.2052292, 'lon': 114.8962319, 'tags': {'amenity': 'pharmacy', 'dispensing': 'yes', 'name': '吴都药业'}}"
"{'type': 'node', 'id': 10269221387, 'lat': 30.2087873, 'lon': 114.8982784, 'tags': {'amenity': 'pharmacy', 'name': '胜利路新世纪药店'}}"
"{'type': 'node', 'id': 10673505150, 'lat': 30.2258242, 'lon': 115.0619377, 'tags': {'amenity': 'clinic', 'healthcare': 'clinic', 'name': '民康诊所'}}"
"{'type': 'node', 'id': 10673505151, 'lat': 30.2261597, 'lon': 115.0623138, 'tags': {'amenity': 'pharmacy', 'dispensing': 'yes', 'healthcare': 'pharmacy', 'name': '平民百姓药房'}}"
"{'type': 'node', 'id': 10673505152, 'lat': 30.2290153, 'lon': 115.0659147, 'tags': {'amenity': 'hospital', 'healthcare': 'hospital', 'name': '黄石结核病防治院'}}"
"{'type': 'node', 'id': 10827099076, 'lat': 30.2231854, 'lon': 115.0508986, 'tags': {'amenity': 'clinic', 'healthcare': 'clinic', 'name': '沈家营社区卫生服务中心'}}"
"{'type': 'node', 'id': 11613194093, 'lat': 30.1901971, 'lon': 115.0032131, 'tags': {'healthcare': 'community_health_worker', 'name': '杭州西路社区卫生服务中心'}}"
