OSM_Data
"{'type': 'node', 'id': 598558677, 'lat': 26.1837417, 'lon': 56.2477401, 'tags': {'amenity': 'pharmacy', 'healthcare': 'pharmacy', 'name': 'Muscat Pharmacy', 'name:en': 'Muscat Pharmacy'}}"
"{'type': 'node', 'id': 995965703, 'lat': 25.7799372, 'lon': 55.933276, 'tags': {'amenity': 'pharmacy', 'name': 'Al Razi Pharmacy', 'name:en': 'Al Razi Pharmacy'}}"
"{'type': 'node', 'id': 1108918873, 'lat': 25.2389325, 'lon': 55.3025801, 'tags': {'amenity': 'hospital', 'healthcare': 'hospital', 'name': 'تمت ازالته', 'name:ar': 'تمت ازالته'}}"
"{'type': 'node', 'id': 1198273499, 'lat': 25.2703474, 'lon': 55.3145494, 'tags': {'addr:city': 'دبي', 'addr:street': 'شارع مستشفى المكتوم', 'amenity': 'hospital', 'name': 'مستشفى المكتوم', 'name:ar': 'مستشفى المكتوم', 'name:en': 'Al Maktoum Hospital'}}"
"{'type': 'node', 'id': 1267692373, 'lat': 25.2943786, 'lon': 55.3784003, 'tags': {'amenity': 'pharmacy', 'dispensing': 'no', 'healthcare': 'pharmacy', 'name': 'Nahda Sahara Pharmacy', 'name:en': 'Nahda Sahara Pharmacy', 'source': 'Kaart Ground Survey 2017'}}"
"{'type': 'node', 'id': 1267693287, 'lat': 25.2977709, 'lon': 55.382586, 'tags': {'amenity': 'pharmacy', 'dispensing': 'no', 'healthcare': 'pharmacy', 'name': 'Life Pharmacy', 'name:en': 'Life Pharmacy'}}"
"{'type': 'node', 'id': 1267693492, 'lat': 25.2976454, 'lon': 55.3833433, 'tags': {'amenity': 'pharmacy', 'dispensing': 'no', 'healthcare': 'pharmacy', 'name': 'Ardh Al Naseem Pharmacy', 'name:en': 'Ardh Al Naseem Pharmacy'}}"
"{'type': 'node', 'id': 1315864856, 'lat': 25.6354564, 'lon': 56.267094, 'tags': {'amenity': 'hospital'}}"
"{'type': 'node', 'id': 1354710123, 'lat': 25.3012605, 'lon': 55.3730205, 'tags': {'amenity': 'hospital', 'designation': 'Sunny Medical Centre', 'healthcare': 'hospital', 'name': 'Sunny Medical Centre', 'name:en': 'Sunny Medical Centre'}}"
"{'type': 'node', 'id': 1356208626, 'lat': 25.3011342, 'lon': 55.3727277, 'tags': {'amenity': 'clinic', 'designation': 'Al Reem Diagonostic Centre', 'healthcare': 'clinic', 'name': 'Al Reem Diagonostic Centre', 'name:en': 'Al Reem Diagonostic Centre'}}"
"{'type': 'node', 'id': 1357685699, 'lat': 25.3002185, 'lon': 55.373207, 'tags': {'amenity': 'pharmacy', 'healthcare': 'pharmacy', 'name': 'صيدلية الفاروق', 'name:ar': 'صيدلية الفاروق', 'name:en': 'Al Farooq Pharmacy', 'opening_hours': 'PH,Mo-Su 00:00-24:00'}}"
"{'type': 'node', 'id': 1357692409, 'lat': 25.3014024, 'lon': 55.3751321, 'tags': {'amenity': 'hospital', 'contact:instagram': 'saharamedicalcentre.ae', 'description': 'Located at Level 1, Flat 105', 'email': 'info@saharamedicalcentre.ae', 'healthcare': 'hospital', 'level': '1', 'name': 'Sahara Medical Centre', 'name:ar': 'مركز سهارة الطبى', 'name:en': 'Sahara Medical Centre', 'opening_hours': 'Sa-Th 09:00-13:00; Fr 09:00-13:00, 17:00-23:00', 'phone': '+971 6 531 8887;+971 50 882 1590', 'source': 'Kaart Ground Survey 2017', 'website': 'https://saharamedicalcentre.ae'}}"
"{'type': 'node', 'id': 1359146500, 'lat': 25.3012244, 'lon': 55.3730274, 'tags': {'addr:street': 'Malaka Street', 'amenity': 'pharmacy', 'healthcare': 'pharmacy', 'name': 'Aster', 'name:en': 'Aster', 'source': 'Kaart Ground Survey 2017'}}"
"{'type': 'node', 'id': 1359147509, 'lat': 25.2998258, 'lon': 55.3752965, 'tags': {'amenity': 'pharmacy', 'healthcare': 'pharmacy', 'name': 'Al Shamal', 'name:en': 'Al Shamal'}}"
"{'type': 'node', 'id': 1368754888, 'lat': 25.2765957, 'lon': 55.3460688, 'tags': {'amenity': 'hospital', 'emergency': 'yes', 'name': 'New Medical Centre', 'name:en': 'New Medical Centre'}}"
"{'type': 'node', 'id': 1368755354, 'lat': 25.2766653, 'lon': 55.3461547, 'tags': {'amenity': 'pharmacy'}}"
"{'type': 'node', 'id': 1458099997, 'lat': 25.2339744, 'lon': 55.318005, 'tags': {'amenity': 'pharmacy', 'healthcare': 'pharmacy', 'name': 'German Limbtech Orthopaedic', 'name:en': 'German Limbtech Orthopaedic', 'wheelchair': 'yes'}}"
"{'type': 'node', 'id': 1502792363, 'lat': 25.2833757, 'lon': 55.3484865, 'tags': {'amenity': 'hospital', 'emergency': 'no', 'name': 'Hor-Al-Anz Primary Health Centre', 'name:en': 'Hor-Al-Anz Primary Health Centre'}}"
"{'type': 'node', 'id': 1509507965, 'lat': 25.2764609, 'lon': 55.3370717, 'tags': {'amenity': 'hospital', 'emergency': 'no', 'name': 'Aster Medical Centre', 'name:en': 'Aster Medical Centre'}}"
"{'type': 'node', 'id': 1509508158, 'lat': 25.2764199, 'lon': 55.3370065, 'tags': {'addr:street': '30b Street', 'amenity': 'pharmacy', 'name': 'Aster Pharmacy', 'name:en': 'Aster Pharmacy', 'source': 'Kaart Ground Survey 2017'}}"
"{'type': 'node', 'id': 1509508332, 'lat': 25.2774942, 'lon': 55.3391316, 'tags': {'amenity': 'pharmacy'}}"
"{'type': 'node', 'id': 1532270489, 'lat': 25.2441836, 'lon': 55.318893, 'tags': {'amenity': 'hospital', 'emergency': 'yes', 'healthcare': 'hospital', 'name': 'مستشفى راشد', 'name:en': 'Rashid Hospital', 'name:ml': 'റാഷിദ് ആശുപത്രി', 'wikidata': 'Q7294896', 'wikipedia': 'en:Rashid Hospital'}}"
"{'type': 'node', 'id': 1612043261, 'lat': 25.1268381, 'lon': 55.3967632, 'tags': {'amenity': 'pharmacy', 'dispensing': 'yes', 'healthcare': 'pharmacy', 'name': 'Super-Care', 'opening_hours': 'PH,Mo-Su 07:00-23:00', 'wheelchair': 'yes'}}"
"{'type': 'node', 'id': 1677147863, 'lat': 25.1579161, 'lon': 55.4111345, 'tags': {'amenity': 'pharmacy', 'name': 'Easy Pharmacy', 'name:en': 'Easy Pharmacy'}}"
"{'type': 'node', 'id': 1720390113, 'lat': 25.1931548, 'lon': 55.4068159, 'tags': {'addr:street': '414 Street', 'amenity': 'pharmacy', 'name': 'ASTER Medical Centre, Al Warqa', 'name:en': 'ASTER Medical Centre, Al Warqa', 'opening_hours': 'Mo-Su 08:00-12:00', 'phone': '+971 4 2800899', 'source': 'Kaart Ground Survey 2017', 'website': 'http://www.astermedicalcentre.com/clinicDetails.aspx?id=12'}}"
"{'type': 'node', 'id': 1754891297, 'lat': 25.2995965, 'lon': 55.489687, 'tags': {'amenity': 'hospital', 'healthcare': 'hospital', 'name': 'University Hospital Sharjah', 'name:ar': 'مستشفى الجامعة الشارقة', 'name:en': 'University Hospital Sharjah'}}"
"{'type': 'node', 'id': 1935192211, 'lat': 25.2612477, 'lon': 55.4411773, 'tags': {'amenity': 'pharmacy', 'healthcare': 'pharmacy', 'name': 'Life Mezhar Pharmacy', 'name:en': 'Life Mezhar Pharmacy'}}"
"{'type': 'node', 'id': 2438787408, 'lat': 25.33967, 'lon': 55.388326, 'tags': {'addr:city': 'Sharjah', 'addr:housename': 'Aster Pharmacy', 'addr:street': 'King Faisal Street', 'amenity': 'pharmacy', 'name': 'Aster Pharmacy', 'name:en': 'Aster Pharmacy'}}"
"{'type': 'node', 'id': 2467550290, 'lat': 25.3901604, 'lon': 55.449384, 'tags': {'amenity': 'pharmacy', 'dispensing': 'yes', 'name': 'New Al Madeenah Pharmacy', 'name:en': 'New Al Madeenah Pharmacy'}}"
"{'type': 'node', 'id': 2467788580, 'lat': 25.4028159, 'lon': 55.4466692, 'tags': {'amenity': 'pharmacy', 'dispensing': 'Makkah Pharmacy', 'name': 'Al Makkah Pharmacy', 'name:en': 'Al Makkah Pharmacy', 'opening_hours': '24/7', 'source': 'Kaart Ground Survey 2017'}}"
"{'type': 'node', 'id': 2470739651, 'lat': 25.3933302, 'lon': 55.4400521, 'tags': {'amenity': 'pharmacy', 'dispensing': 'no', 'name': 'Lamya', 'name:en': 'Lamya', 'source': 'Kaart Ground Survey 2017'}}"
"{'type': 'node', 'id': 2471735100, 'lat': 25.3861242, 'lon': 55.4556645, 'tags': {'addr:street': 'Kuwait Street', 'amenity': 'pharmacy', 'dispensing': 'yes', 'name': 'Al Madina Pharmacy', 'name:en': 'Al Madina Pharmacy', 'opening_hours': '24/7', 'source': 'Kaart Ground Survey 2017'}}"
"{'type': 'node', 'id': 2471735108, 'lat': 25.3861103, 'lon': 55.4588706, 'tags': {'addr:housenumber': 'A4', 'addr:housenumber:ar': 'أ4', 'addr:street': 'شارع الكويت', 'addr:street:ar': 'شارع الكويت', 'amenity': 'pharmacy', 'dispensing': 'yes', 'drive_through': 'no', 'healthcare': 'pharmacy', 'name': 'MECCA PHARMACY', 'name:ar': 'صيدلية مكة', 'opening_hours': '24/7'}}"
"{'type': 'node', 'id': 2471735109, 'lat': 25.3883491, 'lon': 55.4506823, 'tags': {'amenity': 'pharmacy', 'dispensing': 'yes'}}"
"{'type': 'node', 'id': 2479300241, 'lat': 25.2637433, 'lon': 55.3840049, 'tags': {'amenity': 'pharmacy', 'dispensing': 'no', 'healthcare': 'pharmacy'}}"
"{'type': 'node', 'id': 2479704459, 'lat': 25.4096659, 'lon': 55.5095741, 'tags': {'amenity': 'pharmacy', 'dispensing': 'no', 'healthcare': 'pharmacy', 'name': 'صيدلية العربية', 'name:ar': 'صيدلية العربية', 'name:en': 'Arabian Pharmacy'}}"
"{'type': 'node', 'id': 2479704461, 'lat': 25.4098861, 'lon': 55.5096809, 'tags': {'addr:street': 'Shiekh Ammar Bin Hummaid Rd', 'amenity': 'clinic', 'name': 'Al Jurf Medical Center', 'name:en': 'Al Jurf Medical Center', 'source': 'Kaart Ground Survey 2017'}}"
"{'type': 'node', 'id': 2479728849, 'lat': 25.5738649, 'lon': 55.5602055, 'tags': {'amenity': 'hospital', 'healthcare': 'hospital', 'name': 'مستشفى أم القيوين العام', 'name:ar': 'مستشفى أم القيوين العام', 'name:en': 'Umm Al Quwain Hospital', 'opening_hours': '24/7'}}"
"{'type': 'node', 'id': 2479742257, 'lat': 25.3959812, 'lon': 55.4935742, 'tags': {'addr:street': 'Sheikh Maktoom Bin Rashid Al Maktoom Street', 'amenity': 'pharmacy', 'dispensing': 'no', 'name': 'Dooa Pharmacy', 'name:en': 'Dooa Pharmacy', 'source': 'Kaart Ground Survey 2017'}}"
"{'type': 'node', 'id': 2480118094, 'lat': 25.5697925, 'lon': 55.5555122, 'tags': {'addr:street': 'Al Methmal Street', 'amenity': 'pharmacy', 'dispensing': 'no', 'name': 'Tajeran Pharmacy', 'name:en': 'Tajeran Pharmacy', 'source': 'Kaart Ground Survey 2017'}}"
"{'type': 'node', 'id': 2480193540, 'lat': 25.4939027, 'lon': 55.5473996, 'tags': {'amenity': 'pharmacy', 'dispensing': 'no'}}"
"{'type': 'node', 'id': 2480193553, 'lat': 25.5600403, 'lon': 55.5510928, 'tags': {'amenity': 'pharmacy', 'dispensing': 'no', 'name': 'صيدلية الحرم', 'name:ar': 'صيدلية الحرم', 'name:en': 'Al Haram Pharmacy', 'source': 'Kaart Ground Survey 2017'}}"
"{'type': 'node', 'id': 2480193558, 'lat': 25.5633539, 'lon': 55.5515339, 'tags': {'amenity': 'pharmacy', 'dispensing': 'no'}}"
"{'type': 'node', 'id': 2485941511, 'lat': 25.2600165, 'lon': 55.2938072, 'tags': {'addr:city': 'دبي', 'addr:city:ar': 'دبي', 'addr:city:en': 'Dubai', 'addr:city:ur': 'دبئی', 'amenity': 'hospital', 'building': 'yes', 'description': 'Aster Jubilee Medical Complex', 'healthcare': 'hospital', 'name': 'Aster Medical Centre', 'name:en': 'Aster Medical Centre (Aster Jubilee Medical Complex)', 'phone': '+971 4 509 0300', 'website': 'http://www.astermedicalcentre.com/', 'wheelchair': 'yes'}}"
"{'type': 'node', 'id': 2491151761, 'lat': 25.3967436, 'lon': 55.497141, 'tags': {'amenity': 'pharmacy', 'dispensing': 'no', 'fixme': 'name', 'source': 'Kaart Ground Survey 2017'}}"
"{'type': 'node', 'id': 2493676664, 'lat': 25.2737403, 'lon': 55.3643838, 'tags': {'amenity': 'clinic', 'healthcare': 'clinic'}}"
"{'type': 'node', 'id': 2499040284, 'lat': 25.21074, 'lon': 55.3115743, 'tags': {'addr:city': 'دبي', 'addr:city:ar': 'دبي', 'addr:city:en': 'Dubai', 'addr:city:ur': 'دبئی', 'addr:housename': 'Oud Mehta Road', 'addr:housenumber': 'Zaabeel', 'addr:postcode': '2666', 'addr:street': '2nd Zabeel Road', 'amenity': 'hospital', 'emergency': 'no', 'healthcare': 'hospital', 'name': 'Dubai Herbal And Treatment Centre', 'name:en': 'Dubai Herbal And Treatment Centre', 'phone': '0097143351200', 'website': 'https://www.dubaihtc.com/', 'wikidata': 'Q17000864'}}"
"{'type': 'node', 'id': 2501047861, 'lat': 25.3874881, 'lon': 55.4453644, 'tags': {'addr:street': 'College Street', 'amenity': 'pharmacy', 'dispensing': 'no', 'name': 'Ibn Al Nafees', 'name:en': 'Ibn Al Nafees', 'source': 'Kaart Ground Survey 2017'}}"
"{'type': 'node', 'id': 2505464565, 'lat': 25.2478524, 'lon': 55.3006093, 'tags': {'amenity': 'pharmacy', 'dispensing': 'no', 'healthcare': 'pharmacy'}}"
"{'type': 'node', 'id': 2521794879, 'lat': 25.2526452, 'lon': 55.2867194, 'tags': {'addr:street': 'Kuwait Street', 'amenity': 'clinic', 'healthcare': 'clinic', 'name': 'IVF & Women Clinic', 'name:en': 'IVF & Women Clinic', 'source': 'Kaart Ground Survey 2017'}}"
"{'type': 'node', 'id': 2526037896, 'lat': 25.2571787, 'lon': 55.3974598, 'tags': {'amenity': 'clinic', 'healthcare': 'clinic'}}"
"{'type': 'node', 'id': 2526037915, 'lat': 25.2632496, 'lon': 55.3918706, 'tags': {'addr:street': 'Beirut Street', 'amenity': 'pharmacy', 'brand': 'Aster Pharmacy', 'brand:wikidata': 'Q124453575', 'dispensing': 'no', 'healthcare': 'pharmacy', 'name': 'Aster Pharmacy', 'name:en': 'Aster Pharmacy', 'source': 'Kaart Ground Survey 2017'}}"
"{'type': 'node', 'id': 2531722511, 'lat': 25.2711968, 'lon': 55.3764259, 'tags': {'addr:city': 'دبي', 'addr:city:ar': 'دبي', 'addr:city:en': 'Dubai', 'addr:city:ur': 'دبئی', 'addr:postcode': '47602', 'amenity': 'clinic', 'contact:phone': '04 263 6767', 'healthcare': 'clinic', 'name': 'Joseph Qusais Polyclinic', 'name:en': 'Joseph Qusais Polyclinic', 'opening_hours': '08:30-12:30,16:00-21:30; Fr 8:30-12:00,16:00-21:00'}}"
"{'type': 'node', 'id': 2531722512, 'lat': 25.271531, 'lon': 55.3765196, 'tags': {'amenity': 'pharmacy', 'dispensing': 'no', 'healthcare': 'pharmacy', 'name': 'Al Naseem Pharmacy', 'name:en': 'Al Naseem Pharmacy', 'phone': '04 263 5277', 'source': 'Kaart Ground Survey 2017'}}"
"{'type': 'node', 'id': 2569203156, 'lat': 25.2786855, 'lon': 55.8773056, 'tags': {'amenity': 'pharmacy', 'dispensing': 'no'}}"
"{'type': 'node', 'id': 2690813035, 'lat': 25.2347853, 'lon': 55.4364185, 'tags': {'addr:city': 'دبي', 'addr:city:ar': 'دبي', 'addr:city:en': 'Dubai', 'addr:city:ur': 'دبئی', 'addr:housenumber': 'shop no1540', 'addr:postcode': '444786', 'addr:street': 'Al Khawaneej Road', 'amenity': 'hospital', 'emergency': 'yes', 'name': 'Smilecare Medical Center LLC 042855066', 'name:en': 'Smilecare Medical Center LLC 042855066', 'note': 'Dentist, implant, cosmetic, root canal, braces,orthodontist, European qualified', 'phone': '042855066', 'website': 'www.smilecaredubai.com', 'wheelchair': 'yes'}}"
"{'type': 'node', 'id': 2805359250, 'lat': 25.2706444, 'lon': 55.3219753, 'tags': {'amenity': 'hospital', 'emergency': 'no', 'fixme': 'name, name:en mismatch.', 'name': 'Prime Medical Centre', 'name:en': ""Prime Health centre Ekka's office""}}"
"{'type': 'node', 'id': 3023618910, 'lat': 25.273034, 'lon': 55.3300842, 'tags': {'amenity': 'pharmacy', 'name': 'Mother Pharmacy', 'name:en': 'Mother Pharmacy'}}"
"{'type': 'node', 'id': 3023618913, 'lat': 25.2773137, 'lon': 55.3276472, 'tags': {'addr:street': 'Abu Baker al Siddique road', 'amenity': 'pharmacy', 'name': 'Life Pharmacy', 'name:en': 'Life Pharmacy', 'operator': 'LIFE', 'source': 'Kaart Ground Survey 2017'}}"
"{'type': 'node', 'id': 3024070631, 'lat': 25.2667045, 'lon': 55.3300713, 'tags': {'addr:street': 'Abu Baker Al Siddique Road', 'amenity': 'clinic', 'healthcare': 'clinic', 'name': 'First Med', 'name:en': 'First Med', 'source': 'Kaart Ground Survey 2017'}}"
"{'type': 'node', 'id': 3024705700, 'lat': 25.2706183, 'lon': 55.3236185, 'tags': {'amenity': 'hospital', 'healthcare': 'hospital', 'name': 'پریمیئر تشخیصی مرکز', 'name:en': 'Premier Diagnostic Centre', 'name:ur': 'پریمیئر تشخیصی مرکز'}}"
"{'type': 'node', 'id': 3053763380, 'lat': 25.2650946, 'lon': 55.3264971, 'tags': {'addr:street': 'Al Murraqqabat Road', 'amenity': 'pharmacy', 'healthcare': 'pharmacy', 'name': 'LIFE Pharmacy', 'name:en': 'LIFE Pharmacy', 'source': 'Kaart Ground Survey 2017'}}"
"{'type': 'node', 'id': 3125922756, 'lat': 25.2734847, 'lon': 55.3217412, 'tags': {'amenity': 'hospital', 'name': 'Aster Clinic', 'name:en': 'Aster Clinic'}}"
"{'type': 'node', 'id': 3282682322, 'lat': 25.2922819, 'lon': 55.3693767, 'tags': {'amenity': 'clinic', 'healthcare': 'clinic', 'name': 'Aster Clinic'}}"
"{'type': 'node', 'id': 3282682323, 'lat': 25.2923813, 'lon': 55.3694747, 'tags': {'amenity': 'pharmacy', 'brand': 'Aster Pharmacy', 'brand:wikidata': 'Q124453575', 'drive_through': 'no', 'healthcare': 'pharmacy', 'name': 'Aster Pharmacy', 'operator': 'Aster'}}"
"{'type': 'node', 'id': 3337958523, 'lat': 25.244127, 'lon': 55.3054415, 'tags': {'amenity': 'hospital', 'healthcare': 'hospital', 'name': 'Kottakal Ayurvedic Centre', 'name:en': 'Kottakal Ayurvedic Centre'}}"
"{'type': 'node', 'id': 3442498342, 'lat': 25.7166185, 'lon': 55.8401373, 'tags': {'amenity': 'pharmacy'}}"
"{'type': 'node', 'id': 3450031600, 'lat': 26.1824358, 'lon': 56.2509769, 'tags': {'amenity': 'hospital', 'healthcare': 'hospital'}}"
"{'type': 'node', 'id': 3478788984, 'lat': 25.2653833, 'lon': 55.3298837, 'tags': {'addr:city': 'دبي', 'addr:city:ar': 'دبي', 'addr:city:en': 'Dubai', 'addr:city:ur': 'دبئی', 'addr:housenumber': 'Century 21 Building', 'addr:postcode': '42324', 'addr:street': 'Abu Baker al Siddique road', 'amenity': 'hospital', 'building:levels': 'M', 'healthcare': 'hospital', 'name': 'American British Surgical & Medical Centre', 'name:ar': 'المرکز الامریکی البریطانی للطبی للجراحی', 'name:en': 'American British Surgical & Medical Centre', 'phone': '+971 4 297 5544', 'website': 'https://www.absamc.com/'}}"
"{'type': 'node', 'id': 3606790311, 'lat': 25.2772875, 'lon': 55.331706, 'tags': {'amenity': 'pharmacy', 'name': 'Rotana Pharmacy', 'name:en': 'Rotana Pharmacy'}}"
"{'type': 'node', 'id': 3671102175, 'lat': 25.2335328, 'lon': 55.3181752, 'tags': {'addr:housenumber': '1st floor 1008', 'healthcare': 'yes', 'name': 'SRL Diagnostics', 'name:en': 'SRL Diagnostics'}}"
"{'type': 'node', 'id': 3699746133, 'lat': 25.2568428, 'lon': 55.3007987, 'tags': {'addr:street': 'Khalid Bin Waleed Road', 'amenity': 'pharmacy', 'healthcare': 'pharmacy', 'name': 'Badr Al Samaa', 'name:en': 'Badr Al Samaa', 'source': 'Kaart Ground Survey 2017'}}"
"{'type': 'node', 'id': 3699746134, 'lat': 25.256894, 'lon': 55.3006943, 'tags': {'addr:street': 'Khalid Bin Waleed Road', 'amenity': 'clinic', 'healthcare': 'clinic', 'source': 'Kaart Ground Survey 2017'}}"
"{'type': 'node', 'id': 3704736282, 'lat': 25.2452369, 'lon': 55.2981099, 'tags': {'addr:street': 'شارع الشيخ خليفة بن زايد', 'addr:street:ar': 'شارع الشيخ خليفة بن زايد', 'amenity': 'pharmacy', 'healthcare': 'pharmacy', 'name': 'المنخول الجديدة', 'name:ar': 'المنخول الجديدة', 'name:en': 'New Mankhool'}}"
"{'type': 'node', 'id': 3762972988, 'lat': 25.2201736, 'lon': 55.3657197, 'tags': {'amenity': 'pharmacy', 'name': 'Marina Pharmacy', 'name:en': 'Marina Pharmacy'}}"
"{'type': 'node', 'id': 3800485463, 'lat': 25.2379486, 'lon': 55.2797222, 'tags': {'addr:street': 'Mankhool Street', 'amenity': 'pharmacy', 'healthcare': 'pharmacy', 'name': 'uniCare Pharmacy', 'name:en': 'uniCare Pharmacy', 'opening_hours': 'Mo-Su 08:30-23:30', 'source': 'Kaart Ground Survey 2017'}}"
"{'type': 'node', 'id': 3820219986, 'lat': 25.2819023, 'lon': 55.3891948, 'tags': {'amenity': 'pharmacy', 'healthcare': 'pharmacy', 'name': 'Life Pharmacy', 'name:en': 'Life Pharmacy'}}"
"{'type': 'node', 'id': 3830464334, 'lat': 25.7682628, 'lon': 55.9768842, 'tags': {'amenity': 'hospital', 'emergency': 'yes', 'name': 'RAK Hospital', 'name:en': 'RAK Hospital', 'wikidata': 'Q18392892', 'wikipedia': 'en:RAK Hospital'}}"
"{'type': 'node', 'id': 3837355150, 'lat': 25.2707223, 'lon': 55.30257, 'tags': {'amenity': 'pharmacy', 'healthcare': 'pharmacy', 'name': 'Al Hilal', 'name:en': 'Al Hilal'}}"
"{'type': 'node', 'id': 3872155390, 'lat': 25.2444703, 'lon': 55.3148696, 'tags': {'amenity': 'clinic', 'healthcare': 'clinic', 'name': 'Arabian Home health care', 'name:en': 'Arabian Home health care'}}"
"{'type': 'node', 'id': 3900917715, 'lat': 25.2690872, 'lon': 55.376882, 'tags': {'amenity': 'clinic', 'healthcare': 'clinic', 'name': 'Aster Medical Centre', 'name:en': 'Aster Medical Centre'}}"
"{'type': 'node', 'id': 3900917716, 'lat': 25.269154, 'lon': 55.3767925, 'tags': {'amenity': 'pharmacy', 'brand': 'Aster Pharmacy', 'brand:wikidata': 'Q124453575', 'healthcare': 'pharmacy', 'name': 'Aster Pharmacy', 'name:en': 'Aster Pharmacy'}}"
"{'type': 'node', 'id': 3900917717, 'lat': 25.2682113, 'lon': 55.3787636, 'tags': {'amenity': 'clinic', 'healthcare': 'clinic', 'name': 'Zulekha Medical Centre', 'name:en': 'Zulekha Medical Centre'}}"
"{'type': 'node', 'id': 3900917775, 'lat': 25.2696735, 'lon': 55.3804538, 'tags': {'amenity': 'clinic', 'healthcare': 'clinic'}}"
"{'type': 'node', 'id': 3900917787, 'lat': 25.272907, 'lon': 55.375252, 'tags': {'amenity': 'pharmacy', 'healthcare': 'pharmacy'}}"
"{'type': 'node', 'id': 3903209455, 'lat': 25.2560271, 'lon': 55.2957378, 'tags': {'amenity': 'pharmacy', 'healthcare': 'pharmacy', 'name': 'LIFE Pharmacy', 'name:en': 'LIFE Pharmacy'}}"
"{'type': 'node', 'id': 3903543561, 'lat': 25.2704386, 'lon': 55.3747179, 'tags': {'amenity': 'pharmacy', 'healthcare': 'pharmacy'}}"
"{'type': 'node', 'id': 3905308928, 'lat': 25.3842735, 'lon': 55.4616659, 'tags': {'addr:housenumber': '133', 'addr:street': 'Kuwait Street', 'amenity': 'pharmacy', 'fixme': 'name, name:en mismatch. name, name:en mismatch.', 'name': 'Thumbay Pharmacy-13 Ajman', 'name:en': 'Thumbay Pharmacy-13Ajman', 'source': 'Kaart Ground Survey 2017'}}"
"{'type': 'node', 'id': 3905308929, 'lat': 25.3858226, 'lon': 55.4602262, 'tags': {'amenity': 'pharmacy'}}"
"{'type': 'node', 'id': 3986302200, 'lat': 25.2918425, 'lon': 55.3940602, 'tags': {'addr:street': 'Damascus street', 'addr:suburb': 'Industrial Area 1, Al Qusais', 'amenity': 'pharmacy', 'healthcare': 'pharmacy', 'name': 'Life Pharmacy', 'name:en': 'Life Pharmacy', 'operator': 'Life Al Qusais Pharmacy L.L.C', 'source': 'Kaart Ground Survey 2017'}}"
"{'type': 'node', 'id': 4101045398, 'lat': 25.232867, 'lon': 55.3201981, 'tags': {'addr:housenumber': 'Femiclinic medicle center', 'amenity': 'clinic', 'email': 'info@femiclinic.com', 'healthcare': 'clinic', 'internet_access': 'wlan', 'name': 'Femiclinic medicle center', 'name:en': 'Femiclinic medicle center', 'opening_hours': 'Sa-Th 08:00-18:00', 'phone': '+97144542640', 'website': 'https://femiclinic.com/'}}"
"{'type': 'node', 'id': 4140856590, 'lat': 25.3408785, 'lon': 56.3489328, 'tags': {'amenity': 'pharmacy', 'healthcare': 'pharmacy'}}"
"{'type': 'node', 'id': 4140871089, 'lat': 25.3413596, 'lon': 56.3489754, 'tags': {'amenity': 'hospital', 'healthcare': 'hospital', 'name': 'Al Enwan medical center', 'name:en': 'Al Enwan medical center'}}"
"{'type': 'node', 'id': 4140871389, 'lat': 25.3588338, 'lon': 56.3485195, 'tags': {'amenity': 'pharmacy', 'name': 'Bin Moosa Medical Pharmacy', 'name:en': 'Bin Moosa Medical Pharmacy'}}"
"{'type': 'node', 'id': 4157358790, 'lat': 25.1216867, 'lon': 55.3863219, 'tags': {'addr:street': 'Sheikh Mohammed bin Zayed Road', 'amenity': 'hospital', 'healthcare': 'hospital', 'name': 'HLG Umar', 'name:en': 'HLG Umar', 'wheelchair': 'yes'}}"
"{'type': 'node', 'id': 4159167540, 'lat': 25.3576644, 'lon': 55.3869883, 'tags': {'addr:housenumber': '0 floor Al Habib AG Zurich Bank building', 'healthcare': 'centre', 'name': 'Sunny Speciality Medical Centre', 'name:en': 'Sunny Speciality Medical Centre', 'opening_hours': 'Mo-Th, Sa, Su 09:00-21:30'}}"
"{'type': 'node', 'id': 4163357091, 'lat': 25.3013072, 'lon': 55.3717871, 'tags': {'amenity': 'pharmacy', 'healthcare': 'pharmacy', 'name': 'البستان', 'name:ar': 'البستان', 'name:en': 'Al Bustan'}}"
"{'type': 'node', 'id': 4163357092, 'lat': 25.3007342, 'lon': 55.3720068, 'tags': {'addr:street': 'Malaka Street', 'amenity': 'pharmacy', 'healthcare': 'pharmacy', 'name': 'Reem Al Nahda', 'name:en': 'Reem Al Nahda', 'source': 'Kaart Ground Survey 2017'}}"
"{'type': 'node', 'id': 4165226743, 'lat': 25.2567934, 'lon': 55.3331764, 'tags': {'healthcare': 'centre', 'name': 'Al Tadawi Medical centre', 'name:en': 'Al Tadawi Medical centre'}}"
"{'type': 'node', 'id': 4167031120, 'lat': 25.3002874, 'lon': 55.3709919, 'tags': {'addr:street': 'Malaka Street', 'amenity': 'clinic', 'healthcare': 'centre', 'name': 'Prime Medical Centre', 'name:en': 'Prime Medical Centre', 'source': 'Kaart Ground Survey 2017'}}"
"{'type': 'node', 'id': 4168513487, 'lat': 25.3010786, 'lon': 55.3725931, 'tags': {'amenity': 'pharmacy', 'healthcare': 'pharmacy', 'name': 'النهار', 'name:ar': 'النهار', 'name:en': 'Al Nahar'}}"
"{'type': 'node', 'id': 4170052399, 'lat': 25.3704258, 'lon': 55.4056465, 'tags': {'addr:street': ""Al Zahra'a Street"", 'amenity': 'pharmacy', 'name': 'Life', 'name:en': 'Life', 'source': 'Kaart Ground Survey 2017'}}"
"{'type': 'node', 'id': 4171789648, 'lat': 25.3365749, 'lon': 55.3896994, 'tags': {'addr:street': '37 Street', 'amenity': 'pharmacy', 'name': 'Life Pharmacy', 'name:en': 'Life Pharmacy', 'source': 'Kaart Ground Survey 2017'}}"
"{'type': 'node', 'id': 4171985993, 'lat': 25.8008393, 'lon': 55.9741335, 'tags': {'amenity': 'pharmacy', 'healthcare': 'pharmacy'}}"
"{'type': 'node', 'id': 4171985998, 'lat': 25.5053094, 'lon': 55.5864777, 'tags': {'amenity': 'pharmacy'}}"
"{'type': 'node', 'id': 4172003991, 'lat': 25.8160455, 'lon': 55.9694571, 'tags': {'amenity': 'pharmacy'}}"
"{'type': 'node', 'id': 4172004990, 'lat': 25.7795975, 'lon': 55.9338955, 'tags': {'amenity': 'pharmacy', 'healthcare': 'pharmacy'}}"
"{'type': 'node', 'id': 4175841544, 'lat': 25.2746164, 'lon': 55.3743653, 'tags': {'amenity': 'pharmacy', 'healthcare': 'pharmacy', 'name': 'Medigreen', 'name:en': 'Medigreen'}}"
"{'type': 'node', 'id': 4176211191, 'lat': 25.2553484, 'lon': 55.3298996, 'tags': {'addr:street': '8th Street', 'amenity': 'pharmacy', 'healthcare': 'pharmacy', 'name': 'BinSina', 'name:en': 'BinSina', 'source': 'Kaart Ground Survey 2017'}}"
"{'type': 'node', 'id': 4178353305, 'lat': 25.2555154, 'lon': 55.3299836, 'tags': {'amenity': 'dentist', 'healthcare': 'dentist', 'name': 'Arwa Dental Clinic', 'name:en': 'Arwa Dental Clinic'}}"
"{'type': 'node', 'id': 4178557217, 'lat': 25.2750592, 'lon': 55.3746399, 'tags': {'amenity': 'clinic', 'healthcare': 'clinic', 'name': 'Al Noor Polyclinic', 'name:en': 'Al Noor Polyclinic'}}"
"{'type': 'node', 'id': 4184956989, 'lat': 25.3425543, 'lon': 55.394212, 'tags': {'addr:street': 'Bilal Bin Rabah Street', 'amenity': 'pharmacy', 'name': 'Al Kindy Pharmacy', 'name:en': 'Al Kindy Pharmacy', 'source': 'Kaart Ground Survey 2017'}}"
"{'type': 'node', 'id': 4184957089, 'lat': 25.3366753, 'lon': 55.3899427, 'tags': {'amenity': 'pharmacy', 'name': 'Life Pharmacy', 'name:en': 'Life Pharmacy'}}"
"{'type': 'node', 'id': 4195729292, 'lat': 25.1583787, 'lon': 55.4072892, 'tags': {'amenity': 'clinic', 'name': 'international city life cinic', 'name:en': 'international city life cinic'}}"
"{'type': 'node', 'id': 4199922472, 'lat': 25.3447534, 'lon': 55.3921646, 'tags': {'addr:street': 'Obadah Bin Al Samet Street', 'amenity': 'pharmacy', 'name': 'Life', 'name:en': 'Life', 'source': 'Kaart Ground Survey 2017'}}"
"{'type': 'node', 'id': 4212629618, 'lat': 25.3037807, 'lon': 55.3711574, 'tags': {'addr:street': 'Al Ittihad Road', 'amenity': 'pharmacy', 'healthcare': 'pharmacy', 'name': 'Life Pharmacy', 'name:en': 'Life Pharmacy', 'source': 'Kaart Ground Survey 2017'}}"
"{'type': 'node', 'id': 4212701290, 'lat': 25.3090437, 'lon': 55.3780261, 'tags': {'alt_name': 'Hala Pharmacy', 'amenity': 'pharmacy', 'healthcare': 'pharmacy', 'name': 'Life Pharmacy', 'name:en': 'Life Pharmacy', 'source': 'Kaart Ground Survey 2017'}}"
"{'type': 'node', 'id': 4215913290, 'lat': 25.3446807, 'lon': 55.3934214, 'tags': {'addr:street': 'King Abdul Aziz Street', 'amenity': 'hospital', 'name': 'Prime Medical Center', 'name:en': 'Prime Medical Center', 'source': 'Kaart Ground Survey 2017'}}"
"{'type': 'node', 'id': 4227940889, 'lat': 25.3548763, 'lon': 55.430538, 'tags': {'addr:city': 'sharjah', 'addr:housenumber': 'Villa No 3, Al Falaj Area', 'addr:postcode': '60884', 'addr:street': 'Cultural Square', 'amenity': 'hospital', 'emergency': 'yes', 'name': 'Solanki Dental Center', 'name:en': 'Solanki Dental Center'}}"
"{'type': 'node', 'id': 4281941990, 'lat': 25.3502463, 'lon': 55.3928944, 'tags': {'addr:street': 'Abu Talha Street', 'amenity': 'pharmacy', 'name': 'Sahar Pharmacy', 'name:en': 'Sahar Pharmacy', 'source': 'Kaart Ground Survey 2017'}}"
"{'type': 'node', 'id': 4292496496, 'lat': 25.2312233, 'lon': 55.2683895, 'tags': {'addr:street': 'شارع الوصل', 'amenity': 'clinic', 'denomination': 'shia', 'email': 'info@ihd.ae', 'healthcare': 'clinic', 'internet_access': 'wlan', 'name': 'Iranian Polyclinic', 'name:en': 'Iranian Polyclinic', 'opening_hours': 'Sa-Th 08:00-22:00', 'phone': '+97144046755', 'religion': 'muslim', 'website': 'http://www.ihd.ae/services/affiliated-clinics/iranian-polyclinic'}}"
"{'type': 'node', 'id': 4304601976, 'lat': 25.3751439, 'lon': 55.4013, 'tags': {'addr:street': 'Al Sharq Street', 'amenity': 'pharmacy', 'name': 'Aster Pharmacy', 'name:en': 'Aster Pharmacy'}}"
"{'type': 'node', 'id': 4304604494, 'lat': 25.3752252, 'lon': 55.4012418, 'tags': {'addr:city': 'Abu Tina', 'addr:street': 'Al Sharq Street', 'amenity': 'clinic', 'name': 'Aster Clinic', 'name:en': 'Aster Clinic'}}"
"{'type': 'node', 'id': 4328899789, 'lat': 25.3083201, 'lon': 55.3715268, 'tags': {'amenity': 'hospital', 'healthcare': 'hospital', 'name': 'W. Wilson Specialized Hospital', 'name:en': 'W. Wilson Specialized Hospital', 'opening_hours': '24/7', 'phone': '065771757'}}"
"{'type': 'node', 'id': 4329036189, 'lat': 25.3169781, 'lon': 55.376117, 'tags': {'addr:street': 'Al Taawun Street', 'amenity': 'pharmacy', 'healthcare': 'pharmacy', 'name': 'Mohammed Al Zoubi Pharmacy', 'name:en': 'Mohammed Al Zoubi Pharmacy'}}"
"{'type': 'node', 'id': 4329096829, 'lat': 25.3051822, 'lon': 55.364214, 'tags': {'addr:street': 'Al Taawun Street', 'amenity': 'pharmacy', 'healthcare': 'pharmacy', 'name': 'Al Mamzar Pharmacy', 'name:en': 'Al Mamzar Pharmacy'}}"
"{'type': 'node', 'id': 4329165446, 'lat': 25.3092334, 'lon': 55.3716588, 'tags': {'amenity': 'pharmacy', 'brand': 'Aster Pharmacy', 'brand:wikidata': 'Q124453575', 'healthcare': 'pharmacy', 'name': 'Aster Pharmacy', 'name:en': 'Aster Pharmacy'}}"
"{'type': 'node', 'id': 4329165459, 'lat': 25.3102233, 'lon': 55.3729151, 'tags': {'addr:street': 'Al Taawun Street', 'amenity': 'pharmacy', 'healthcare': 'pharmacy', 'name': 'Binsina Pharmacy', 'name:en': 'Binsina Pharmacy', 'source': 'Kaart Ground Survey 2017'}}"
"{'type': 'node', 'id': 4329333181, 'lat': 25.3067402, 'lon': 55.3674244, 'tags': {'addr:street': 'Al Taawun Street', 'amenity': 'pharmacy', 'healthcare': 'pharmacy', 'name': 'Al Amal Pharmacy', 'name:en': 'Al Amal Pharmacy'}}"
"{'type': 'node', 'id': 4329333188, 'lat': 25.3077658, 'lon': 55.369433, 'tags': {'addr:street': 'Al Taawun Street', 'amenity': 'pharmacy', 'healthcare': 'pharmacy', 'name': 'Ibn Hayan Pharmacy', 'name:en': 'Ibn Hayan Pharmacy'}}"
"{'type': 'node', 'id': 4329377259, 'lat': 25.3111098, 'lon': 55.3740574, 'tags': {'addr:street': 'Al Taawun Street', 'amenity': 'pharmacy', 'brand': 'Aster Pharmacy', 'brand:wikidata': 'Q124453575', 'healthcare': 'pharmacy', 'name': 'Aster Pharmacy', 'name:en': 'Aster Pharmacy', 'source': 'Kaart Ground Survey 2017'}}"
"{'type': 'node', 'id': 4329377265, 'lat': 25.3116604, 'lon': 55.3743107, 'tags': {'addr:street': 'Al Taawun Street', 'amenity': 'pharmacy', 'healthcare': 'pharmacy', 'name': 'Bait Al Dawaa Pharmacy', 'name:en': 'Bait Al Dawaa Pharmacy', 'source': 'Kaart Ground Survey 2017'}}"
"{'type': 'node', 'id': 4329377276, 'lat': 25.3120862, 'lon': 55.3748475, 'tags': {'addr:street': 'Al Taawun Street', 'amenity': 'pharmacy', 'healthcare': 'pharmacy', 'name': 'Health First Pharmacy', 'name:en': 'Health First Pharmacy', 'source': 'Kaart Ground Survey 2017'}}"
"{'type': 'node', 'id': 4329407688, 'lat': 25.309149, 'lon': 55.3716565, 'tags': {'amenity': 'hospital', 'healthcare': 'hospital', 'name': 'Lamasat Medical Centre'}}"
"{'type': 'node', 'id': 4329431622, 'lat': 25.3090998, 'lon': 55.3715652, 'tags': {'addr:street': 'Al Taawun Street', 'amenity': 'hospital', 'healthcare': 'hospital', 'name': 'Farah Specialist Medical Centre', 'name:en': 'Farah Specialist Medical Centre'}}"
"{'type': 'node', 'id': 4329431623, 'lat': 25.3082037, 'lon': 55.3714706, 'tags': {'addr:street': 'Al Taawun Street', 'amenity': 'hospital', 'healthcare': 'hospital', 'name': 'Conceive-The Gynacology & Fertility Hospital', 'name:en': 'Conceive-The Gynacology & Fertility Hospital', 'operator': 'AVIVO', 'source': 'Kaart Ground Survey 2017'}}"
"{'type': 'node', 'id': 4329431625, 'lat': 25.3086328, 'lon': 55.3728141, 'tags': {'addr:street': 'Al Taawun Street', 'amenity': 'pharmacy', 'healthcare': 'pharmacy', 'name': 'Palmyra Pharmacy', 'name:en': 'Palmyra Pharmacy', 'source': 'Kaart Ground Survey 2017'}}"
"{'type': 'node', 'id': 4329431626, 'lat': 25.3102063, 'lon': 55.3743883, 'tags': {'addr:street': 'Al Taawun Street', 'amenity': 'pharmacy', 'healthcare': 'pharmacy', 'name': 'Al Aqsa Pharmacy', 'name:en': 'Al Aqsa Pharmacy', 'source': 'Kaart Ground Survey 2017'}}"
"{'type': 'node', 'id': 4329926793, 'lat': 25.3128354, 'lon': 55.4571542, 'tags': {'amenity': 'pharmacy', 'name': 'Royal Spa near blood bank monkey cookies', 'name:en': 'Royal Spa near blood bank monkey cookies'}}"
"{'type': 'node', 'id': 4336595241, 'lat': 25.3092382, 'lon': 55.3766892, 'tags': {'addr:street': 'Al Ettihad Road', 'amenity': 'doctors', 'healthcare': 'doctor', 'name': 'Al Amal Medical Center', 'name:en': 'Al Amal Medical Center'}}"
"{'type': 'node', 'id': 4336644346, 'lat': 25.3249283, 'lon': 55.3736436, 'tags': {'amenity': 'pharmacy', 'name': 'Alpha Pharmacy', 'name:en': 'Alpha Pharmacy'}}"
"{'type': 'node', 'id': 4345281090, 'lat': 25.271117, 'lon': 55.3324259, 'tags': {'addr:street': 'Salah Al Din Street', 'amenity': 'clinic', 'name': 'KIMS Medical Clinic', 'name:en': 'KIMS Medical Clinic', 'source': 'Kaart Ground Survey 2017'}}"
"{'type': 'node', 'id': 4348712090, 'lat': 25.2773644, 'lon': 55.3483985, 'tags': {'amenity': 'hospital', 'emergency': 'yes', 'healthcare': 'hospital', 'name': 'Canadian Specialist Hospital', 'name:ar': 'المستشفى الكندي التخصصي'}}"
"{'type': 'node', 'id': 4352135989, 'lat': 25.225707, 'lon': 55.3771142, 'tags': {'amenity': 'hospital', 'name': 'Rashid hospital', 'name:en': 'Rashid hospital'}}"
"{'type': 'node', 'id': 4368953991, 'lat': 25.2636283, 'lon': 55.3225499, 'tags': {'amenity': 'clinic', 'contact:phone': '+9714221688', 'name': 'mid east polyclinic', 'name:en': 'mid east polyclinic'}}"
"{'type': 'node', 'id': 4368984196, 'lat': 25.2636345, 'lon': 55.3226633, 'tags': {'amenity': 'pharmacy', 'healthcare': 'pharmacy', 'name': 'city pharmacy', 'name:en': 'city pharmacy'}}"
"{'type': 'node', 'id': 4374603389, 'lat': 25.2206331, 'lon': 55.5061302, 'tags': {'amenity': 'hospital', 'name': 'Al khawaneej Health Centre', 'name:en': 'Al khawaneej Health Centre'}}"
"{'type': 'node', 'id': 4375237598, 'lat': 25.1698408, 'lon': 55.4057888, 'tags': {'amenity': 'pharmacy', 'name': 'Care Touch Drug Store', 'name:en': 'Care Touch Drug Store'}}"
"{'type': 'node', 'id': 4375547391, 'lat': 25.1681355, 'lon': 55.4036852, 'tags': {'amenity': 'pharmacy', 'name': 'Care Touch Drug Store', 'name:en': 'Care Touch Drug Store'}}"
"{'type': 'node', 'id': 4376874195, 'lat': 25.3207872, 'lon': 55.4081788, 'tags': {'amenity': 'hospital'}}"
"{'type': 'node', 'id': 4377009293, 'lat': 25.3609093, 'lon': 55.4071049, 'tags': {'addr:housenumber': '199', 'addr:postcode': '9978', 'amenity': 'clinic', 'fixme': 'name, name:en mismatch.', 'name': 'noor alfajar', 'name:en': 'noor', 'phone': '0568991982', 'website': 'http://www.nooralfajar'}}"
"{'type': 'node', 'id': 4386222289, 'lat': 25.211405, 'lon': 55.2743716, 'tags': {'amenity': 'pharmacy', 'healthcare': 'pharmacy', 'name': 'Life Pharmacy', 'name:en': 'Life Pharmacy', 'opening_hours': '24/7', 'website': 'https://www.life-me.com'}}"
"{'type': 'node', 'id': 4392894189, 'lat': 25.2151373, 'lon': 55.2788505, 'tags': {'amenity': 'pharmacy', 'healthcare': 'pharmacy', 'name': 'Boots UK Pharmacy', 'name:en': 'Boots UK Pharmacy'}}"
"{'type': 'node', 'id': 4394496093, 'lat': 25.2985754, 'lon': 55.4885041, 'tags': {'amenity': 'hospital', 'healthcare': 'hospital', 'name': 'University Dental Hospital', 'name:ar': 'مستشفى الأسنان الجامعي الشارقة', 'name:en': 'University Dental Hospital'}}"
"{'type': 'node', 'id': 4394547789, 'lat': 25.2883674, 'lon': 55.4464774, 'tags': {'amenity': 'clinic', 'name': 'Al Shifa Medical Center', 'name:en': 'Al Shifa Medical Center'}}"
"{'type': 'node', 'id': 4396117089, 'lat': 25.2621, 'lon': 55.2879805, 'tags': {'addr:street': '13B Street', 'amenity': 'pharmacy', 'healthcare': 'pharmacy', 'name': 'Al Ghubaiba Pharmacy', 'name:en': 'Al Ghubaiba Pharmacy'}}"
"{'type': 'node', 'id': 4405615700, 'lat': 25.8045566, 'lon': 55.962458, 'tags': {'amenity': 'pharmacy', 'healthcare': 'pharmacy', 'name': 'صيدلية معيريض', 'name:ar': 'صيدلية معيريض', 'name:en': 'Al Meiried Pharmacy'}}"
"{'type': 'node', 'id': 4405648293, 'lat': 25.8045146, 'lon': 55.9622566, 'tags': {'amenity': 'clinic', 'healthcare': 'clinic', 'name': 'عيادة معيريض', 'name:ar': 'عيادة معيريض', 'name:en': 'Al meiried Clinic'}}"
"{'type': 'node', 'id': 4405653490, 'lat': 25.804071, 'lon': 55.9613133, 'tags': {'amenity': 'pharmacy', 'healthcare': 'pharmacy', 'name': 'مركز الشفاء الطبي', 'name:ar': 'مركز الشفاء الطبي', 'name:en': 'Al shifa Pharmacy'}}"
"{'type': 'node', 'id': 4411069492, 'lat': 25.1690312, 'lon': 55.4073388, 'tags': {'amenity': 'pharmacy', 'name': 'Onyx Parmacy', 'name:en': 'Onyx Parmacy'}}"
"{'type': 'node', 'id': 4412196993, 'lat': 25.2449133, 'lon': 55.4508945, 'tags': {'amenity': 'clinic', 'healthcare': 'clinic', 'name': 'مركز المزهر الصحي', 'name:ar': 'مركز المزهر الصحي', 'name:en': 'Al Mizhar clinic DHA'}}"
"{'type': 'node', 'id': 4412993593, 'lat': 25.3820448, 'lon': 55.4624537, 'tags': {'amenity': 'hospital', 'email': 'thajman@thumbayhospital.ae', 'internet_access': 'wlan', 'name': 'جي ايم سي', 'name:ar': 'جي ايم سي', 'name:en': 'Thumbay Hospital (GMC)', 'opening_hours': '24/7', 'phone': '+971 6 7463333', 'website': 'https://thumbayhospital.com/ajman'}}"
"{'type': 'node', 'id': 4426395693, 'lat': 25.2114227, 'lon': 55.2763602, 'tags': {'addr:street': 'Sheikh Zayed Road', 'amenity': 'pharmacy', 'healthcare': 'pharmacy', 'name': 'Super Care Pharmacy', 'name:en': 'Super Care Pharmacy'}}"
"{'type': 'node', 'id': 4438541550, 'lat': 25.3658207, 'lon': 55.4027118, 'tags': {'amenity': 'pharmacy', 'name': 'Al Manara Pharmacy', 'name:en': 'Al Manara Pharmacy'}}"
"{'type': 'node', 'id': 4446867891, 'lat': 25.2222443, 'lon': 55.4340675, 'tags': {'amenity': 'clinic', 'name': 'Medcare', 'name:en': 'Medcare'}}"
"{'type': 'node', 'id': 4450005656, 'lat': 25.374136, 'lon': 55.4008338, 'tags': {'amenity': 'pharmacy', 'name': 'Janah Pharmacy', 'name:en': 'Janah Pharmacy'}}"
"{'type': 'node', 'id': 4472415709, 'lat': 25.3720092, 'lon': 55.4064951, 'tags': {'amenity': 'pharmacy', 'name': 'Aster Pharmacy', 'name:en': 'Aster Pharmacy'}}"
"{'type': 'node', 'id': 4476158810, 'lat': 25.3754921, 'lon': 55.4038227, 'tags': {'amenity': 'pharmacy', 'name': 'Abi,i Feda Pharmacy', 'name:en': 'Abi,i Feda Pharmacy'}}"
"{'type': 'node', 'id': 4476171828, 'lat': 25.3757515, 'lon': 55.4033999, 'tags': {'amenity': 'pharmacy', 'name': 'Sharqan Pharmacy', 'name:en': 'Sharqan Pharmacy'}}"
"{'type': 'node', 'id': 4493828689, 'lat': 25.2476912, 'lon': 55.3005758, 'tags': {'amenity': 'clinic', 'healthcare': 'clinic', 'name': 'Dr Joy Karama', 'name:en': 'Dr Joy Karama'}}"
"{'type': 'node', 'id': 4521791446, 'lat': 25.1982307, 'lon': 55.2764648, 'tags': {'amenity': 'hospital', 'healthcare': 'hospital', 'level': '2', 'name': 'Mediclinic', 'name:en': 'Mediclinic', 'operator': 'Mediclinic', 'operator:wikidata': 'Q1916123', 'wheelchair': 'yes'}}"
"{'type': 'node', 'id': 4522862405, 'lat': 25.3723076, 'lon': 55.4067361, 'tags': {'addr:street': ""Al Zahra'a Street"", 'amenity': 'pharmacy', 'name': 'Al Rawdha Pharmacy', 'name:en': 'Al Rawdha Pharmacy', 'source': 'Kaart Ground Survey 2017'}}"
"{'type': 'node', 'id': 4525817439, 'lat': 25.3666398, 'lon': 55.4017304, 'tags': {'amenity': 'pharmacy', 'name': 'Al Hikma Pharmacy', 'name:en': 'Al Hikma Pharmacy'}}"
"{'type': 'node', 'id': 4537609814, 'lat': 25.3882515, 'lon': 55.4216902, 'tags': {'amenity': 'pharmacy', 'name': 'Manara Pharmacy', 'name:en': 'Manara Pharmacy'}}"
"{'type': 'node', 'id': 4540640085, 'lat': 25.3627357, 'lon': 55.3970253, 'tags': {'amenity': 'pharmacy', 'name': 'Al Ikhwa Pharmacy', 'name:ar': 'صيدلية الاخوة', 'name:en': 'Al Ikhwa Pharmacy', 'operator': 'BENAOUDA TL'}}"
"{'type': 'node', 'id': 4540640089, 'lat': 25.3646989, 'lon': 55.3948871, 'tags': {'amenity': 'pharmacy', 'name': 'Naseef Pharmacy', 'name:en': 'Naseef Pharmacy'}}"
"{'type': 'node', 'id': 4540656885, 'lat': 25.3662237, 'lon': 55.3941277, 'tags': {'amenity': 'pharmacy', 'name': 'Saba Al Noor Pharmacy', 'name:en': 'Saba Al Noor Pharmacy', 'source': 'Kaart Ground Survey 2017'}}"
"{'type': 'node', 'id': 4542477576, 'lat': 25.3615792, 'lon': 55.3930155, 'tags': {'addr:street': 'Arabian Gulf Street', 'amenity': 'pharmacy', 'name': 'Life Pharmacy', 'name:en': 'Life Pharmacy', 'source': 'Kaart Ground Survey 2017'}}"
"{'type': 'node', 'id': 4544488695, 'lat': 25.3559502, 'lon': 55.387083, 'tags': {'amenity': 'pharmacy', 'name': 'Millenium Pharmacy', 'name:en': 'Millenium Pharmacy', 'source': 'Kaart Ground Survey 2017'}}"
"{'type': 'node', 'id': 4544488719, 'lat': 25.3547574, 'lon': 55.3861454, 'tags': {'amenity': 'pharmacy', 'name': 'Life Pharmacy Hala', 'name:en': 'Life Pharmacy Hala'}}"
"{'type': 'node', 'id': 4544488725, 'lat': 25.3543825, 'lon': 55.3858847, 'tags': {'amenity': 'pharmacy', 'name': 'Tariq Pharmacy', 'name:en': 'Tariq Pharmacy', 'source': 'Kaart Ground Survey 2017'}}"
"{'type': 'node', 'id': 4544488726, 'lat': 25.3541372, 'lon': 55.3856852, 'tags': {'amenity': 'clinic', 'name': 'Asia Medical Centre', 'name:en': 'Asia Medical Centre', 'source': 'Kaart Ground Survey 2017'}}"
"{'type': 'node', 'id': 4548812994, 'lat': 25.2604737, 'lon': 55.3219686, 'tags': {'addr:street': 'Al Maktoum Street', 'amenity': 'pharmacy', 'healthcare': 'pharmacy', 'name': 'Life Pharmacy', 'name:en': 'Life Pharmacy', 'source': 'Kaart Ground Survey 2017'}}"
"{'type': 'node', 'id': 4550316219, 'lat': 25.362834, 'lon': 55.3905102, 'tags': {'amenity': 'pharmacy', 'name': 'Shams Pharmacy', 'name:en': 'Shams Pharmacy'}}"
"{'type': 'node', 'id': 4556069729, 'lat': 25.2172531, 'lon': 55.2783319, 'tags': {'amenity': 'clinic', 'healthcare': 'clinic', 'name': 'Al Zahra (pvt) Medical centre', 'name:en': 'Al Zahra (pvt) Medical centre'}}"
"{'type': 'node', 'id': 4572852070, 'lat': 25.3769782, 'lon': 55.4012074, 'tags': {'amenity': 'pharmacy', 'name': 'Thumbay Pharmacy', 'name:en': 'Thumbay Pharmacy'}}"
"{'type': 'node', 'id': 4572852074, 'lat': 25.3718165, 'lon': 55.3982146, 'tags': {'amenity': 'pharmacy', 'name': 'Meezan Altabiah Pharmacy', 'name:en': 'Meezan Altabiah Pharmacy', 'source': 'Kaart Ground Survey 2017'}}"
"{'type': 'node', 'id': 4579729712, 'lat': 25.2479057, 'lon': 55.3020605, 'tags': {'amenity': 'clinic', 'healthcare': 'clinic', 'name': 'Aster', 'name:en': 'Aster'}}"
"{'type': 'node', 'id': 4584884494, 'lat': 25.2015166, 'lon': 55.2697983, 'tags': {'amenity': 'pharmacy', 'healthcare': 'pharmacy'}}"
"{'type': 'node', 'id': 4584886694, 'lat': 25.2636033, 'lon': 55.2909191, 'tags': {'amenity': 'pharmacy', 'healthcare': 'pharmacy', 'name': 'Al Rafah Pharmacy', 'name:en': 'Al Rafah Pharmacy'}}"
"{'type': 'node', 'id': 4584912591, 'lat': 25.2637553, 'lon': 55.2905345, 'tags': {'amenity': 'clinic', 'healthcare': 'clinic', 'name': 'Al Rashidiyah Polyclinin', 'name:en': 'Al Rashidiyah Polyclinin'}}"
"{'type': 'node', 'id': 4588679733, 'lat': 25.3522215, 'lon': 55.3863677, 'tags': {'amenity': 'pharmacy', 'name': 'Aster Pharmacy', 'name:en': 'Aster Pharmacy'}}"
"{'type': 'node', 'id': 4588754480, 'lat': 25.3639547, 'lon': 55.3999152, 'tags': {'addr:street': ""Al Zahra'a Street"", 'amenity': 'pharmacy', 'name': 'Marhaba Pharmacy', 'name:en': 'Marhaba Pharmacy', 'source': 'Kaart Ground Survey 2017'}}"
"{'type': 'node', 'id': 4595532992, 'lat': 25.3235039, 'lon': 55.3825989, 'tags': {'addr:street': 'Al Durra Center 6F', 'amenity': 'dentist', 'healthcare': 'dentist', 'name': 'Al Faiha Medical Center', 'name:en': 'Al Faiha Medical Center', 'opening_hours': 'Mo, We, Sa 10:00-15:00'}}"
"{'type': 'node', 'id': 4596876790, 'lat': 25.4042107, 'lon': 55.4412919, 'tags': {'amenity': 'hospital', 'name': 'Ibin Sina', 'name:en': 'Ibin Sina'}}"
"{'type': 'node', 'id': 4596876892, 'lat': 25.5012039, 'lon': 55.5992492, 'tags': {'amenity': 'hospital', 'healthcare': 'hospital', 'internet_access': 'wlan', 'name': 'مستشفى الشيخ خليفة العام', 'name:ar': 'مستشفى الشيخ خليفة العام', 'name:en': 'Sheikh Khalifa General Hospital', 'opening_hours': '24/7'}}"
"{'type': 'node', 'id': 4596876893, 'lat': 25.4078571, 'lon': 55.4425217, 'tags': {'amenity': 'hospital', 'name': 'Kuwaiti Hospital', 'name:en': 'Kuwaiti Hospital'}}"
"{'type': 'node', 'id': 4596882290, 'lat': 25.4029129, 'lon': 55.4424832, 'tags': {'amenity': 'hospital', 'name': 'Amina Hospital', 'name:en': 'Amina Hospital'}}"
"{'type': 'node', 'id': 4600408591, 'lat': 25.3888916, 'lon': 55.4488675, 'tags': {'addr:housenumber': 'Abu Jemeza 76/8', 'addr:street': 'King Faisal Street, Nuaimeya 2', 'amenity': 'clinic', 'name': 'Pearl Medical Centre', 'name:en': 'Pearl Medical Centre'}}"
"{'type': 'node', 'id': 4600409090, 'lat': 25.3541493, 'lon': 55.3862122, 'tags': {'addr:housenumber': '635 al Arouba', 'addr:street': 'Al Arouba Street', 'amenity': 'clinic', 'name': 'Jawad Medical Centre', 'name:en': 'Jawad Medical Centre'}}"
"{'type': 'node', 'id': 4603319852, 'lat': 25.3032273, 'lon': 55.3714992, 'tags': {'addr:street': 'Gernata Street', 'amenity': 'pharmacy', 'healthcare': 'pharmacy', 'name': 'Bright pharmacy', 'name:en': 'Bright pharmacy', 'phone': '06-5313553'}}"
"{'type': 'node', 'id': 4609259892, 'lat': 25.3587851, 'lon': 55.3894197, 'tags': {'addr:street': 'Al Arouba Street', 'amenity': 'clinic', 'name': 'Al Saha AL Shifa Hospital', 'name:en': 'Al Saha AL Shifa Hospital', 'source': 'Kaart Ground Survey 2017'}}"
"{'type': 'node', 'id': 4609259893, 'lat': 25.3108381, 'lon': 55.3738347, 'tags': {'addr:street': 'Al Taawun Street', 'amenity': 'clinic', 'healthcare': 'clinic', 'name': 'Medcare Medical Centre Sharjah', 'name:en': 'Medcare Medical Centre Sharjah', 'source': 'Kaart Ground Survey 2017'}}"
"{'type': 'node', 'id': 4609259894, 'lat': 25.3560083, 'lon': 55.3895377, 'tags': {'amenity': 'clinic', 'name': 'Reem Medical Centre', 'name:en': 'Reem Medical Centre'}}"
"{'type': 'node', 'id': 4609259895, 'lat': 25.3328171, 'lon': 55.3965206, 'tags': {'amenity': 'clinic', 'name': 'Dhaw Al Qamar Medical Centre', 'name:en': 'Dhaw Al Qamar Medical Centre'}}"
"{'type': 'node', 'id': 4609265091, 'lat': 25.34253, 'lon': 55.3857663, 'tags': {'addr:street': 'Corniche Street', 'amenity': 'hospital', 'name': 'NMC Medical Centre Sharjah', 'name:en': 'NMC Medical Centre Sharjah'}}"
"{'type': 'node', 'id': 4609265092, 'lat': 25.3340179, 'lon': 55.3922568, 'tags': {'addr:street': 'King Faisal Street', 'amenity': 'clinic', 'name': 'Sabah Al-Noor Medical Centre', 'name:en': 'Sabah Al-Noor Medical Centre', 'source': 'Kaart Ground Survey 2017'}}"
"{'type': 'node', 'id': 4609265094, 'lat': 25.3328916, 'lon': 55.3973426, 'tags': {'addr:street': '22 Street', 'amenity': 'pharmacy', 'name': 'Dhaw Al Qamar', 'name:en': 'Dhaw Al Qamar', 'source': 'Kaart Ground Survey 2017'}}"
"{'type': 'node', 'id': 4609268292, 'lat': 25.3587636, 'lon': 55.3903474, 'tags': {'amenity': 'pharmacy', 'name': 'Peshawar Pharmacy', 'name:en': 'Peshawar Pharmacy'}}"
"{'type': 'node', 'id': 4666002689, 'lat': 25.2697697, 'lon': 55.3012872, 'tags': {'addr:street': '18th Street', 'amenity': 'pharmacy', 'healthcare': 'pharmacy', 'name': 'صيدلية لايف', 'name:ar': 'صيدلية لايف', 'name:en': 'Life pharmacy'}}"
"{'type': 'node', 'id': 4705528189, 'lat': 25.3905371, 'lon': 55.4938746, 'tags': {'amenity': 'pharmacy'}}"
"{'type': 'node', 'id': 4705528190, 'lat': 25.3901179, 'lon': 55.4940081, 'tags': {'amenity': 'pharmacy'}}"
"{'type': 'node', 'id': 4706631790, 'lat': 25.381029, 'lon': 55.462351, 'tags': {'addr:street': 'Al Ittihad Street', 'amenity': 'hospital', 'internet_access': 'wlan', 'name': 'Thumbay Hospital ajman', 'name:en': 'Thumbay Hospital ajman', 'website': 'https://www.thumbayhospitals.com/'}}"
"{'type': 'node', 'id': 4710152859, 'lat': 26.1992332, 'lon': 56.251324, 'tags': {'amenity': 'pharmacy', 'name': 'Pharmacy', 'name:en': 'Pharmacy'}}"
"{'type': 'node', 'id': 4712230389, 'lat': 25.2302989, 'lon': 55.3240127, 'tags': {'amenity': 'hospital', 'healthcare': 'hospital', 'name': 'institute of Medical Aesthetic', 'name:en': 'institute of Medical Aesthetic', 'wheelchair': 'limited'}}"
"{'type': 'node', 'id': 4725334612, 'lat': 25.2093264, 'lon': 55.2729209, 'tags': {'amenity': 'pharmacy', 'healthcare': 'pharmacy', 'name': 'Swiss Pharmacy', 'name:en': 'Swiss Pharmacy'}}"
"{'type': 'node', 'id': 4725421663, 'lat': 25.2073571, 'lon': 55.2738188, 'tags': {'amenity': 'pharmacy', 'healthcare': 'pharmacy', 'name': 'Life Pharmacy', 'name:en': 'Life Pharmacy', 'opening_hours': '24/7', 'website': 'https://www.life-me.com', 'wheelchair': 'yes'}}"
"{'type': 'node', 'id': 4728122293, 'lat': 25.3565065, 'lon': 55.3924779, 'tags': {'addr:housenumber': '303', 'addr:postcode': '00000', 'addr:street': 'Al Zahra Street', 'amenity': 'clinic', 'email': 'abrahamsmedical@gmail.com', 'internet_access': 'wlan', 'opening_hours': '24/7', 'operator': 'Dr Mathews Abraham', 'phone': '065612737', 'website': 'http://abrahamsmedical.com'}}"
"{'type': 'node', 'id': 4739311327, 'lat': 25.5968304, 'lon': 56.2717829, 'tags': {'amenity': 'pharmacy', 'name': 'صيدلية', 'name:ar': 'صيدلية'}}"
"{'type': 'node', 'id': 4739316825, 'lat': 25.464694, 'lon': 55.9787488, 'tags': {'amenity': 'pharmacy', 'name': 'صيدلية', 'name:ar': 'صيدلية'}}"
"{'type': 'node', 'id': 4741454634, 'lat': 25.2574151, 'lon': 55.306581, 'tags': {'addr:street': 'Sheikh Khalifa Bin Zayed Street', 'amenity': 'hospital', 'healthcare': 'hospital', 'internet_access': 'wlan', 'name': 'Medeor 24x7 Hospital', 'name:en': 'Medeor 24x7 Hospital', 'opening_hours': '24/7', 'phone': '+97143500600', 'website': 'https://www.medeor247dubai.com/', 'wheelchair': 'limited'}}"
"{'type': 'node', 'id': 4762503251, 'lat': 25.7719538, 'lon': 55.9765925, 'tags': {'amenity': 'hospital', 'name': 'Mustashfa Sagar', 'name:en': 'Mustashfa Sagar'}}"
"{'type': 'node', 'id': 4770793121, 'lat': 25.4014668, 'lon': 55.4482998, 'tags': {'amenity': 'pharmacy', 'name': 'Al Umm Pharmacy', 'name:en': 'Al Umm Pharmacy'}}"
"{'type': 'node', 'id': 4787925432, 'lat': 25.3427385, 'lon': 55.3858964, 'tags': {'addr:postcode': '25262', 'addr:street': 'Corniche Street', 'amenity': 'hospital', 'email': 'hospitalshj@nmc.ae', 'name': 'New Medical Center', 'name:en': 'New Medical Center', 'phone': '065758000'}}"
"{'type': 'node', 'id': 4795760723, 'lat': 25.2149589, 'lon': 55.3749448, 'tags': {'amenity': 'clinic', 'name': 'al badia dental clinic', 'name:en': 'al badia dental clinic'}}"
"{'type': 'node', 'id': 4828196524, 'lat': 25.2457687, 'lon': 55.4501987, 'tags': {'amenity': 'clinic', 'name': 'مركز صحي المزهر', 'name:ar': 'مركز صحي المزهر'}}"
"{'type': 'node', 'id': 4828661025, 'lat': 25.2889419, 'lon': 55.446642, 'tags': {'amenity': 'pharmacy', 'name': 'City Pharmacy Sharjah', 'name:en': 'City Pharmacy Sharjah'}}"
"{'type': 'node', 'id': 4828683023, 'lat': 25.3124463, 'lon': 55.4575022, 'tags': {'addr:street': 'University City Road 120 Street', 'amenity': 'pharmacy', 'name': 'Bin Ghelita Pharmacy', 'name:en': 'Bin Ghelita Pharmacy'}}"
"{'type': 'node', 'id': 4828683024, 'lat': 25.402974, 'lon': 55.441686, 'tags': {'amenity': 'pharmacy', 'name': 'Emirates Pharmacy Ajman', 'name:en': 'Emirates Pharmacy Ajman'}}"
"{'type': 'node', 'id': 4828687821, 'lat': 25.2229997, 'lon': 55.5043562, 'tags': {'addr:street': 'Al Khawaneej Road', 'amenity': 'pharmacy', 'name': 'Al Khawaneej Pharmacy', 'name:en': 'Al Khawaneej Pharmacy'}}"
"{'type': 'node', 'id': 4828687822, 'lat': 25.2458545, 'lon': 55.4889779, 'tags': {'addr:street': 'khawaneej', 'amenity': 'pharmacy', 'healthcare': 'pharmacy'}}"
"{'type': 'node', 'id': 4830533029, 'lat': 25.224725, 'lon': 55.418221, 'tags': {'addr:street': '24B Street', 'amenity': 'pharmacy', 'name': 'Mirdif Pharmacy', 'name:en': 'Mirdif Pharmacy'}}"
"{'type': 'node', 'id': 4830533030, 'lat': 25.23913, 'lon': 55.301674, 'tags': {'addr:street': '4 C Street', 'amenity': 'pharmacy', 'healthcare': 'pharmacy', 'name': 'Hafsa Pharmacy', 'name:en': 'Hafsa Pharmacy'}}"
"{'type': 'node', 'id': 4830533132, 'lat': 25.234572, 'lon': 55.320743, 'tags': {'addr:street': '319-19th Street', 'amenity': 'pharmacy', 'healthcare': 'pharmacy', 'name': 'Modern Pharmacy', 'name:en': 'Modern Pharmacy'}}"
"{'type': 'node', 'id': 4890772876, 'lat': 25.2602495, 'lon': 55.3322044, 'tags': {'addr:street': 'Al Ittihad Road', 'amenity': 'pharmacy', 'healthcare': 'pharmacy', 'name': 'GMC Pharmacy', 'name:en': 'GMC Pharmacy', 'source': 'Kaart Ground Survey 2017'}}"
"{'type': 'node', 'id': 4890772880, 'lat': 25.2605806, 'lon': 55.3326094, 'tags': {'addr:street': 'Al Ittihad Road', 'amenity': 'clinic', 'healthcare': 'clinic', 'name': 'Gulf Medical Centre', 'name:en': 'Gulf Medical Centre', 'source': 'Kaart Ground Survey 2017'}}"
"{'type': 'node', 'id': 4892812473, 'lat': 25.257763, 'lon': 55.2989924, 'tags': {'addr:street': 'Khalid Bin Waleed Road', 'amenity': 'pharmacy', 'healthcare': 'pharmacy', 'name': 'Al Anber Pharmacy', 'name:en': 'Al Anber Pharmacy', 'source': 'Kaart Ground Survey 2017'}}"
"{'type': 'node', 'id': 4892824357, 'lat': 25.2598402, 'lon': 55.294634, 'tags': {'addr:street': 'Khalid Bin Waleed Road', 'amenity': 'pharmacy', 'name': 'Life', 'name:en': 'Buniyad', 'source': 'Kaart Ground Survey 2017'}}"
"{'type': 'node', 'id': 4892824368, 'lat': 25.2589202, 'lon': 55.2966839, 'tags': {'addr:street': 'Khalid Bin Waleed Road', 'amenity': 'pharmacy', 'healthcare': 'pharmacy', 'name': 'Aster Pharmacy', 'name:en': 'Aster Pharmacy', 'source': 'Kaart Ground Survey 2017'}}"
"{'type': 'node', 'id': 4898199655, 'lat': 25.2591252, 'lon': 55.2903244, 'tags': {'addr:street': 'Khalid Bin Waleed Road', 'amenity': 'pharmacy', 'healthcare': 'pharmacy', 'name': 'Atlas Healthcare Pharmacy', 'name:en': 'Atlas Healthcare Pharmacy', 'source': 'Kaart Ground Survey 2017'}}"
"{'type': 'node', 'id': 4898199675, 'lat': 25.2585964, 'lon': 55.2963164, 'tags': {'addr:street': 'Khalid Bin Waleed Road', 'amenity': 'pharmacy', 'healthcare': 'pharmacy', 'name': 'Al Nausar Pharmacy', 'name:en': 'Al Nausar Pharmacy', 'source': 'Kaart Ground Survey 2017'}}"
"{'type': 'node', 'id': 4898199680, 'lat': 25.2564835, 'lon': 55.3003854, 'tags': {'addr:street': 'Khalid Bin Waleed Road', 'amenity': 'pharmacy', 'healthcare': 'pharmacy', 'name': 'Aster Pharmacy', 'name:en': 'Aster Pharmacy', 'source': 'Kaart Ground Survey 2017'}}"
"{'type': 'node', 'id': 4898199681, 'lat': 25.2564326, 'lon': 55.3005088, 'tags': {'addr:street': 'Khalid Bin Waleed Road', 'amenity': 'pharmacy', 'healthcare': 'pharmacy', 'name': 'Life', 'name:en': 'Life', 'source': 'Kaart Ground Survey 2017'}}"
"{'type': 'node', 'id': 4898199888, 'lat': 25.2595497, 'lon': 55.288754, 'tags': {'addr:city': 'دبي', 'addr:city:ar': 'دبي', 'addr:street': 'طريق خالد بن الوليد', 'addr:street:ar': 'طريق خالد بن الوليد', 'amenity': 'clinic', 'healthcare': 'clinic', 'healthcare:speciality': 'orthopaedics'}}"
"{'type': 'node', 'id': 4899038527, 'lat': 25.2670078, 'lon': 55.4162758, 'tags': {'amenity': 'clinic', 'name': 'sona pur medical', 'name:en': 'sona pur medical'}}"
"{'type': 'node', 'id': 4900600642, 'lat': 25.2572189, 'lon': 55.2870243, 'tags': {'addr:street': 'AL Rolla Street', 'amenity': 'clinic', 'name': 'Oxford Medical Centre', 'name:en': 'Country Store', 'source': 'Kaart Ground Survey 2017'}}"
"{'type': 'node', 'id': 4900600653, 'lat': 25.2570142, 'lon': 55.2925923, 'tags': {'addr:street': 'Al Rolla Street', 'amenity': 'pharmacy', 'healthcare': 'pharmacy', 'name': 'Aster', 'name:en': 'Al Shaimaa', 'opening_hours': 'Mo-Su 09:00-01:00', 'source': 'Kaart Ground Survey 2017'}}"
"{'type': 'node', 'id': 4902399718, 'lat': 25.2573339, 'lon': 55.2856091, 'tags': {'addr:street': 'AL Rolla Street', 'amenity': 'pharmacy', 'name': 'Al Rolla', 'name:en': 'Al Rolla', 'source': 'Kaart Ground Survey 2017'}}"
"{'type': 'node', 'id': 4902798419, 'lat': 25.2569726, 'lon': 55.2901368, 'tags': {'addr:street': 'Al Rolla Street', 'amenity': 'restaurant', 'healthcare': 'pharmacy', 'name': 'FarmHouse', 'name:en': 'Life', 'source': 'Kaart Ground Survey 2017'}}"
"{'type': 'node', 'id': 4902841739, 'lat': 25.2519726, 'lon': 55.3089952, 'tags': {'amenity': 'clinic', 'healthcare': 'clinic', 'name': 'Medical Center', 'name:en': 'Medical Center', 'source': 'Kaart Ground Survey 2017'}}"
"{'type': 'node', 'id': 4902841741, 'lat': 25.2521218, 'lon': 55.3088491, 'tags': {'addr:city': 'دبي', 'addr:city:ar': 'دبي', 'amenity': 'pharmacy', 'diet:halal': 'yes', 'healthcare': 'pharmacy'}}"
"{'type': 'node', 'id': 4902841755, 'lat': 25.251268, 'lon': 55.3091937, 'tags': {'addr:street': ""Za'abeel Street"", 'amenity': 'pharmacy', 'healthcare': 'pharmacy', 'name': 'Nice Life Pharmacy', 'name:en': 'Nice Life Pharmacy', 'source': 'Kaart Ground Survey 2017'}}"
"{'type': 'node', 'id': 4902841758, 'lat': 25.2455341, 'lon': 55.3100708, 'tags': {'amenity': 'pharmacy', 'healthcare': 'pharmacy', 'name': 'Alpha Star Pharmacy', 'name:en': 'Alpha Star Pharmacy', 'source': 'Kaart Ground Survey 2017'}}"
"{'type': 'node', 'id': 4902962693, 'lat': 25.2477199, 'lon': 55.304815, 'tags': {'addr:street': '17a Street', 'amenity': 'pharmacy', 'healthcare': 'pharmacy', 'name': 'Life', 'name:en': 'Life', 'source': 'Kaart Ground Survey 2017'}}"
"{'type': 'node', 'id': 4902962725, 'lat': 25.2477503, 'lon': 55.3026452, 'tags': {'amenity': 'pharmacy', 'healthcare': 'pharmacy', 'name': 'Aster Pharmacy', 'name:en': 'Aster Pharmacy', 'source': 'Kaart Ground Survey 2017'}}"
"{'type': 'node', 'id': 4902962727, 'lat': 25.2475259, 'lon': 55.3025224, 'tags': {'amenity': 'pharmacy', 'healthcare': 'pharmacy', 'name': 'Amigo Pharmacy', 'name:en': 'Amigo Pharmacy', 'source': 'Kaart Ground Survey 2017'}}"
"{'type': 'node', 'id': 4902962745, 'lat': 25.2455245, 'lon': 55.3022052, 'tags': {'amenity': 'clinic', 'healthcare': 'clinic', 'name': 'Al Fida Medical Centre', 'name:en': 'Al Fida Medical Centre', 'source': 'Kaart Ground Survey 2017'}}"
"{'type': 'node', 'id': 4902962763, 'lat': 25.2464488, 'lon': 55.3029408, 'tags': {'amenity': 'dentist', 'healthcare': 'dentist', 'name': 'Homeopath Dental', 'name:en': 'Homeopath Dental', 'source': 'Kaart Ground Survey 2017'}}"
"{'type': 'node', 'id': 4904085064, 'lat': 25.2459947, 'lon': 55.307542, 'tags': {'addr:street': ""Za'abeel Street"", 'amenity': 'clinic', 'healthcare': 'clinic', 'name': 'AGTA Health Care Solutions', 'name:en': 'AGTA Health Care Solutions', 'source': 'Kaart Ground Survey 2017'}}"
"{'type': 'node', 'id': 4904085067, 'lat': 25.2455575, 'lon': 55.3074303, 'tags': {'addr:street': ""Za'abeel Street"", 'amenity': 'pharmacy', 'healthcare': 'pharmacy', 'name': 'Al Ameen', 'name:en': 'Al Ameen', 'source': 'Kaart Ground Survey 2017'}}"
"{'type': 'node', 'id': 4904384871, 'lat': 25.2458022, 'lon': 55.3064256, 'tags': {'addr:street': '18A Street', 'amenity': 'pharmacy', 'healthcare': 'pharmacy', 'name': 'Well Fast', 'name:en': 'Well Fast', 'source': 'Kaart Ground Survey 2017'}}"
"{'type': 'node', 'id': 4904384906, 'lat': 25.2481785, 'lon': 55.3068696, 'tags': {'addr:street': '13B Street', 'amenity': 'pharmacy', 'healthcare': 'pharmacy', 'name': 'Four Seasons Pharmacy', 'name:en': 'Four Seasons Pharmacy', 'source': 'Kaart Ground Survey 2017'}}"
"{'type': 'node', 'id': 4904390759, 'lat': 25.2477606, 'lon': 55.3030756, 'tags': {'addr:street': '6A Street', 'amenity': 'pharmacy', 'healthcare': 'pharmacy', 'name': 'Aster Pharmacy', 'name:en': 'Aster Pharmacy', 'source': 'Kaart Ground Survey 2017'}}"
"{'type': 'node', 'id': 4904390760, 'lat': 25.2475799, 'lon': 55.3029837, 'tags': {'addr:street': '6A Street', 'amenity': 'clinic', 'healthcare': 'clinic', 'name': 'Aster Medical Center', 'name:en': 'Aster Medical Center', 'source': 'Kaart Ground Survey 2017'}}"
"{'type': 'node', 'id': 4904390781, 'lat': 25.2457858, 'lon': 55.3025928, 'tags': {'addr:street': 'Kuwait Street', 'amenity': 'pharmacy', 'healthcare': 'pharmacy', 'name': 'Aster Pharmacy', 'name:en': 'Aster Pharmacy', 'source': 'Kaart Ground Survey 2017'}}"
"{'type': 'node', 'id': 4904420693, 'lat': 25.2360448, 'lon': 55.2777779, 'tags': {'addr:street': '2nd December Street', 'amenity': 'pharmacy', 'healthcare': 'pharmacy', 'name': 'Mede Pharmacy', 'name:en': 'Mede Pharmacy', 'source': 'Kaart Ground Survey 2017'}}"
"{'type': 'node', 'id': 4904420696, 'lat': 25.2364796, 'lon': 55.2771736, 'tags': {'addr:street': '2nd December Street', 'amenity': 'pharmacy', 'healthcare': 'pharmacy', 'name': 'O2 Pharmacy', 'name:en': 'O2 Pharmacy', 'source': 'Kaart Ground Survey 2017'}}"
"{'type': 'node', 'id': 4904444647, 'lat': 25.2374174, 'lon': 55.275824, 'tags': {'addr:street': '2nd December Street', 'amenity': 'pharmacy', 'healthcare': 'pharmacy', 'name': 'Binsina', 'name:en': 'Binsina', 'source': 'Kaart Ground Survey 2017'}}"
"{'type': 'node', 'id': 4904469660, 'lat': 25.2360707, 'lon': 55.2708787, 'tags': {'addr:street': 'Al Wasl Road', 'amenity': 'clinic', 'healthcare': 'clinic', 'name': 'Ear Care', 'name:en': 'Ear Care', 'source': 'Kaart Ground Survey 2017'}}"
"{'type': 'node', 'id': 4904469661, 'lat': 25.2352624, 'lon': 55.270489, 'tags': {'addr:street': 'Al Wasl Road', 'amenity': 'clinic', 'healthcare': 'clinic', 'name': 'Almoosa Clinics', 'name:en': 'Almoosa Clinics', 'source': 'Kaart Ground Survey 2017'}}"
"{'type': 'node', 'id': 4904469662, 'lat': 25.2343308, 'lon': 55.2700825, 'tags': {'addr:street': 'Al Wasl Road', 'amenity': 'clinic', 'healthcare': 'clinic', 'name': 'Roya Medical Center', 'name:en': 'Roya Medical Center', 'source': 'Kaart Ground Survey 2017'}}"
"{'type': 'node', 'id': 4904469664, 'lat': 25.2322197, 'lon': 55.268999, 'tags': {'addr:street': 'Al Wasl Road', 'amenity': 'clinic', 'healthcare': 'clinic', 'name': 'Scc Spine Centre', 'name:en': 'Scc Spine Centre', 'source': 'Kaart Ground Survey 2017'}}"
"{'type': 'node', 'id': 4904469665, 'lat': 25.2310269, 'lon': 55.2682432, 'tags': {'addr:street': 'Al Wasl Road', 'amenity': 'pharmacy', 'healthcare': 'pharmacy', 'name': 'Al Diyafah Pharmacy', 'name:en': 'Al Diyafah Pharmacy', 'source': 'Kaart Ground Survey 2017'}}"
"{'type': 'node', 'id': 4904659334, 'lat': 25.2364512, 'lon': 55.2762375, 'tags': {'addr:street': '2nd December Street', 'amenity': 'pharmacy', 'healthcare': 'pharmacy', 'name': 'Jumeira Pharmacy', 'name:en': 'Jumeira Pharmacy', 'source': 'Kaart Ground Survey 2017'}}"
"{'type': 'node', 'id': 4904673074, 'lat': 25.2376184, 'lon': 55.2744889, 'tags': {'addr:street': '2nd December Street', 'amenity': 'pharmacy', 'healthcare': 'pharmacy', 'name': 'Sondos Pharmacy', 'name:en': 'Sondos Pharmacy', 'source': 'Kaart Ground Survey 2017'}}"
"{'type': 'node', 'id': 4904673084, 'lat': 25.2365737, 'lon': 55.2715717, 'tags': {'addr:street': 'Al Wasl Road', 'amenity': 'pharmacy', 'healthcare': 'pharmacy', 'name': 'Life Pharmacy', 'name:en': 'Life Pharmacy', 'source': 'Kaart Ground Survey 2017'}}"
"{'type': 'node', 'id': 4904855202, 'lat': 25.2518759, 'lon': 55.2883326, 'tags': {'addr:street': 'Kuwait Street', 'amenity': 'pharmacy', 'healthcare': 'pharmacy', 'name': 'Aster', 'name:en': 'Aster', 'source': 'Kaart Ground Survey 2017'}}"
"{'type': 'node', 'id': 4904936986, 'lat': 25.2622073, 'lon': 55.3275706, 'tags': {'addr:street': '26c Street', 'amenity': 'dentist', 'healthcare': 'dentist', 'name': 'Ilham Dental Clinic', 'name:en': 'Ilham Dental Clinic', 'source': 'Kaart Ground Survey 2017'}}"
"{'type': 'node', 'id': 4904979519, 'lat': 25.2373096, 'lon': 55.3018773, 'tags': {'addr:street': '16 Street', 'amenity': 'pharmacy', 'healthcare': 'pharmacy', 'name': 'A Rayan Pharmacy', 'name:en': 'A Rayan Pharmacy', 'source': 'Kaart Ground Survey 2017'}}"
"{'type': 'node', 'id': 4904979636, 'lat': 25.2387144, 'lon': 55.302281, 'tags': {'addr:street': '43a Street', 'amenity': 'pharmacy', 'healthcare': 'pharmacy', 'name': 'Life', 'name:en': 'Life', 'shop': 'computer', 'source': 'Kaart Ground Survey 2017'}}"
"{'type': 'node', 'id': 4904979685, 'lat': 25.2404891, 'lon': 55.2994439, 'tags': {'addr:street': '43a Street', 'amenity': 'pharmacy', 'healthcare': 'pharmacy', 'name': 'Aster Pharmacy', 'name:en': 'Aster Pharmacy', 'source': 'Kaart Ground Survey 2017'}}"
"{'type': 'node', 'id': 4904979861, 'lat': 25.2364662, 'lon': 55.3035333, 'tags': {'addr:street': '47c Street', 'amenity': 'clinic', 'healthcare': 'clinic', 'name': 'Meillin Personal Care', 'name:en': 'Meillin Personal Care', 'source': 'Kaart Ground Survey 2017'}}"
"{'type': 'node', 'id': 4904979865, 'lat': 25.2368138, 'lon': 55.3028379, 'tags': {'addr:street': '47c Street', 'amenity': 'clinic', 'healthcare': 'clinic', 'name': 'Abi Fidaa Medical Co.', 'name:en': 'Abi Fidaa Medical Co.', 'source': 'Kaart Ground Survey 2017'}}"
"{'type': 'node', 'id': 4906142539, 'lat': 25.2324662, 'lon': 55.3839056, 'tags': {'addr:street': '12 Street', 'amenity': 'pharmacy', 'name': 'Aster', 'name:en': 'Aster', 'source': 'Kaart Ground Survey 2017'}}"
"{'type': 'node', 'id': 4906336493, 'lat': 25.2623694, 'lon': 55.3253084, 'tags': {'addr:street': 'Al Rigga Street', 'amenity': 'pharmacy', 'fixme': 'name', 'source': 'Kaart Ground Survey 2017'}}"
"{'type': 'node', 'id': 4906426985, 'lat': 25.2244066, 'lon': 55.377872, 'tags': {'addr:street': '2a Street', 'amenity': 'pharmacy', 'name': 'Nad Shamma', 'name:en': 'Nad Shamma', 'source': 'Kaart Ground Survey 2017'}}"
"{'type': 'node', 'id': 4906429191, 'lat': 25.2624891, 'lon': 55.3274098, 'tags': {'addr:street': '26c Street', 'amenity': 'pharmacy', 'healthcare': 'pharmacy', 'name': 'Life', 'name:en': 'Life', 'source': 'Kaart Ground Survey 2017', 'wheelchair': 'yes'}}"
"{'type': 'node', 'id': 4906818827, 'lat': 25.2824954, 'lon': 55.335112, 'tags': {'addr:street': 'Al Rasheed road', 'amenity': 'pharmacy', 'name': 'Al Manama Pharmacy', 'name:en': 'Al Manama Pharmacy', 'source': 'Kaart Ground Survey 2017'}}"
"{'type': 'node', 'id': 4910969769, 'lat': 25.1934569, 'lon': 55.406517, 'tags': {'addr:street': '414 Street', 'amenity': 'clinic', 'clinic': 'cosmetic', 'name': 'Aster Beauty Clinic', 'name:en': 'Aster Beauty Clinic', 'source': 'Kaart Ground Survey 2017'}}"
"{'type': 'node', 'id': 4911003581, 'lat': 25.1891791, 'lon': 55.4083103, 'tags': {'addr:street': '23 Street', 'amenity': 'clinic', 'name': 'Aster Clinic', 'name:en': 'Aster Clinic', 'source': 'Kaart Ground Survey 2017'}}"
"{'type': 'node', 'id': 4911003592, 'lat': 25.1848654, 'lon': 55.4092336, 'tags': {'addr:street': '414 Street', 'amenity': 'pharmacy', 'fixme': 'name', 'source': 'Kaart Ground Survey 2017'}}"
"{'type': 'node', 'id': 4911044799, 'lat': 25.2269976, 'lon': 55.3972489, 'tags': {'addr:street': '49c Street', 'amenity': 'pharmacy', 'fixme': 'name', 'source': 'Kaart Ground Survey 2017'}}"
"{'type': 'node', 'id': 4911312287, 'lat': 25.2642654, 'lon': 55.3294435, 'tags': {'amenity': 'pharmacy', 'drive_through': 'no', 'healthcare': 'pharmacy', 'name': 'Deira Life Pharmacy', 'operator': 'LIFE'}}"
"{'type': 'node', 'id': 4911325393, 'lat': 25.230977, 'lon': 55.2717439, 'tags': {'addr:street': 'Street 8a', 'amenity': 'pharmacy', 'healthcare': 'pharmacy', 'name': 'Medicom', 'name:en': 'Medicom', 'source': 'Kaart Ground Survey 2017'}}"
"{'type': 'node', 'id': 4911547884, 'lat': 25.2329588, 'lon': 55.277124, 'tags': {'addr:street': 'Al Satwa Street', 'amenity': 'pharmacy', 'healthcare': 'pharmacy', 'name': 'Ghazal Jumairah', 'name:en': 'Ghazal Jumairah', 'source': 'Kaart Ground Survey 2017'}}"
"{'type': 'node', 'id': 4911595251, 'lat': 25.2302616, 'lon': 55.2718696, 'tags': {'addr:street': 'Al Hudaiba Street', 'amenity': 'pharmacy', 'healthcare': 'pharmacy', 'name': 'Four Seasons', 'name:en': 'Four Seasons', 'source': 'Kaart Ground Survey 2017'}}"
"{'type': 'node', 'id': 4911602134, 'lat': 25.2262638, 'lon': 55.385474, 'tags': {'addr:street': '33a Street', 'amenity': 'pharmacy', 'name': 'Nad Rashid Pharmacy', 'name:en': 'Nad Rashid Pharmacy', 'source': 'Kaart Ground Survey 2017'}}"
"{'type': 'node', 'id': 4911617443, 'lat': 25.1816673, 'lon': 55.2773854, 'tags': {'addr:street': 'Al Abraj Street', 'amenity': 'pharmacy', 'name': 'Life Pharmacy', 'name:en': 'Life Pharmacy', 'source': 'Kaart Ground Survey 2017'}}"
"{'type': 'node', 'id': 4911649155, 'lat': 25.1849401, 'lon': 55.3431222, 'tags': {'addr:street': 'Ras Al Khor Road', 'amenity': 'pharmacy', 'healthcare': 'pharmacy', 'name': 'Aster Pharmacy', 'name:en': 'Aster Pharmacy', 'source': 'Kaart Ground Survey 2017'}}"
"{'type': 'node', 'id': 4911649157, 'lat': 25.1849586, 'lon': 55.3433697, 'tags': {'addr:street': 'Ras Al Khor Road', 'amenity': 'clinic', 'healthcare': 'clinic', 'name': 'Al Taef East Medical Centre', 'name:en': 'Al Taef East Medical Centre', 'source': 'Kaart Ground Survey 2017'}}"
"{'type': 'node', 'id': 4911649158, 'lat': 25.1849568, 'lon': 55.3434475, 'tags': {'addr:street': 'Ras Al Khor Road', 'amenity': 'clinic', 'healthcare': 'clinic', 'name': 'Aster Clinic', 'name:en': 'Aster Clinic', 'source': 'Kaart Ground Survey 2017'}}"
"{'type': 'node', 'id': 4912873092, 'lat': 25.1885766, 'lon': 55.269344, 'tags': {'addr:street': 'Al Abraj Street', 'amenity': 'pharmacy', 'healthcare': 'pharmacy', 'name': 'Life Pharmacy', 'name:en': 'Life Pharmacy', 'source': 'Kaart Ground Survey 2017'}}"
"{'type': 'node', 'id': 4913089478, 'lat': 25.2594256, 'lon': 55.2940026, 'tags': {'addr:street': 'Khalid Bin Waleed Road', 'amenity': 'clinic', 'description': 'All types of laboratory tests: blood, urine, semen, stool analysis', 'healthcare': 'clinic', 'name': 'Gulf Care Diagnostic Center', 'name:en': 'Life Line', 'opening_hours': 'Mo-Su 07:00-23:00', 'phone': '+971 4 3278811', 'source': 'Kaart Ground Survey 2017'}}"
"{'type': 'node', 'id': 4913144146, 'lat': 25.1851169, 'lon': 55.3550768, 'tags': {'addr:street': 'Ras Al Khor Road', 'amenity': 'pharmacy', 'healthcare': 'pharmacy', 'name': 'Parmacy', 'name:en': 'Parmacy', 'source': 'Kaart Ground Survey 2017'}}"
"{'type': 'node', 'id': 4913268637, 'lat': 25.2619164, 'lon': 55.3274598, 'tags': {'addr:street': 'Al Rigga Street', 'amenity': 'pharmacy', 'healthcare': 'pharmacy', 'name': 'Green Apples Pharmacy', 'name:en': 'Green Apples Pharmacy', 'source': 'Kaart Ground Survey 2017'}}"
"{'type': 'node', 'id': 4913315116, 'lat': 25.2233825, 'lon': 55.376025, 'tags': {'addr:street': 'Nad Al Hamar Road', 'amenity': 'pharmacy', 'name': 'AL Ramool Pharmacy', 'name:en': 'AL Ramool Pharmacy', 'source': 'Kaart Ground Survey 2017'}}"
"{'type': 'node', 'id': 4913315430, 'lat': 25.2135055, 'lon': 55.3805657, 'tags': {'addr:street': 'Al Rebat Street', 'amenity': 'clinic', 'name': 'Ibn Al Hafees Medical Clinic', 'name:en': 'Ibn Al Hafees Medical Clinic', 'source': 'Kaart Ground Survey 2017'}}"
"{'type': 'node', 'id': 4913315431, 'lat': 25.2134797, 'lon': 55.3806036, 'tags': {'addr:street': 'Al Rebat Street', 'amenity': 'clinic', 'name': 'American Outpatient Clinic', 'name:en': 'American Outpatient Clinic', 'source': 'Kaart Ground Survey 2017'}}"
"{'type': 'node', 'id': 4913315433, 'lat': 25.2140524, 'lon': 55.3794715, 'tags': {'addr:street': 'Al Rebat Street', 'amenity': 'pharmacy', 'name': 'MedX Pharmacy', 'name:en': 'MedX Pharmacy', 'source': 'Kaart Ground Survey 2017'}}"
"{'type': 'node', 'id': 4913432807, 'lat': 25.2563758, 'lon': 55.2969638, 'tags': {'addr:street': 'Street 8a', 'amenity': 'pharmacy', 'healthcare': 'pharmacy', 'name': 'Aster', 'name:en': 'Aster', 'source': 'Kaart Ground Survey 2017'}}"
"{'type': 'node', 'id': 4913625595, 'lat': 25.2450278, 'lon': 55.2979317, 'tags': {'amenity': 'clinic', 'healthcare': 'clinic', 'name': 'Jupiter Specialty Medical Center.', 'name:en': 'Jupiter Specialty Medical Center', 'source': 'Kaart Ground Survey 2017'}}"
"{'type': 'node', 'id': 4913658853, 'lat': 25.2137938, 'lon': 55.3798334, 'tags': {'addr:street': 'Al Rebat Street', 'amenity': 'clinic', 'name': 'City Centre Clinic', 'name:en': 'City Centre Clinic', 'source': 'Kaart Ground Survey 2017'}}"
"{'type': 'node', 'id': 4914822624, 'lat': 25.2412521, 'lon': 55.2721895, 'tags': {'addr:street': 'AL Hudaiba, awards building', 'amenity': 'doctors', 'email': 'info@scoute.com', 'healthcare': 'doctor', 'name': 'Scientific Clinical Laboratories', 'name:en': 'Scientific Clinical Laboratories', 'opening_hours': 'Sa-Th 08:00-22:00', 'phone': '043586606', 'website': 'http://www.scluae.com', 'wheelchair': 'limited'}}"
"{'type': 'node', 'id': 4915271972, 'lat': 25.189214, 'lon': 55.3829768, 'tags': {'addr:street': '9 Street', 'amenity': 'pharmacy', 'name': 'Medicina Pharmacy', 'name:en': 'Medicina Pharmacy', 'source': 'Kaart Ground Survey 2017'}}"
"{'type': 'node', 'id': 4915587983, 'lat': 25.1652898, 'lon': 55.3976224, 'tags': {'amenity': 'clinic', 'name': 'GlobeHealth Polyclinic', 'name:en': 'GlobeHealth Polyclinic', 'source': 'Kaart Ground Survey 2017'}}"
"{'type': 'node', 'id': 4915607969, 'lat': 25.1692924, 'lon': 55.4095099, 'tags': {'amenity': 'clinic', 'name': 'Dua Clinic', 'name:en': 'Dua Clinic', 'source': 'Kaart Ground Survey 2017'}}"
"{'type': 'node', 'id': 4917320558, 'lat': 25.2271037, 'lon': 55.2742109, 'tags': {'addr:street': 'Satwa Road', 'amenity': 'pharmacy', 'healthcare': 'pharmacy', 'name': 'Al Ahram Pharmacy', 'name:en': 'Al Ahram Pharmacy', 'source': 'Kaart Ground Survey 2017'}}"
"{'type': 'node', 'id': 4917355510, 'lat': 25.2249171, 'lon': 55.2725847, 'tags': {'addr:street': 'Satwa Road', 'amenity': 'pharmacy', 'healthcare': 'pharmacy', 'name': 'Haji Pharmacy', 'name:en': 'Haji Pharmacy', 'source': 'Kaart Ground Survey 2017'}}"
"{'type': 'node', 'id': 4917369810, 'lat': 25.2568872, 'lon': 55.3336166, 'tags': {'amenity': 'clinic', 'healthcare': 'clinic', 'name': 'Al Tadawi Medical Centre', 'name:en': 'Al Tadawi Medical Centre', 'source': 'Kaart Ground Survey 2017'}}"
"{'type': 'node', 'id': 4917413001, 'lat': 25.2316663, 'lon': 55.2776049, 'tags': {'addr:street': 'Al Satwa Road', 'amenity': 'pharmacy', 'healthcare': 'pharmacy', 'name': 'Halifa Obaid Pharmacy', 'name:en': 'Halifa Obaid Pharmacy', 'source': 'Kaart Ground Survey 2017'}}"
"{'type': 'node', 'id': 4917628644, 'lat': 25.2870131, 'lon': 55.3580877, 'tags': {'amenity': 'pharmacy', 'healthcare': 'pharmacy', 'name': 'Zahrat Al Mamzar', 'name:en': 'Zahrat Al Mamzar', 'source': 'Kaart Ground Survey 2017'}}"
"{'type': 'node', 'id': 4919228443, 'lat': 25.23239, 'lon': 55.3860745, 'tags': {'amenity': 'pharmacy', 'source': 'Kaart Ground Survey 2017'}}"
"{'type': 'node', 'id': 4919361183, 'lat': 25.3066584, 'lon': 55.3661449, 'tags': {'addr:street': 'Al Taawun Street', 'amenity': 'pharmacy', 'brand': 'Aster Pharmacy', 'brand:wikidata': 'Q124453575', 'healthcare': 'pharmacy', 'name': 'Aster Pharmacy', 'name:en': 'Aster Pharmacy', 'source': 'Kaart Ground Survey 2017'}}"
"{'type': 'node', 'id': 4919361184, 'lat': 25.3062855, 'lon': 55.3655135, 'tags': {'addr:street': 'Al Taawun Street', 'amenity': 'pharmacy', 'healthcare': 'pharmacy', 'name': 'Al Iqbal Pharmacy', 'name:en': 'Al Iqbal Pharmacy', 'source': 'Kaart Ground Survey 2017'}}"
"{'type': 'node', 'id': 4919388564, 'lat': 25.2704698, 'lon': 55.3159696, 'tags': {'addr:street': 'Omar Bin Al Khattab Road', 'amenity': 'pharmacy', 'healthcare': 'pharmacy', 'name': 'Medze Pharmacy', 'name:en': 'Medze Pharmacy', 'source': 'Kaart Ground Survey 2017'}}"
"{'type': 'node', 'id': 4919712320, 'lat': 25.260816, 'lon': 55.3200788, 'tags': {'amenity': 'pharmacy', 'healthcare': 'pharmacy', 'name': 'Al Majlis Pharmacy', 'name:en': 'Al Majlis Pharmacy', 'source': 'Kaart Ground Survey 2017'}}"
"{'type': 'node', 'id': 4919751753, 'lat': 25.3028502, 'lon': 55.3690946, 'tags': {'amenity': 'pharmacy', 'brand': 'Aster Pharmacy', 'brand:wikidata': 'Q124453575', 'healthcare': 'pharmacy', 'name': 'Aster Pharmacy', 'name:en': 'Aster Pharmacy', 'name:fa': 'انصار مال', 'source': 'Kaart Ground Survey 2017'}}"
"{'type': 'node', 'id': 4919769563, 'lat': 25.3081572, 'lon': 55.3771151, 'tags': {'amenity': 'pharmacy', 'brand': 'Aster Pharmacy', 'brand:wikidata': 'Q124453575', 'healthcare': 'pharmacy', 'name': 'Aster Pharmacy', 'name:en': 'Aster Pharmacy', 'source': 'Kaart Ground Survey 2017'}}"
"{'type': 'node', 'id': 4919771799, 'lat': 25.2655836, 'lon': 55.3093825, 'tags': {'addr:street': '11 Street', 'amenity': 'pharmacy', 'healthcare': 'pharmacy', 'name': 'SBN Pharmacy', 'name:en': 'SBN Pharmacy', 'source': 'Kaart Ground Survey 2017'}}"
"{'type': 'node', 'id': 4919771802, 'lat': 25.2666934, 'lon': 55.3079123, 'tags': {'addr:street': 'Baniyas Road', 'amenity': 'pharmacy', 'healthcare': 'pharmacy', 'name': 'Creek Line Pharmacy', 'name:en': 'Creek Line Pharmacy', 'source': 'Kaart Ground Survey 2017'}}"
"{'type': 'node', 'id': 4919782931, 'lat': 25.2680771, 'lon': 55.3034808, 'tags': {'addr:street': 'Al Sabkha Road', 'amenity': 'pharmacy', 'name': 'Al Jazeerah Pharmacy', 'name:en': 'Al Jazeerah Pharmacy', 'source': 'Kaart Ground Survey 2017'}}"
"{'type': 'node', 'id': 4919815817, 'lat': 25.3192915, 'lon': 55.3871209, 'tags': {'amenity': 'pharmacy', 'healthcare': 'pharmacy', 'name': 'Al Huriah Pharmacy', 'name:en': 'Al Huriah Pharmacy', 'source': 'Kaart Ground Survey 2017'}}"
"{'type': 'node', 'id': 4919824334, 'lat': 25.3209764, 'lon': 55.3887182, 'tags': {'amenity': 'pharmacy', 'healthcare': 'pharmacy', 'name': 'Al Wahda Pharmacy', 'name:en': 'Al Wahda Pharmacy', 'source': 'Kaart Ground Survey 2017'}}"
"{'type': 'node', 'id': 4919838538, 'lat': 25.2663469, 'lon': 55.2957273, 'tags': {'addr:city': 'دبي', 'addr:street': 'شارع بني ياس', 'amenity': 'clinic', 'healthcare': 'clinic', 'name': 'Medwin Medical Centre', 'name:en': 'Medwin Medical Centre', 'wheelchair': 'limited'}}"
"{'type': 'node', 'id': 4919838539, 'lat': 25.2663144, 'lon': 55.2956728, 'tags': {'addr:street': 'Baniyas Road', 'amenity': 'pharmacy', 'healthcare': 'pharmacy', 'name': 'Ras Al Khor Pharmacy', 'name:en': 'Ras Al Khor Pharmacy', 'source': 'Kaart Ground Survey 2017', 'wheelchair': 'limited'}}"
"{'type': 'node', 'id': 4919848319, 'lat': 25.2679473, 'lon': 55.3007777, 'tags': {'addr:street': '24 Street', 'amenity': 'pharmacy', 'healthcare': 'pharmacy', 'name': 'Murshid Pharmacy', 'name:en': 'Murshid Pharmacy', 'source': 'Kaart Ground Survey 2017'}}"
"{'type': 'node', 'id': 4924456325, 'lat': 25.2287032, 'lon': 55.2760587, 'tags': {'addr:street': 'Street 19', 'amenity': 'pharmacy', 'healthcare': 'pharmacy', 'name': 'Luqman', 'name:en': 'Luqman', 'source': 'Kaart Ground Survey 2017'}}"
"{'type': 'node', 'id': 4924527560, 'lat': 25.3121809, 'lon': 55.3787534, 'tags': {'amenity': 'pharmacy', 'healthcare': 'pharmacy', 'name': 'Wahat al Mamzar Pharmacy', 'name:en': 'Wahat al Mamzar Pharmacy', 'source': 'Kaart Ground Survey 2017'}}"
"{'type': 'node', 'id': 4924531034, 'lat': 25.3459154, 'lon': 55.4012527, 'tags': {'addr:street': 'University City Road', 'amenity': 'pharmacy', 'name': 'Arif Pharmacy', 'name:en': 'Arif Pharmacy', 'source': 'Kaart Ground Survey 2017'}}"
"{'type': 'node', 'id': 4924554477, 'lat': 25.2786742, 'lon': 55.3149991, 'tags': {'addr:street': 'Omar Bin Al Khattab Road', 'amenity': 'pharmacy', 'source': 'Kaart Ground Survey 2017'}}"
"{'type': 'node', 'id': 4924573998, 'lat': 25.2791636, 'lon': 55.3127301, 'tags': {'addr:street': 'Omar Bin Al Khattab Road', 'amenity': 'pharmacy', 'name': 'Al Rasheed Pharmacy', 'name:en': 'Al Rasheed Pharmacy', 'source': 'Kaart Ground Survey 2017'}}"
"{'type': 'node', 'id': 4924604993, 'lat': 25.2880214, 'lon': 55.3230582, 'tags': {'addr:street': 'Al Khaleej Street', 'amenity': 'clinic', 'name': 'Chinese Medical Center', 'name:en': 'Chinese Medical Center', 'source': 'Kaart Ground Survey 2017'}}"
"{'type': 'node', 'id': 4924604999, 'lat': 25.2913757, 'lon': 55.3266906, 'tags': {'addr:street': 'Al Khaleej Street', 'amenity': 'pharmacy', 'name': 'Al Ahali Pharmacy', 'name:en': 'Al Ahali Pharmacy', 'source': 'Kaart Ground Survey 2017'}}"
"{'type': 'node', 'id': 4924644254, 'lat': 25.2596819, 'lon': 55.3273134, 'tags': {'addr:street': 'Abu Baker Al Siddique Road', 'amenity': 'clinic', 'name': 'Al Shifa', 'name:en': 'Al Shifa', 'source': 'Kaart Ground Survey 2017'}}"
"{'type': 'node', 'id': 4924644255, 'lat': 25.2595279, 'lon': 55.3272235, 'tags': {'addr:street': 'Abu Baker Al Siddique Road', 'amenity': 'pharmacy', 'healthcare': 'pharmacy', 'name': 'Al Rawda Pharmacy', 'name:en': 'Al Rawda Pharmacy', 'source': 'Kaart Ground Survey 2017'}}"
"{'type': 'node', 'id': 4924644310, 'lat': 25.2458192, 'lon': 55.3397924, 'tags': {'amenity': 'pharmacy', 'healthcare': 'pharmacy', 'name': 'Life Express Pharmacy', 'name:en': 'Life Express Pharmacy', 'source': 'Kaart Ground Survey 2017'}}"
"{'type': 'node', 'id': 4924644826, 'lat': 25.2475113, 'lon': 55.3386162, 'tags': {'addr:street': '2 Street', 'amenity': 'pharmacy', 'name': 'Family Health', 'name:en': 'Family Health', 'source': 'Kaart Ground Survey 2017'}}"
"{'type': 'node', 'id': 4924672709, 'lat': 25.3150362, 'lon': 55.3781048, 'tags': {'amenity': 'pharmacy', 'healthcare': 'pharmacy', 'name': 'Al Thigah Pharmacy', 'name:en': 'Al Thigah Pharmacy', 'source': 'Kaart Ground Survey 2017'}}"
"{'type': 'node', 'id': 4924672720, 'lat': 25.3139701, 'lon': 55.3772637, 'tags': {'amenity': 'pharmacy', 'healthcare': 'pharmacy', 'name': 'Oasis Pharmacy', 'name:en': 'Oasis Pharmacy', 'source': 'Kaart Ground Survey 2017'}}"
"{'type': 'node', 'id': 4924675930, 'lat': 25.3120466, 'lon': 55.3755472, 'tags': {'amenity': 'pharmacy', 'healthcare': 'pharmacy', 'name': 'Bait Al Maqdes', 'name:en': 'Bait Al Maqdes', 'source': 'Kaart Ground Survey 2017'}}"
"{'type': 'node', 'id': 4924736593, 'lat': 25.3174266, 'lon': 55.3766765, 'tags': {'addr:street': 'Al Taawun Street', 'amenity': 'pharmacy', 'healthcare': 'pharmacy', 'name': 'Golden Life Pharmacy', 'name:en': 'Golden Life Pharmacy', 'source': 'Kaart Ground Survey 2017'}}"
"{'type': 'node', 'id': 4924736609, 'lat': 25.3174538, 'lon': 55.3854452, 'tags': {'addr:street': 'Al Wahda Street', 'amenity': 'pharmacy', 'healthcare': 'pharmacy', 'name': 'Health First Pharmacy', 'name:en': 'Health First Pharmacy', 'source': 'Kaart Ground Survey 2017'}}"
"{'type': 'node', 'id': 4924777993, 'lat': 25.3124486, 'lon': 55.3764796, 'tags': {'amenity': 'pharmacy', 'brand': 'Aster Pharmacy', 'brand:wikidata': 'Q124453575', 'healthcare': 'pharmacy', 'name': 'Aster Pharmacy', 'name:en': 'Aster Pharmacy', 'source': 'Kaart Ground Survey 2017'}}"
"{'type': 'node', 'id': 4924777997, 'lat': 25.3141606, 'lon': 55.3754204, 'tags': {'addr:street': 'Al Taawun Street', 'amenity': 'pharmacy', 'brand': 'Aster Pharmacy', 'brand:wikidata': 'Q124453575', 'healthcare': 'pharmacy', 'name': 'Aster Pharmacy', 'name:en': 'Aster Pharmacy', 'source': 'Kaart Ground Survey 2017'}}"
"{'type': 'node', 'id': 4924799271, 'lat': 25.3447887, 'lon': 55.4025277, 'tags': {'addr:street': 'University City Road', 'amenity': 'pharmacy', 'name': 'New Palestine Pharmacy', 'name:en': 'New Palestine Pharmacy', 'source': 'Kaart Ground Survey 2017'}}"
"{'type': 'node', 'id': 4924818003, 'lat': 25.3431968, 'lon': 55.4044043, 'tags': {'addr:street': 'شارع الوحدة', 'amenity': 'pharmacy', 'healthcare': 'pharmacy', 'name': 'مسافي', 'name:ar': 'مسافي', 'name:en': 'Masafi', 'source': 'Kaart Ground Survey 2017'}}"
"{'type': 'node', 'id': 4924856685, 'lat': 25.3396153, 'lon': 55.4020672, 'tags': {'addr:street': 'Al Wahda Street', 'amenity': 'dentist', 'healthcare': 'dentist', 'name': 'Liberty Medical Centre', 'name:en': 'Liberty Medical Centre', 'source': 'Kaart Ground Survey 2017'}}"
"{'type': 'node', 'id': 4924904972, 'lat': 25.2919365, 'lon': 55.3690554, 'tags': {'amenity': 'clinic', 'healthcare': 'clinic', 'name': 'Airis'}}"
"{'type': 'node', 'id': 4924971535, 'lat': 25.3336346, 'lon': 55.398476, 'tags': {'addr:street': 'Al Wahda Street', 'amenity': 'pharmacy', 'name': 'Samer', 'name:en': 'Samer', 'source': 'Kaart Ground Survey 2017'}}"
"{'type': 'node', 'id': 4925008852, 'lat': 25.3256148, 'lon': 55.3923155, 'tags': {'addr:street': 'Al Wahda Street', 'amenity': 'pharmacy', 'healthcare': 'pharmacy', 'name': 'Life', 'name:en': 'Life', 'source': 'Kaart Ground Survey 2017'}}"
"{'type': 'node', 'id': 4925078907, 'lat': 25.2963287, 'lon': 55.3763869, 'tags': {'amenity': 'pharmacy', 'drive_through': 'no', 'healthcare': 'pharmacy', 'name': 'Life Al Nahda Pharmacy', 'operator': 'LIFE'}}"
"{'type': 'node', 'id': 4925078912, 'lat': 25.2973117, 'lon': 55.3839705, 'tags': {'addr:street': 'Amman Street', 'amenity': 'pharmacy', 'brand': 'Aster Pharmacy', 'brand:wikidata': 'Q124453575', 'healthcare': 'pharmacy', 'name': 'Aster Pharmacy', 'name:en': 'Aster Pharmacy', 'source': 'Kaart Ground Survey 2017'}}"
"{'type': 'node', 'id': 4925120170, 'lat': 25.3206688, 'lon': 55.3875275, 'tags': {'addr:street': 'Al Wahda Street', 'amenity': 'pharmacy', 'healthcare': 'pharmacy', 'name': 'Bait Al Maqdes', 'name:en': 'Bait Al Maqdes', 'source': 'Kaart Ground Survey 2017'}}"
"{'type': 'node', 'id': 4925134704, 'lat': 25.2768032, 'lon': 55.3854201, 'tags': {'amenity': 'clinic', 'healthcare': 'clinic', 'name': 'Aster', 'name:en': 'Aster', 'source': 'Kaart Ground Survey 2017'}}"
"{'type': 'node', 'id': 4925165849, 'lat': 25.2768198, 'lon': 55.3854878, 'tags': {'amenity': 'clinic', 'healthcare': 'clinic', 'name': 'Aster Clinic', 'name:en': 'Aster Clinic', 'source': 'Kaart Ground Survey 2017'}}"
"{'type': 'node', 'id': 4925165850, 'lat': 25.2768792, 'lon': 55.385398, 'tags': {'amenity': 'pharmacy', 'brand': 'Aster Pharmacy', 'brand:wikidata': 'Q124453575', 'healthcare': 'pharmacy', 'name': 'Aster Pharmacy', 'name:en': 'Aster Pharmacy', 'source': 'Kaart Ground Survey 2017'}}"
"{'type': 'node', 'id': 4925210880, 'lat': 25.3188934, 'lon': 55.3859486, 'tags': {'addr:street': 'Al Wahda Street', 'amenity': 'pharmacy', 'healthcare': 'pharmacy', 'source': 'Kaart Ground Survey 2017'}}"
"{'type': 'node', 'id': 4925240061, 'lat': 25.3377377, 'lon': 55.3897287, 'tags': {'addr:street': 'King Faisal Street', 'amenity': 'pharmacy', 'name': 'Al Faisal', 'name:en': 'Al Faisal', 'source': 'Kaart Ground Survey 2017'}}"
"{'type': 'node', 'id': 4925260486, 'lat': 25.3029858, 'lon': 55.382463, 'tags': {'addr:street': 'Bukhara Street', 'amenity': 'pharmacy', 'healthcare': 'pharmacy', 'name': 'Noor Al Nahdah Pharmacy', 'name:en': 'Noor Al Nahdah Pharmacy', 'source': 'Kaart Ground Survey 2017'}}"
"{'type': 'node', 'id': 4926833295, 'lat': 25.301995, 'lon': 55.3800696, 'tags': {'addr:street': 'شارع بخارى', 'addr:street:ar': 'شارع بخارى', 'amenity': 'pharmacy', 'healthcare': 'pharmacy', 'name': 'صيدلية النيل', 'name:ar': 'صيدلية النيل', 'name:en': 'Al Neel Pharmacy'}}"
"{'type': 'node', 'id': 4926833303, 'lat': 25.3026507, 'lon': 55.3812782, 'tags': {'addr:street': 'Bukhara Street', 'alt_name': 'Hala Pharmacy', 'amenity': 'pharmacy', 'healthcare': 'pharmacy', 'name': 'لايف صيدلية', 'name:en': 'Life Pharmacy', 'opening_hours': 'Mo-Su 08:00-02:00', 'phone': '+971 4 571 8041', 'shop': 'supermarket', 'source': 'Kaart Ground Survey 2017', 'website': 'https://lifepharmacy.com'}}"
"{'type': 'node', 'id': 4926833319, 'lat': 25.3037482, 'lon': 55.3833041, 'tags': {'addr:street': 'Bukhara Street', 'amenity': 'pharmacy', 'healthcare': 'pharmacy', 'name': 'Al Sadiq Pharmacy', 'name:en': 'Al Sadiq Pharmacy', 'source': 'Kaart Ground Survey 2017'}}"
"{'type': 'node', 'id': 4926873376, 'lat': 25.3605527, 'lon': 55.3903048, 'tags': {'addr:street': 'Al Arouba Street', 'amenity': 'pharmacy', 'name': 'Al Afohal', 'name:en': 'Al Afohal', 'source': 'Kaart Ground Survey 2017'}}"
"{'type': 'node', 'id': 4926873384, 'lat': 25.3606938, 'lon': 55.3903656, 'tags': {'addr:street': 'Al Arouba Street', 'amenity': 'pharmacy', 'name': 'Al Salam', 'name:en': 'Al Salam', 'source': 'Kaart Ground Survey 2017'}}"
"{'type': 'node', 'id': 4926879662, 'lat': 25.3697781, 'lon': 55.4045468, 'tags': {'addr:street': ""Al Zahra'a Street"", 'amenity': 'pharmacy', 'name': 'Al Usrah Modern Pharmacy', 'name:en': 'Al Usrah Modern Pharmacy', 'source': 'Kaart Ground Survey 2017'}}"
"{'type': 'node', 'id': 4926896530, 'lat': 25.3649676, 'lon': 55.4001794, 'tags': {'addr:street': ""Al Zahra'a Street"", 'amenity': 'pharmacy', 'name': 'Life Al Baraha Pharmacy', 'name:en': 'Life Al Baraha Pharmacy', 'source': 'Kaart Ground Survey 2017'}}"
"{'type': 'node', 'id': 4926896543, 'lat': 25.3643945, 'lon': 55.3997444, 'tags': {'addr:street': ""Al Zahra'a Street"", 'amenity': 'pharmacy', 'name': 'Lubna Pharmacy', 'name:en': 'Lubna Pharmacy', 'source': 'Kaart Ground Survey 2017'}}"
"{'type': 'node', 'id': 4926915296, 'lat': 25.3420634, 'lon': 55.4032284, 'tags': {'addr:street': 'Amr Bin Muath Street', 'amenity': 'pharmacy', 'name': 'Bin Khaldoon', 'name:en': 'Bin Khaldoon', 'source': 'Kaart Ground Survey 2017'}}"
"{'type': 'node', 'id': 4926920119, 'lat': 25.3639416, 'lon': 55.3925011, 'tags': {'addr:street': 'Al Sharq Street', 'amenity': 'pharmacy', 'name': 'Al Deqqa', 'name:en': 'Al Deqqa', 'source': 'Kaart Ground Survey 2017'}}"
"{'type': 'node', 'id': 4926958106, 'lat': 25.3628262, 'lon': 55.3983864, 'tags': {'addr:street': ""Al Zahra'a Street"", 'amenity': 'pharmacy', 'name': 'A Mutawa Pharmacy', 'name:en': 'A Mutawa Pharmacy', 'source': 'Kaart Ground Survey 2017'}}"
"{'type': 'node', 'id': 4926959367, 'lat': 25.3333746, 'lon': 55.3925885, 'tags': {'addr:street': 'King Faisal Street', 'amenity': 'pharmacy', 'name': 'Al Rahmah', 'name:en': 'Al Rahmah', 'source': 'Kaart Ground Survey 2017'}}"
"{'type': 'node', 'id': 4926988731, 'lat': 25.267933, 'lon': 55.3051705, 'tags': {'addr:street': '18A Street', 'amenity': 'pharmacy', 'name': 'Al Samah Pharmacy', 'name:en': 'Al Samah Pharmacy', 'source': 'Kaart Ground Survey 2017'}}"
"{'type': 'node', 'id': 4926988732, 'lat': 25.2679454, 'lon': 55.3047889, 'tags': {'addr:street': '18A Street', 'amenity': 'pharmacy', 'name': 'Star Pharmacy', 'name:en': 'Star Pharmacy', 'source': 'Kaart Ground Survey 2017'}}"
"{'type': 'node', 'id': 4927016598, 'lat': 25.3356448, 'lon': 55.3911216, 'tags': {'addr:street': 'King Faisal Street', 'amenity': 'clinic', 'name': 'Mathew Medical Centre', 'name:en': 'Mathew Medical Centre', 'source': 'Kaart Ground Survey 2017'}}"
"{'type': 'node', 'id': 4927016923, 'lat': 25.3377627, 'lon': 55.3922836, 'tags': {'addr:street': 'Al Estiqlal Street', 'amenity': 'clinic', 'name': 'Shanthi Medical Center', 'name:en': 'Shanthi Medical Center', 'source': 'Kaart Ground Survey 2017'}}"
"{'type': 'node', 'id': 4927045913, 'lat': 25.3691284, 'lon': 55.3920161, 'tags': {'addr:street': 'Corniche Street', 'amenity': 'pharmacy', 'name': 'Hadeqat Al Majarah Pharmacy', 'name:en': 'Hadeqat Al Majarah Pharmacy', 'source': 'Kaart Ground Survey 2017'}}"
"{'type': 'node', 'id': 4927178835, 'lat': 25.3009976, 'lon': 55.3761151, 'tags': {'addr:street': 'Tuliatela Street', 'amenity': 'pharmacy', 'healthcare': 'pharmacy', 'name': 'Najmat Sahara Al Jadeeda Pharmacy', 'name:en': 'Najmat Sahara Al Jadeeda Pharmacy', 'source': 'Kaart Ground Survey 2017'}}"
"{'type': 'node', 'id': 4927191235, 'lat': 25.299872, 'lon': 55.3700495, 'tags': {'addr:street': 'شارع ملقا', 'amenity': 'pharmacy', 'healthcare': 'pharmacy', 'name': 'صيدلية الفرح', 'name:en': 'Al Farah Pharmacy', 'phone': '+971 6 536 3707', 'source': 'Kaart Ground Survey 2017'}}"
"{'type': 'node', 'id': 4927191237, 'lat': 25.3003635, 'lon': 55.3710786, 'tags': {'addr:street': 'Malaka Street', 'amenity': 'pharmacy', 'healthcare': 'pharmacy', 'name': 'Mede Pharmacy', 'name:en': 'Mede Pharmacy', 'source': 'Kaart Ground Survey 2017'}}"
"{'type': 'node', 'id': 4927214709, 'lat': 25.2679714, 'lon': 55.2960405, 'tags': {'addr:street': 'Sikkat Al Khail Road', 'amenity': 'pharmacy', 'healthcare': 'pharmacy', 'name': 'AL Kamali Pharmacy', 'name:en': 'AL Kamali Pharmacy', 'source': 'Kaart Ground Survey 2017'}}"
"{'type': 'node', 'id': 4927279083, 'lat': 25.3717929, 'lon': 55.406831, 'tags': {'addr:street': ""Al Zahra'a Street"", 'amenity': 'pharmacy', 'name': 'Health & Beauty Pharmacy', 'name:en': 'Health & Beauty Pharmacy', 'operator': 'Al Saha & Al Jamal Pharmacy', 'source': 'Kaart Ground Survey 2017'}}"
"{'type': 'node', 'id': 4927279099, 'lat': 25.3699276, 'lon': 55.4051689, 'tags': {'addr:street': ""Al Zahra'a Street"", 'amenity': 'pharmacy', 'name': 'Al Basma Pharmacy', 'name:en': 'Al Basma Pharmacy', 'source': 'Kaart Ground Survey 2017'}}"
"{'type': 'node', 'id': 4927279114, 'lat': 25.3682833, 'lon': 55.4036248, 'tags': {'addr:street': ""Al Zahra'a Street"", 'amenity': 'pharmacy', 'name': 'Makkah Pharmacy', 'name:en': 'Makkah Pharmacy', 'source': 'Kaart Ground Survey 2017'}}"
"{'type': 'node', 'id': 4927300006, 'lat': 25.3941863, 'lon': 55.4274589, 'tags': {'addr:street': 'Sheikh Rashid bin Humaid Al Nuaimi Street', 'amenity': 'clinic', 'name': 'Elaj Medical Center', 'name:en': 'Elaj Medical Center', 'source': 'Kaart Ground Survey 2017'}}"
"{'type': 'node', 'id': 4927300320, 'lat': 25.3639993, 'lon': 55.3999628, 'tags': {'addr:street': ""Al Zahra'a Street"", 'amenity': 'clinic', 'name': 'Dr. Fatima Abu Shouk', 'name:en': 'Dr. Fatima Abu Shouk', 'source': 'Kaart Ground Survey 2017'}}"
"{'type': 'node', 'id': 4927322442, 'lat': 25.397204, 'lon': 55.4311629, 'tags': {'addr:street': 'Sheikh Rashid Bin Humaid Al Nuaimi Street', 'amenity': 'pharmacy', 'name': 'Al Safa', 'name:en': 'Al Safa', 'source': 'Kaart Ground Survey 2017'}}"
"{'type': 'node', 'id': 4927364477, 'lat': 25.2619589, 'lon': 55.3260457, 'tags': {'amenity': 'pharmacy', 'fixme': 'name', 'source': 'Kaart Ground Survey 2017'}}"
"{'type': 'node', 'id': 4927385862, 'lat': 25.3078863, 'lon': 55.378143, 'tags': {'addr:street': 'Gernata Street', 'amenity': 'pharmacy', 'healthcare': 'pharmacy', 'name': 'Royal Pharmacy', 'name:en': 'Royal Pharmacy', 'source': 'Kaart Ground Survey 2017'}}"
"{'type': 'node', 'id': 4927390927, 'lat': 25.2681316, 'lon': 55.3301912, 'tags': {'addr:street': 'Abu Baker Al Siddique Road', 'amenity': 'pharmacy', 'name': 'Health First', 'name:en': 'Health First', 'source': 'Kaart Ground Survey 2017'}}"
"{'type': 'node', 'id': 4927390928, 'lat': 25.2679248, 'lon': 55.3301495, 'tags': {'addr:street': 'Abu Baker Al Siddique Road', 'healthcare': 'laboratory', 'name': 'Advanced Diagnostic Center', 'name:en': 'Advanced Diagnostic Center', 'source': 'Kaart Ground Survey 2017'}}"
"{'type': 'node', 'id': 4927446869, 'lat': 25.3016807, 'lon': 55.3683078, 'tags': {'addr:street': 'Gernata Street', 'amenity': 'clinic', 'healthcare': 'clinic', 'name': 'Jawdah Medical Center', 'name:en': 'Jawdah Medical Center', 'source': 'Kaart Ground Survey 2017'}}"
"{'type': 'node', 'id': 4927446870, 'lat': 25.3015743, 'lon': 55.3680725, 'tags': {'addr:street': 'Gernata Street', 'amenity': 'pharmacy', 'healthcare': 'pharmacy', 'name': 'Med 7', 'name:en': 'Med 7', 'source': 'Kaart Ground Survey 2017'}}"
"{'type': 'node', 'id': 4929126548, 'lat': 25.3541504, 'lon': 55.3841677, 'tags': {'amenity': 'pharmacy', 'name': 'Universal Pharmacy', 'name:en': 'Universal Pharmacy', 'source': 'Kaart Ground Survey 2017'}}"
"{'type': 'node', 'id': 4929171849, 'lat': 25.4035672, 'lon': 55.4397815, 'tags': {'addr:street': 'Sheikh Rashid Bin Humaid Al Nuaimi Street', 'amenity': 'pharmacy', 'name': 'Al Mamoora', 'name:en': 'Al Mamoora', 'source': 'Kaart Ground Survey 2017'}}"
"{'type': 'node', 'id': 4929296832, 'lat': 25.3557569, 'lon': 55.3812723, 'tags': {'addr:street': 'Al Maraija Street', 'amenity': 'pharmacy', 'name': 'Al Sundos Pharmacy', 'name:en': 'Al Sundos Pharmacy', 'source': 'Kaart Ground Survey 2017'}}"
"{'type': 'node', 'id': 4929303679, 'lat': 25.3010763, 'lon': 55.3812536, 'tags': {'addr:street': 'شارع النهضة', 'addr:street:ar': 'شارع النهضة', 'amenity': 'pharmacy', 'healthcare': 'pharmacy', 'name': 'صيدلية التقوى', 'name:ar': 'صيدلية التقوى', 'name:en': 'Al Taqwa Pharmacy'}}"
"{'type': 'node', 'id': 4929395257, 'lat': 25.2875778, 'lon': 55.4008242, 'tags': {'amenity': 'clinic', 'healthcare': 'clinic', 'name': 'Riaz', 'name:en': 'Riaz', 'source': 'Kaart Ground Survey 2017'}}"
"{'type': 'node', 'id': 4929444775, 'lat': 25.2721114, 'lon': 55.3033445, 'tags': {'addr:street': 'Naif Road', 'amenity': 'pharmacy', 'name': 'SBN Pharmacy', 'name:en': 'SBN Pharmacy', 'source': 'Kaart Ground Survey 2017'}}"
"{'type': 'node', 'id': 4929473490, 'lat': 25.341016, 'lon': 55.3977393, 'tags': {'addr:street': 'Abdullab Bin Salamah Street', 'amenity': 'pharmacy', 'name': 'Al Dunia', 'name:en': 'Al Dunia', 'source': 'Kaart Ground Survey 2017'}}"
"{'type': 'node', 'id': 4929474249, 'lat': 25.3269628, 'lon': 55.3764478, 'tags': {'addr:street': 'Al Khan Street', 'amenity': 'dentist', 'healthcare': 'dentist', 'name': 'Al Jazeerah Dental Clinic', 'name:en': 'Al Jazeerah Dental Clinic', 'source': 'Kaart Ground Survey 2017'}}"
"{'type': 'node', 'id': 4929479221, 'lat': 25.3272219, 'lon': 55.3762669, 'tags': {'addr:street': 'Al Khan Street', 'amenity': 'pharmacy', 'healthcare': 'pharmacy', 'name': 'Iba al Nafees Pharmacy', 'name:en': 'Iba al Nafees Pharmacy', 'source': 'Kaart Ground Survey 2017'}}"
"{'type': 'node', 'id': 4929488285, 'lat': 25.2822724, 'lon': 55.4040102, 'tags': {'amenity': 'pharmacy', 'healthcare': 'pharmacy', 'name': 'Aster', 'name:en': 'Aster', 'source': 'Kaart Ground Survey 2017'}}"
"{'type': 'node', 'id': 4929520105, 'lat': 25.3965593, 'lon': 55.4917607, 'tags': {'amenity': 'clinic', 'name': 'Al Runk Medical Center', 'name:en': 'Al Runk Medical Center', 'source': 'Kaart Ground Survey 2017'}}"
"{'type': 'node', 'id': 4929520107, 'lat': 25.3964915, 'lon': 55.4916842, 'tags': {'amenity': 'pharmacy', 'name': 'Rukn Dawa', 'name:en': 'Rukn Dawa', 'source': 'Kaart Ground Survey 2017'}}"
"{'type': 'node', 'id': 4929537571, 'lat': 25.2815308, 'lon': 55.4106183, 'tags': {'amenity': 'clinic', 'healthcare': 'clinic', 'name': 'Al Muhaisnah Polyclinic', 'name:en': 'Al Muhaisnah Polyclinic', 'source': 'Kaart Ground Survey 2017'}}"
"{'type': 'node', 'id': 4929597007, 'lat': 25.4102775, 'lon': 55.4434427, 'tags': {'amenity': 'clinic', 'name': 'Al Hayat Clinic', 'name:en': 'Al Hayat Clinic'}}"
"{'type': 'node', 'id': 4929601434, 'lat': 25.3625303, 'lon': 55.3880743, 'tags': {'amenity': 'pharmacy', 'name': 'Al Siha W Al Afiah Pharmacy', 'name:en': 'Al Siha W Al Afiah Pharmacy', 'source': 'Kaart Ground Survey 2017'}}"
"{'type': 'node', 'id': 4929601563, 'lat': 25.3376727, 'lon': 55.3946363, 'tags': {'addr:street': 'Othman Bin Madhoon Street', 'amenity': 'pharmacy', 'name': 'Reem', 'name:en': 'Reem', 'source': 'Kaart Ground Survey 2017'}}"
"{'type': 'node', 'id': 4930918095, 'lat': 25.3292203, 'lon': 55.3742297, 'tags': {'addr:street': 'Al Khan Street', 'amenity': 'pharmacy', 'healthcare': 'pharmacy', 'name': 'Al Hadhar Pharmacy', 'name:en': 'Al Hadhar Pharmacy', 'source': 'Kaart Ground Survey 2017'}}"
"{'type': 'node', 'id': 4930918101, 'lat': 25.3299888, 'lon': 55.3727217, 'tags': {'addr:street': 'Al Khan Street', 'amenity': 'dentist', 'healthcare': 'dentist', 'name': 'Luzan Dental Center', 'name:en': 'Luzan Dental Center', 'source': 'Kaart Ground Survey 2017'}}"
"{'type': 'node', 'id': 4930918102, 'lat': 25.3299743, 'lon': 55.3725087, 'tags': {'addr:street': 'Al Khan Street', 'amenity': 'pharmacy', 'healthcare': 'pharmacy', 'name': 'Al Faraby Pharmacy', 'name:en': 'Al Faraby Pharmacy', 'source': 'Kaart Ground Survey 2017'}}"
"{'type': 'node', 'id': 4930953663, 'lat': 25.333663, 'lon': 55.3638207, 'tags': {'addr:street': 'Al Khan Street', 'amenity': 'pharmacy', 'name': 'Bait Al Maqdes', 'name:en': 'Bait Al Maqdes', 'source': 'Kaart Ground Survey 2017'}}"
"{'type': 'node', 'id': 4931102206, 'lat': 25.3568123, 'lon': 55.3887764, 'tags': {'addr:street': 'Al Ghuwair Street', 'amenity': 'pharmacy', 'name': 'Hadeqat Al Rola Pharmacy', 'name:en': 'Hadeqat Al Rola Pharmacy', 'source': 'Kaart Ground Survey 2017'}}"
