OSM_Data
"{'type': 'node', 'id': 628209332, 'lat': -43.3111426, 'lon': -65.0412604, 'tags': {'amenity': 'pharmacy', 'healthcare': 'pharmacy'}}"
"{'type': 'node', 'id': 628210040, 'lat': -43.3107555, 'lon': -65.0448873, 'tags': {'addr:city': 'Rawson', 'addr:housename': 'Juan Manuel de Rosas', 'addr:housenumber': '450', 'addr:postcode': '9103', 'addr:street': 'Avenida Juan Manuel de Rosas', 'amenity': 'hospital', 'healthcare': 'hospital', 'name': 'Mini Hospital Playa Unión', 'phone': '+54 280 4496003', 'wikidata': 'Q94569582'}}"
"{'type': 'node', 'id': 1329309230, 'lat': -43.2554886, 'lon': -65.3107664, 'tags': {'addr:city': 'Trelew', 'addr:full': '28 De Julio Y Pellegrini', 'addr:place': 'Rawson', 'amenity': 'hospital', 'description': 'Alto riesgo con terapia intensiva especializada', 'emergency': 'yes', 'healthcare': 'hospital', 'name': 'Hospital Zonal Trelew Dr. Adolfo Margara', 'operator:type': 'public', 'ref:sisa_codigo': '10260772129042', 'ref:sisa_tipologia': 'ESCIG', 'source': 'sedronar.gov.ar | Public Domain (PD)'}}"
"{'type': 'node', 'id': 1329309240, 'lat': -43.2560824, 'lon': -65.3147629, 'tags': {'amenity': 'hospital', 'healthcare': 'hospital', 'name': 'Sanatorio Trelew'}}"
"{'type': 'node', 'id': 1329309273, 'lat': -43.256718, 'lon': -65.3173392, 'tags': {'amenity': 'hospital', 'emergency': 'yes', 'healthcare': 'hospital', 'name': 'Clinica San Miguel'}}"
"{'type': 'node', 'id': 1390308828, 'lat': -42.7710746, 'lon': -65.0337319, 'tags': {'addr:city': 'Puerto Madryn', 'addr:housenumber': '651', 'addr:street': 'Bartolomé Mitre', 'amenity': 'hospital', 'healthcare': 'hospital', 'name': 'Sanatorio Santa María'}}"
"{'type': 'node', 'id': 1390308829, 'lat': -42.7701467, 'lon': -65.0438812, 'tags': {'addr:city': 'Puerto Madryn', 'addr:housenumber': '651', 'addr:street': 'Bartolomé Mitre', 'amenity': 'hospital', 'healthcare': 'hospital', 'name': 'Sanatorio de la Ciudad'}}"
"{'type': 'node', 'id': 1397466480, 'lat': -43.2565106, 'lon': -65.3140428, 'tags': {'amenity': 'pharmacy', 'healthcare': 'pharmacy'}}"
"{'type': 'node', 'id': 1397466494, 'lat': -43.2656946, 'lon': -65.3017071, 'tags': {'amenity': 'pharmacy', 'healthcare': 'pharmacy', 'name': 'Farmacias Patagonicas'}}"
"{'type': 'node', 'id': 1397466503, 'lat': -43.2562566, 'lon': -65.3081366, 'tags': {'amenity': 'pharmacy', 'healthcare': 'pharmacy'}}"
"{'type': 'node', 'id': 1399412206, 'lat': -43.2582973, 'lon': -65.3366488, 'tags': {'amenity': 'hospital', 'healthcare': 'hospital', 'name': 'Centro de Salud Pascual Daleoso'}}"
"{'type': 'node', 'id': 1399412207, 'lat': -43.2523401, 'lon': -65.3219053, 'tags': {'amenity': 'hospital', 'healthcare': 'hospital', 'name': 'Centro de Salud La Loma', 'wikidata': 'Q94569536'}}"
"{'type': 'node', 'id': 1399412208, 'lat': -43.2602237, 'lon': -65.2900199, 'tags': {'amenity': 'hospital', 'emergency': 'yes', 'healthcare': 'hospital', 'name': 'Centro de Salud Villa Italia', 'wikidata': 'Q94569608'}}"
"{'type': 'node', 'id': 1399412209, 'lat': -43.2738653, 'lon': -65.3060535, 'tags': {'amenity': 'hospital', 'healthcare': 'hospital', 'name': 'Centro de Salud Etchepare'}}"
"{'type': 'node', 'id': 1399412210, 'lat': -43.251423, 'lon': -65.329114, 'tags': {'amenity': 'hospital', 'healthcare': 'hospital', 'name': 'Centro de Salud ""Jorge Morado""', 'wikidata': 'Q94569567'}}"
"{'type': 'node', 'id': 1399412211, 'lat': -43.2678631, 'lon': -65.3513435, 'tags': {'amenity': 'hospital', 'healthcare': 'hospital', 'name': 'Centro de Salud Ramón Carrillo'}}"
"{'type': 'node', 'id': 1399412212, 'lat': -43.2572983, 'lon': -65.309502, 'tags': {'amenity': 'hospital', 'healthcare': 'hospital', 'name': 'Clínica del Valle'}}"
"{'type': 'node', 'id': 1399413545, 'lat': -43.243426, 'lon': -65.3185346, 'tags': {'amenity': 'hospital', 'healthcare': 'hospital', 'name': 'Centro de Salud Ingeniero Franzetti'}}"
"{'type': 'node', 'id': 1399413548, 'lat': -43.2392933, 'lon': -65.3051039, 'tags': {'amenity': 'hospital', 'healthcare': 'hospital', 'name': 'Centro de Salud Tiro Federal', 'wikidata': 'Q94569607'}}"
"{'type': 'node', 'id': 1399413549, 'lat': -43.2421548, 'lon': -65.3048266, 'tags': {'amenity': 'hospital', 'healthcare': 'hospital', 'name': 'Centro de Salud Gwenda Williams'}}"
"{'type': 'node', 'id': 1838233513, 'lat': -43.2904394, 'lon': -65.49492, 'tags': {'amenity': 'pharmacy', 'healthcare': 'pharmacy', 'name': 'Farmacia del Valle'}}"
"{'type': 'node', 'id': 2382913294, 'lat': -43.2849488, 'lon': -65.4957225, 'tags': {'addr:city': 'Gaiman', 'addr:full': 'Belgrano Y Lucero', 'addr:place': 'Gaiman', 'amenity': 'hospital', 'description': 'Bajo riesgo con internación simple', 'emergency': 'yes', 'healthcare': 'hospital', 'name': 'Hospital Rural Gaiman', 'operator:type': 'public', 'ref:sisa_codigo': '10260422129022', 'ref:sisa_tipologia': 'ESCIG', 'source': 'sedronar.gov.ar | Public Domain (PD)', 'wikidata': 'Q94569633'}}"
"{'type': 'node', 'id': 3036031510, 'lat': -43.2555695, 'lon': -65.3154428, 'tags': {'amenity': 'pharmacy', 'healthcare': 'pharmacy', 'name': 'Farmacias Patagonicas'}}"
"{'type': 'node', 'id': 3036031511, 'lat': -43.2556605, 'lon': -65.3150376, 'tags': {'addr:city': 'Trelew', 'addr:full': 'San Martín 696', 'addr:place': 'Rawson', 'amenity': 'hospital', 'description': 'Mediano riesgo con internación con cuidados especiales', 'healthcare': 'hospital', 'name': 'Hospital Zonal Trelew Centro Materno Infantil', 'operator:type': 'public', 'ref:sisa_codigo': '12260772129049', 'ref:sisa_tipologia': 'ESCIEM', 'source': 'sedronar.gov.ar | Public Domain (PD)', 'wikidata': 'Q94569650'}}"
"{'type': 'node', 'id': 3043707887, 'lat': -43.2559041, 'lon': -65.3164065, 'tags': {'addr:housenumber': '799', 'addr:postcode': '9100', 'addr:street': 'San Martín', 'amenity': 'pharmacy', 'healthcare': 'pharmacy', 'name': 'Farmacia Social', 'name:es': 'Farmacia Social'}}"
"{'type': 'node', 'id': 3046087211, 'lat': -43.2510404, 'lon': -65.3035288, 'tags': {'amenity': 'hospital', 'check_date': '2024-06-12', 'healthcare': 'hospital', 'name': 'Instituto Medico del Sur'}}"
"{'type': 'node', 'id': 3046087213, 'lat': -43.2501613, 'lon': -65.3007768, 'tags': {'amenity': 'hospital', 'emergency': 'no', 'healthcare': 'hospital'}}"
"{'type': 'node', 'id': 3097214953, 'lat': -43.2615106, 'lon': -65.3190544, 'tags': {'amenity': 'hospital', 'healthcare': 'hospital', 'name': 'Centro de Salud Sarmiento', 'wikidata': 'Q94569603'}}"
"{'type': 'node', 'id': 3097228668, 'lat': -43.2443311, 'lon': -65.2848401, 'tags': {'addr:city': 'Trelew', 'amenity': 'hospital', 'healthcare': 'hospital', 'name': 'Centro de Salud Planta de Gas', 'wikidata': 'Q94569581'}}"
"{'type': 'node', 'id': 3285294189, 'lat': -43.244989, 'lon': -65.3075853, 'tags': {'amenity': 'hospital', 'healthcare': 'hospital', 'name': 'Centro Rehabilitación Disminuidos Visuales'}}"
"{'type': 'node', 'id': 3407995744, 'lat': -43.2570237, 'lon': -65.293955, 'tags': {'amenity': 'clinic', 'healthcare': 'clinic', 'name': 'consultorios Andamiaje'}}"
"{'type': 'node', 'id': 3819842215, 'lat': -43.2942512, 'lon': -65.082452, 'tags': {'addr:city': 'Rawson', 'addr:postcode': '9103', 'addr:street': 'Avenida Domingo Cannito', 'amenity': 'hospital', 'healthcare': 'hospital', 'name': 'Centro de Salud Area 25'}}"
"{'type': 'node', 'id': 3922153317, 'lat': -42.766806, 'lon': -65.0330728, 'tags': {'addr:housenumber': '0', 'addr:street': 'Belgrano', 'amenity': 'pharmacy', 'healthcare': 'pharmacy', 'name': 'Patagonica'}}"
"{'type': 'node', 'id': 4103927706, 'lat': -42.7884158, 'lon': -65.0397596, 'tags': {'addr:city': 'Puerto Madryn', 'addr:housenumber': '1200', 'addr:postcode': '9120', 'addr:street': 'Dorrego', 'amenity': 'hospital', 'healthcare': 'hospital', 'name': 'Teresa de Calcuta', 'operator': 'Hospital Isola'}}"
"{'type': 'node', 'id': 4473763890, 'lat': -43.2563118, 'lon': -65.3172704, 'tags': {'addr:housenumber': '860', 'addr:street': 'San Martín', 'amenity': 'clinic', 'healthcare': 'clinic', 'name': 'Laboratorio de análisis', 'name:es': 'Laboratorio de análisis'}}"
"{'type': 'node', 'id': 4507147989, 'lat': -43.2556944, 'lon': -65.3167405, 'tags': {'amenity': 'clinic', 'healthcare': 'clinic'}}"
"{'type': 'node', 'id': 4696228958, 'lat': -43.2563914, 'lon': -65.312927, 'tags': {'addr:city': 'Trelew', 'addr:housenumber': '506', 'addr:postcode': '9100', 'addr:street': 'Ameghino', 'amenity': 'hospital', 'healthcare': 'hospital', 'name': 'CEM Ameghino'}}"
"{'type': 'node', 'id': 4696237113, 'lat': -43.2562792, 'lon': -65.3165222, 'tags': {'amenity': 'hospital', 'healthcare': 'hospital', 'name': 'CEM Hematología'}}"
"{'type': 'node', 'id': 4701269742, 'lat': -43.2577912, 'lon': -65.3117711, 'tags': {'amenity': 'clinic', 'healthcare': 'clinic', 'name': 'Cardial Trelew'}}"
"{'type': 'node', 'id': 4701269743, 'lat': -43.2544011, 'lon': -65.3050979, 'tags': {'amenity': 'clinic', 'healthcare': 'clinic', 'name': 'Clínica Pueblo de Luis'}}"
"{'type': 'node', 'id': 5085830432, 'lat': -42.814698, 'lon': -65.0277186, 'tags': {'amenity': 'pharmacy', 'healthcare': 'pharmacy'}}"
"{'type': 'node', 'id': 6285040286, 'lat': -42.7852858, 'lon': -65.0257705, 'tags': {'amenity': 'hospital', 'healthcare': 'hospital', 'name': 'Centro de salud Doctor Carrillo'}}"
"{'type': 'node', 'id': 6341332947, 'lat': -43.252033, 'lon': -65.3111437, 'tags': {'addr:city': 'Trelew', 'addr:postcode': 'U9100', 'addr:street': '9 de Julio', 'amenity': 'pharmacy', 'healthcare': 'pharmacy', 'name': 'Farmacia Anika'}}"
"{'type': 'node', 'id': 7376735334, 'lat': -43.3109298, 'lon': -65.7045067, 'tags': {'addr:city': 'Dolavon', 'addr:full': 'Raul B Diaz 275', 'addr:place': 'Gaiman', 'amenity': 'hospital', 'description': 'Bajo riesgo con internación simple', 'healthcare': 'hospital', 'name': 'Hospital Rural Mary Jones De Williams - Dolavon', 'operator:type': 'public', 'ref:sisa_codigo': '10260422129029', 'ref:sisa_tipologia': 'ESCIG', 'source': 'sedronar.gov.ar | Public Domain (PD)', 'wikidata': 'Q94569630'}}"
"{'type': 'node', 'id': 7689692969, 'lat': -43.254101, 'lon': -65.312696, 'tags': {'amenity': 'pharmacy', 'dispensing': 'yes', 'healthcare': 'pharmacy', 'name': 'Farmacias Doctor Ahorro'}}"
"{'type': 'node', 'id': 7850734942, 'lat': -43.2689533, 'lon': -65.2780371, 'tags': {'addr:city': 'Trelew', 'addr:housenumber': 'Local 1007', 'addr:postcode': 'U9100', 'addr:street': 'Portal Trelew', 'amenity': 'pharmacy', 'dispensing': 'yes', 'healthcare': 'pharmacy', 'name': 'Farmacias Patagónicas', 'operator': 'Farmacias Patagónicas S.A.'}}"
"{'type': 'node', 'id': 7943123899, 'lat': -42.7647799, 'lon': -65.0359564, 'tags': {'amenity': 'pharmacy', 'dispensing': 'yes', 'healthcare': 'pharmacy', 'name': 'Farmacia Oeste'}}"
"{'type': 'node', 'id': 9388617442, 'lat': -42.7688052, 'lon': -65.0362553, 'tags': {'amenity': 'pharmacy', 'name': 'Farmacia Social'}}"
"{'type': 'node', 'id': 11346335313, 'lat': -42.7719217, 'lon': -65.0330284, 'tags': {'healthcare': 'physiotherapist', 'name': 'In Motion'}}"
"{'type': 'node', 'id': 11346359533, 'lat': -42.7718509, 'lon': -65.0330889, 'tags': {'amenity': 'pharmacy', 'name': 'Prosalud'}}"
