OSM_Data
"{'type': 'node', 'id': 1088091783, 'lat': -31.9194354, 'lon': -64.5761637, 'tags': {'amenity': 'pharmacy', 'healthcare': 'pharmacy', 'name': 'Nueva del Pueblo'}}"
"{'type': 'node', 'id': 1483984066, 'lat': -32.1719578, 'lon': -64.4501735, 'tags': {'addr:city': 'Villa del Dique', 'addr:housenumber': '390', 'addr:postcode': '5862', 'addr:street': 'Avenida San Martín', 'amenity': 'pharmacy', 'dispensing': 'yes', 'healthcare': 'pharmacy', 'name': 'Nueva Farmacia Del Valle', 'phone': '+54 (3546) 49-7840'}}"
"{'type': 'node', 'id': 1483995922, 'lat': -32.176244, 'lon': -64.4538483, 'tags': {'addr:city': 'Villa del Dique', 'addr:full': 'Bulevar Hipólito Yrigoyen y Córdoba', 'addr:postcode': '5862', 'addr:street': 'Bulevar Hipólito Yrigoyen', 'amenity': 'hospital', 'emergency': 'yes', 'healthcare': 'hospital', 'name': 'Hospital Municipal Doctor Luis Rivarola', 'phone': '+54 3546 49-7636'}}"
"{'type': 'node', 'id': 1490089539, 'lat': -31.6512916, 'lon': -63.9139129, 'tags': {'amenity': 'hospital', 'emergency': 'yes', 'healthcare': 'hospital', 'name': 'Hospital Municipal'}}"
"{'type': 'node', 'id': 1666789151, 'lat': -32.6930094, 'lon': -64.7207467, 'tags': {'amenity': 'pharmacy', 'healthcare': 'pharmacy'}}"
"{'type': 'node', 'id': 2054563837, 'lat': -31.9845971, 'lon': -64.5627235, 'tags': {'amenity': 'hospital', 'healthcare': 'hospital', 'name': 'Asistencia Medica'}}"
"{'type': 'node', 'id': 2183578267, 'lat': -31.977431, 'lon': -64.5594147, 'tags': {'amenity': 'pharmacy', 'healthcare': 'pharmacy', 'name': 'Farmacia Calamuchita'}}"
"{'type': 'node', 'id': 2183578269, 'lat': -31.9798949, 'lon': -64.5598999, 'tags': {'amenity': 'pharmacy', 'healthcare': 'pharmacy', 'name': 'Terbonati'}}"
"{'type': 'node', 'id': 2183578272, 'lat': -31.9815444, 'lon': -64.5606975, 'tags': {'amenity': 'pharmacy', 'healthcare': 'pharmacy', 'name': 'Nervegna'}}"
"{'type': 'node', 'id': 2200311043, 'lat': -32.1937876, 'lon': -64.2494776, 'tags': {'addr:city': 'Almafuerte', 'addr:housenumber': '417', 'addr:postcode': '5854', 'addr:street': 'Castelli', 'amenity': 'hospital', 'healthcare': 'hospital', 'name': 'Hospital Municipal Dr. Salvador Scavuzzo', 'phone': '+54 3571 471040', 'ref:sisa_codigo': '10141612231205', 'ref:sisa_tipologia': 'ESCIG'}}"
"{'type': 'node', 'id': 2319108500, 'lat': -32.426459, 'lon': -63.7306561, 'tags': {'amenity': 'doctors', 'healthcare': 'doctor'}}"
"{'type': 'node', 'id': 2395321276, 'lat': -31.7818687, 'lon': -63.7977796, 'tags': {'amenity': 'hospital', 'emergency': 'yes', 'healthcare': 'hospital', 'name': 'Hospital Municipal'}}"
"{'type': 'node', 'id': 2501280220, 'lat': -32.1702748, 'lon': -64.0949327, 'tags': {'amenity': 'hospital', 'healthcare': 'hospital', 'name': 'Sala Asistencial Bº Panamericano'}}"
"{'type': 'node', 'id': 2504505480, 'lat': -32.1595065, 'lon': -64.1211028, 'tags': {'addr:housenumber': '150', 'addr:postcode': '5850', 'addr:street': 'Cornelio Saavedra', 'amenity': 'hospital', 'healthcare': 'hospital', 'name': 'Sala Asistencial Bº Cerino'}}"
"{'type': 'node', 'id': 2504505481, 'lat': -32.1667387, 'lon': -64.1219874, 'tags': {'amenity': 'hospital', 'healthcare': 'hospital', 'name': 'Sala Asistencial Bº Escuela'}}"
"{'type': 'node', 'id': 2504505482, 'lat': -32.1609156, 'lon': -64.1090711, 'tags': {'amenity': 'hospital', 'healthcare': 'hospital', 'name': 'Sala Asistencial Bº Int. Ferrero'}}"
"{'type': 'node', 'id': 2504505483, 'lat': -32.1644783, 'lon': -64.1006873, 'tags': {'amenity': 'hospital', 'healthcare': 'hospital', 'name': 'Sala Asistencial Bº Magnasco'}}"
"{'type': 'node', 'id': 2504505484, 'lat': -32.1794685, 'lon': -64.0959522, 'tags': {'amenity': 'hospital', 'healthcare': 'hospital', 'name': 'Sala Asistencial Bº Sarmiento'}}"
"{'type': 'node', 'id': 2507677587, 'lat': -32.1743301, 'lon': -64.1228864, 'tags': {'amenity': 'hospital', 'healthcare': 'hospital', 'name': 'Sala Asistencial Bº Belgrano'}}"
"{'type': 'node', 'id': 2507677590, 'lat': -32.184938, 'lon': -64.122541, 'tags': {'amenity': 'hospital', 'healthcare': 'hospital', 'name': 'Sala Asistencial Bº Castagnino'}}"
"{'type': 'node', 'id': 2507677593, 'lat': -32.172093, 'lon': -64.1460777, 'tags': {'amenity': 'hospital', 'healthcare': 'hospital', 'name': 'Sala Asistencial Bº Monte Grande'}}"
"{'type': 'node', 'id': 2507677596, 'lat': -32.1668526, 'lon': -64.1062896, 'tags': {'amenity': 'hospital', 'healthcare': 'hospital', 'name': 'Sala Asistencial Bº Norte'}}"
"{'type': 'node', 'id': 2507677599, 'lat': -32.1678502, 'lon': -64.1551975, 'tags': {'amenity': 'hospital', 'healthcare': 'hospital', 'name': 'Sala Asistencial Bº Pque. Monte Grande'}}"
"{'type': 'node', 'id': 2931506906, 'lat': -31.6613659, 'lon': -64.431813, 'tags': {'addr:full': 'Srta. Ema Ceballos Esq. Paraguay', 'addr:postcode': '5186', 'amenity': 'clinic', 'healthcare': 'clinic', 'name': 'Dispensario 3 Doctor Ramon Carrillo', 'operator': 'municipal', 'operator:type': 'public', 'phone': '(03547) 15-650878 / 428', 'ref:sisa_codigo': '50141472231787', 'ref:sisa_tipologia': 'ESSIDT'}}"
"{'type': 'node', 'id': 3003551039, 'lat': -31.9706585, 'lon': -64.5541978, 'tags': {'addr:city': 'Villa Gral Belgrano', 'addr:housenumber': '91', 'addr:street': 'Avenida Las Magnolias', 'amenity': 'pharmacy', 'healthcare': 'pharmacy', 'name': 'Farmacia de la Clinica'}}"
"{'type': 'node', 'id': 3086931906, 'lat': -32.6994981, 'lon': -63.706082, 'tags': {'addr:city': 'Las Perdices', 'addr:housenumber': '520', 'addr:postcode': '5921', 'addr:street': 'Sarmiento', 'amenity': 'hospital', 'emergency': 'no', 'healthcare': 'hospital', 'name': 'Hospital Municipal Doctor Alfredo Garimaldi', 'name:en': 'Town Hospital', 'official_name': 'Hospital Municipal Dr. Alfredo Garimaldi'}}"
"{'type': 'node', 'id': 3166987010, 'lat': -32.1399868, 'lon': -64.5044095, 'tags': {'amenity': 'clinic', 'healthcare': 'clinic', 'name': 'Sala de Salud'}}"
"{'type': 'node', 'id': 3228321672, 'lat': -32.2038632, 'lon': -64.400855, 'tags': {'amenity': 'clinic', 'healthcare': 'clinic', 'name': 'CLINICA'}}"
"{'type': 'node', 'id': 3238172686, 'lat': -31.6507285, 'lon': -64.434038, 'tags': {'amenity': 'pharmacy', 'healthcare': 'pharmacy', 'name': 'Martinez'}}"
"{'type': 'node', 'id': 3246125601, 'lat': -31.8993776, 'lon': -64.7731397, 'tags': {'amenity': 'pharmacy', 'building': 'yes', 'healthcare': 'pharmacy'}}"
"{'type': 'node', 'id': 3311931421, 'lat': -32.7575724, 'lon': -63.7885769, 'tags': {'amenity': 'hospital', 'healthcare': 'hospital', 'name': 'Hospital Municipal'}}"
"{'type': 'node', 'id': 3312499723, 'lat': -32.7590302, 'lon': -63.7894309, 'tags': {'addr:city': 'General Deheza', 'addr:postcode': '5923', 'addr:street': 'Saavedra', 'amenity': 'clinic', 'healthcare': 'clinic', 'name': 'Clínica Privada General Deheza'}}"
"{'type': 'node', 'id': 3446772954, 'lat': -32.0627076, 'lon': -64.5304128, 'tags': {'amenity': 'hospital', 'emergency': 'yes', 'healthcare': 'hospital', 'name': 'Hospital Regional Eva Perón'}}"
"{'type': 'node', 'id': 3556510565, 'lat': -31.6546273, 'lon': -64.4417492, 'tags': {'amenity': 'pharmacy', 'healthcare': 'pharmacy', 'name': 'Farmacia Sastre'}}"
"{'type': 'node', 'id': 3556517366, 'lat': -31.6568497, 'lon': -64.4316457, 'tags': {'addr:city': 'Alta Gracia', 'addr:full': 'Carignani 180', 'addr:housenumber': '180', 'addr:postcode': '5186', 'addr:street': 'Doctor Dino Carignani', 'amenity': 'hospital', 'emergency': 'yes', 'healthcare': 'hospital', 'healthcare:speciality': 'general', 'name': 'Sanatorio Alta Gracia', 'operator': 'Sanatorio Alta Gracia S.R.L.', 'operator:type': 'private', 'phone': '+54 3547 421209', 'ref:sisa_codigo': '10141472331307', 'ref:sisa_tipologia': 'ESCIG'}}"
"{'type': 'node', 'id': 3563871495, 'lat': -31.6607062, 'lon': -64.427926, 'tags': {'amenity': 'pharmacy', 'healthcare': 'pharmacy', 'name': 'Barrandeguy'}}"
"{'type': 'node', 'id': 3665648399, 'lat': -32.7650307, 'lon': -63.8007274, 'tags': {'amenity': 'hospital', 'healthcare': 'hospital', 'name': 'CENTRO SALUD B° RIBETTO'}}"
"{'type': 'node', 'id': 3680186063, 'lat': -32.6922013, 'lon': -63.7081706, 'tags': {'amenity': 'hospital', 'emergency': 'yes', 'healthcare': 'hospital', 'name': 'C.I.C'}}"
"{'type': 'node', 'id': 3692802181, 'lat': -32.1758462, 'lon': -64.1054802, 'tags': {'amenity': 'pharmacy', 'healthcare': 'pharmacy', 'name': 'Ponte'}}"
"{'type': 'node', 'id': 3740776929, 'lat': -32.0353296, 'lon': -63.8635562, 'tags': {'amenity': 'hospital', 'healthcare': 'hospital', 'name': 'Centro Asistencial Santa Rosa'}}"
"{'type': 'node', 'id': 3835249405, 'lat': -31.9142604, 'lon': -63.6847229, 'tags': {'addr:city': 'Oncativo', 'addr:housenumber': '118', 'addr:postcode': '5986', 'addr:street': 'Coronel Punch', 'amenity': 'clinic', 'healthcare': 'clinic', 'name': 'Clínica ""Hominis""', 'phone': '03572 466840'}}"
"{'type': 'node', 'id': 4093434893, 'lat': -31.5629132, 'lon': -63.5267698, 'tags': {'addr:city': 'Villa del Rosario', 'addr:housenumber': '150', 'addr:postcode': '5963', 'addr:street': 'Agrimensor Dalmacio Vélez', 'amenity': 'hospital', 'description': 'Dispensario_Municipal', 'healthcare': 'hospital', 'name': 'Salita Luz de Vida'}}"
"{'type': 'node', 'id': 4093437520, 'lat': -31.5518466, 'lon': -63.5269951, 'tags': {'addr:city': 'Villa del Rosario', 'addr:housenumber': '1290', 'addr:postcode': '5963', 'addr:street': 'Santa Fe', 'amenity': 'hospital', 'emergency': 'no', 'healthcare': 'hospital', 'level': 'Dispensario_Municipal', 'name': 'Alma Atta'}}"
"{'type': 'node', 'id': 4093457081, 'lat': -31.5590782, 'lon': -63.5350471, 'tags': {'addr:city': 'Villa del Rosario', 'addr:housenumber': '493', 'addr:postcode': '5963', 'addr:street': '9 de Julio', 'amenity': 'hospital', 'healthcare': 'hospital', 'name': 'Clínica', 'operator': 'Privada Regional'}}"
"{'type': 'node', 'id': 4093465793, 'lat': -31.5569344, 'lon': -63.5358982, 'tags': {'addr:city': 'Villa del Rosario', 'addr:housenumber': '635', 'addr:postcode': '5963', 'addr:street': 'Hipólito Yrigoyen', 'amenity': 'hospital', 'emergency': 'si', 'healthcare': 'hospital', 'name': 'Clínica', 'operator': 'Privada Regional'}}"
"{'type': 'node', 'id': 4093471782, 'lat': -31.5540202, 'lon': -63.5377784, 'tags': {'addr:city': 'Villa del Rosario', 'addr:housenumber': '870', 'addr:postcode': '5963', 'addr:street': 'Avenida San Martín', 'amenity': 'hospital', 'emergency': 'si', 'healthcare': 'hospital', 'name': 'Clínica', 'operator': 'San Martín'}}"
"{'type': 'node', 'id': 4178121796, 'lat': -31.7155831, 'lon': -64.4368375, 'tags': {'addr:housenumber': '354', 'addr:street': 'Almendros', 'amenity': 'doctors', 'healthcare': 'doctor', 'internet_access': 'wlan', 'name': 'Verónica', 'opening_hours': '24/7', 'phone': '3547479270'}}"
"{'type': 'node', 'id': 4210114493, 'lat': -31.64627, 'lon': -64.4373981, 'tags': {'addr:full': 'Gobernador Sanichelli S / Nº', 'addr:postcode': '5186', 'amenity': 'clinic', 'healthcare': 'clinic', 'name': 'Dispensario 7 Barrio Sabattini', 'operator': 'municipal', 'operator:type': 'public', 'phone': '03547-428121', 'ref:sisa_codigo': '50141472231554', 'ref:sisa_tipologia': 'ESSIDT'}}"
"{'type': 'node', 'id': 4218354046, 'lat': -32.3036511, 'lon': -64.4846818, 'tags': {'addr:city': 'La Cruz', 'addr:housenumber': '496', 'addr:postcode': 'X5859', 'addr:street': 'José María Paz', 'amenity': 'hospital', 'emergency': 'yes', 'healthcare': 'hospital', 'name': 'Hospital Zonal', 'phone': '+54 (3546) 49-4046'}}"
"{'type': 'node', 'id': 4224610489, 'lat': -31.6402858, 'lon': -64.4287285, 'tags': {'addr:housenumber': '484', 'addr:postcode': '5186', 'addr:street': 'Los Comechingones', 'amenity': 'hospital', 'emergency': 'no', 'healthcare': 'hospital', 'healthcare:speciality': 'paediatrics;general', 'name': 'Dispensario n° 12'}}"
"{'type': 'node', 'id': 4231942689, 'lat': -31.5629724, 'lon': -63.541936, 'tags': {'addr:postcode': '5963', 'addr:street': 'Boulevard Sobremonte', 'amenity': 'hospital', 'description': 'El hospital San Vicente de Paul es zonal y uno de los más grandes de la zona por lo cuál alberga a todos los damnificados en desastres naturales a por lo menos 80 km a la redonda', 'healthcare': 'hospital'}}"
"{'type': 'node', 'id': 4393757796, 'lat': -32.1694957, 'lon': -64.1146757, 'tags': {'addr:postcode': '5850', 'addr:street': 'Santa Maria de Oro', 'amenity': 'clinic', 'healthcare': 'clinic', 'name': 'clinica modelo', 'name:es': 'clinica modelo'}}"
"{'type': 'node', 'id': 4523430374, 'lat': -32.0683532, 'lon': -64.5376462, 'tags': {'addr:city': 'Santa Rosa de Calamuchita', 'addr:housenumber': '229', 'addr:street': 'Libertad', 'amenity': 'pharmacy', 'healthcare': 'pharmacy', 'name': 'Peñalba'}}"
"{'type': 'node', 'id': 4523439049, 'lat': -32.065344, 'lon': -64.5402851, 'tags': {'amenity': 'pharmacy', 'healthcare': 'pharmacy', 'name': 'Cordoba 585'}}"
"{'type': 'node', 'id': 4523490552, 'lat': -32.0657273, 'lon': -64.5391103, 'tags': {'amenity': 'pharmacy', 'healthcare': 'pharmacy', 'name': 'Farmacia Ferroni'}}"
"{'type': 'node', 'id': 4645089890, 'lat': -31.6478655, 'lon': -63.9128094, 'tags': {'amenity': 'clinic', 'healthcare': 'clinic', 'name': 'Funes Diagnóstico por imágenes'}}"
"{'type': 'node', 'id': 4707558261, 'lat': -31.914129, 'lon': -63.6889608, 'tags': {'amenity': 'clinic', 'healthcare': 'clinic', 'name': 'CAP N° 3 UOM CBA'}}"
"{'type': 'node', 'id': 5039672023, 'lat': -32.1689707, 'lon': -64.1156423, 'tags': {'amenity': 'clinic', 'healthcare': 'clinic', 'name': 'Clinica De La Familia II', 'name:es': 'Clinica De La Familia II'}}"
"{'type': 'node', 'id': 5173953123, 'lat': -32.1952544, 'lon': -64.2553937, 'tags': {'amenity': 'pharmacy', 'healthcare': 'pharmacy', 'name': 'Farmacia Mengo de Aloisio', 'name:en': ""Mengo de Aloisio's pharmacy""}}"
"{'type': 'node', 'id': 5184059616, 'lat': -31.6828541, 'lon': -63.8808169, 'tags': {'addr:city': 'Pilar', 'addr:housenumber': '837', 'addr:postcode': '5972', 'addr:street': 'Tomas Garzon', 'amenity': 'hospital', 'description': 'Centro de salud para la población de Pilar.\n\nCategoría de tipología: Con atención médica diaria y con especialidades y/o otras profesiones', 'email': 'centrodesaludpilar@hotmail.com', 'emergency': 'yes', 'healthcare': 'hospital', 'healthcare:speciality': 'general', 'name': 'Centro de Salud ""Madre Teresa de Calcuta""', 'phone': '+54 3572 471429', 'ref:sisa_codigo': '50141192231404', 'ref:sisa_tipologia': 'ESSIDT'}}"
"{'type': 'node', 'id': 5189484422, 'lat': -32.1791811, 'lon': -64.1068203, 'tags': {'addr:city': 'Río Tercero', 'addr:housenumber': '500', 'addr:postcode': '5850', 'addr:street': '12 de Octubre', 'amenity': 'hospital', 'description': 'pertenece al ámbito de la medicina pública provincial - Servicios: medicina general, atención ambulatoria, internación, diagnóstico, cuenta con 47 camas', 'emergency': 'yes', 'healthcare': 'hospital', 'name': 'Hospital Provincial Río Tercero'}}"
"{'type': 'node', 'id': 5189505854, 'lat': -32.1806716, 'lon': -64.103103, 'tags': {'addr:city': 'Río Tercero', 'addr:housenumber': '132', 'addr:postcode': '5850', 'addr:street': 'Angélica Ortíz de Villarreal', 'amenity': 'hospital', 'healthcare': 'hospital', 'name': 'Proyecto Sala Asistencial'}}"
"{'type': 'node', 'id': 5202640322, 'lat': -31.6578094, 'lon': -64.4278895, 'tags': {'addr:housenumber': '47', 'addr:postcode': '5186', 'addr:street': 'Boulevard Presidente Doctor Raúl Alfonsín', 'amenity': 'doctors', 'healthcare': 'doctor', 'internet_access': 'wlan', 'name': 'Experiencia de vida', 'name:en': 'Life experience', 'opening_hours': 'Tu, Th 05:00-20:00; Sa 11:00-14:00'}}"
"{'type': 'node', 'id': 5223390921, 'lat': -32.1872607, 'lon': -64.2552799, 'tags': {'amenity': 'pharmacy', 'healthcare': 'pharmacy'}}"
"{'type': 'node', 'id': 5236538222, 'lat': -32.6925538, 'lon': -64.7211557, 'tags': {'addr:postcode': '5801', 'addr:street': 'Los Cedros', 'amenity': 'pharmacy', 'building': 'yes', 'email': 'farmaciaubino@gmail.com', 'healthcare': 'pharmacy', 'name': 'Farmacia Ubino', 'name:en': 'Pharmacy Ubino', 'phone': '03584888446', 'website': 'https://www.facebook.com/farmaciaubinoalpa'}}"
"{'type': 'node', 'id': 5242798204, 'lat': -32.8126607, 'lon': -63.8755627, 'tags': {'addr:city': 'General Cabrera', 'addr:postcode': '5809', 'addr:street': 'Bulevar Buenos Aires', 'amenity': 'pharmacy', 'healthcare': 'pharmacy', 'name': 'La Red'}}"
"{'type': 'node', 'id': 5488969921, 'lat': -32.7591704, 'lon': -64.3333584, 'tags': {'addr:full': 'Pedro Caviglia 111', 'addr:postcode': '5813', 'amenity': 'hospital', 'healthcare': 'hospital', 'name': 'Hospital Municipal De Alcira', 'opening_hours': '24/7', 'operator': 'Municipal', 'operator:type': 'public', 'phone': '0358-4969614', 'ref:sisa_codigo': '10140982231176', 'ref:sisa_tipologia': 'ESCIG'}}"
"{'type': 'node', 'id': 5707258848, 'lat': -31.7131221, 'lon': -64.4042039, 'tags': {'amenity': 'pharmacy', 'dispensing': 'yes', 'drive_through': 'yes', 'healthcare': 'pharmacy', 'name': 'Farmacia del Valle'}}"
"{'type': 'node', 'id': 5747573648, 'lat': -32.1692487, 'lon': -64.1143602, 'tags': {'amenity': 'pharmacy', 'healthcare': 'pharmacy', 'name': 'Ponte'}}"
"{'type': 'node', 'id': 5748276858, 'lat': -31.6717639, 'lon': -63.8881293, 'tags': {'amenity': 'pharmacy', 'healthcare': 'pharmacy'}}"
"{'type': 'node', 'id': 6316882301, 'lat': -31.6583107, 'lon': -64.4105136, 'tags': {'amenity': 'pharmacy', 'healthcare': 'pharmacy', 'name': 'Vilca'}}"
"{'type': 'node', 'id': 6316882303, 'lat': -31.6583324, 'lon': -64.4138114, 'tags': {'amenity': 'pharmacy', 'healthcare': 'pharmacy', 'name': 'De Napoli'}}"
"{'type': 'node', 'id': 6316882304, 'lat': -31.6583575, 'lon': -64.41587, 'tags': {'amenity': 'pharmacy', 'healthcare': 'pharmacy', 'name': 'Granaderos'}}"
"{'type': 'node', 'id': 6316882305, 'lat': -31.658668, 'lon': -64.4197753, 'tags': {'amenity': 'pharmacy', 'healthcare': 'pharmacy', 'name': 'Vilca'}}"
"{'type': 'node', 'id': 6316882306, 'lat': -31.6583564, 'lon': -64.4207892, 'tags': {'amenity': 'pharmacy', 'healthcare': 'pharmacy', 'name': 'Bonciolini'}}"
"{'type': 'node', 'id': 6316882307, 'lat': -31.6583723, 'lon': -64.4229323, 'tags': {'amenity': 'pharmacy', 'healthcare': 'pharmacy', 'name': 'Uema'}}"
"{'type': 'node', 'id': 6316882310, 'lat': -31.6583484, 'lon': -64.4170488, 'tags': {'amenity': 'pharmacy', 'healthcare': 'pharmacy', 'name': 'Dutto'}}"
"{'type': 'node', 'id': 6316882312, 'lat': -31.6586761, 'lon': -64.4267875, 'tags': {'amenity': 'pharmacy', 'healthcare': 'pharmacy', 'name': 'San Marcos'}}"
"{'type': 'node', 'id': 6316882601, 'lat': -31.6483171, 'lon': -64.0901694, 'tags': {'addr:city': 'Lozada', 'addr:full': 'Corrientes 34', 'addr:housenumber': '34', 'addr:postcode': '5101', 'addr:street': 'Corrientes', 'amenity': 'clinic', 'healthcare': 'clinic', 'name': 'Dispensario', 'official_name': 'Dispensario Municipal Felipe Gomez de Lozada', 'operator': 'Municipal', 'operator:type': 'public', 'phone': '+54 03572 492090', 'ref:sisa_codigo': '50141472231925', 'ref:sisa_tipologia': 'ESSIDT'}}"
"{'type': 'node', 'id': 6316882602, 'lat': -31.6482075, 'lon': -64.0896463, 'tags': {'amenity': 'pharmacy', 'healthcare': 'pharmacy'}}"
"{'type': 'node', 'id': 6316882604, 'lat': -31.6493241, 'lon': -64.0861541, 'tags': {'amenity': 'pharmacy', 'healthcare': 'pharmacy'}}"
"{'type': 'node', 'id': 6316883162, 'lat': -31.6581451, 'lon': -64.4292743, 'tags': {'amenity': 'pharmacy', 'healthcare': 'pharmacy', 'name': 'El Ceibo'}}"
"{'type': 'node', 'id': 6316883163, 'lat': -31.6579477, 'lon': -64.4291992, 'tags': {'amenity': 'pharmacy', 'healthcare': 'pharmacy', 'name': 'Ricca'}}"
"{'type': 'node', 'id': 6316883165, 'lat': -31.6585424, 'lon': -64.4317075, 'tags': {'amenity': 'pharmacy', 'healthcare': 'pharmacy', 'name': 'San Martín'}}"
"{'type': 'node', 'id': 6316883166, 'lat': -31.662435, 'lon': -64.4302453, 'tags': {'amenity': 'pharmacy', 'healthcare': 'pharmacy', 'name': 'Nakasone'}}"
"{'type': 'node', 'id': 6316883180, 'lat': -31.6569003, 'lon': -64.432998, 'tags': {'addr:city': 'Alta Gracia', 'addr:housenumber': '71', 'addr:street': 'Belisario Roldán', 'amenity': 'clinic', 'healthcare': 'clinic', 'name': 'Centro Médico Modelo', 'opening_hours': 'Mo-Fr 8:00-12:30 15:30-20:30', 'phone': '03547430235'}}"
"{'type': 'node', 'id': 6316883181, 'lat': -31.6571281, 'lon': -64.4328189, 'tags': {'addr:city': 'Alta Gracia', 'addr:full': 'Belisario Roldan 40', 'addr:housenumber': '40', 'addr:postcode': '5186', 'addr:street': 'Belisario Roldán', 'amenity': 'hospital', 'healthcare': 'hospital', 'name': 'Clinica Santa María', 'operator': 'Clinica Privada Santa María S.A.', 'operator:type': 'private', 'phone': '+54 3547 421093', 'ref:sisa_codigo': '10141472331120', 'ref:sisa_tipologia': 'ESCIG'}}"
"{'type': 'node', 'id': 6316883186, 'lat': -31.6567632, 'lon': -64.4310547, 'tags': {'addr:city': 'Alta Gracia', 'addr:housenumber': '102', 'addr:street': 'Ingeniero Olmos', 'amenity': 'pharmacy', 'healthcare': 'pharmacy', 'name': 'Piccone', 'opening_hours': 'Mo-Sa 8:00-13:00 16:30-21:00', 'phone': '03547430660'}}"
"{'type': 'node', 'id': 6316883187, 'lat': -31.6576931, 'lon': -64.431434, 'tags': {'addr:city': 'Alta Gracia', 'addr:housenumber': '199', 'addr:street': 'Avenida Belgrano', 'amenity': 'pharmacy', 'healthcare': 'pharmacy', 'name': 'Olsina', 'phone': '03547421036', 'website': 'https://www.instagram.com/farmacia_olsina/'}}"
"{'type': 'node', 'id': 6316883262, 'lat': -31.6571908, 'lon': -64.4368261, 'tags': {'amenity': 'pharmacy', 'healthcare': 'pharmacy', 'name': 'Paravachasca'}}"
"{'type': 'node', 'id': 6316883273, 'lat': -31.6585892, 'lon': -64.4330643, 'tags': {'addr:city': 'Alta Gracia', 'addr:housenumber': '105', 'addr:street': 'España', 'amenity': 'pharmacy', 'healthcare': 'pharmacy', 'name': 'Del Pueblo', 'website': 'https://gpsfarma.com/'}}"
"{'type': 'node', 'id': 6440633985, 'lat': -31.6489338, 'lon': -63.9110474, 'tags': {'amenity': 'hospital', 'healthcare': 'hospital', 'name': 'Clinica Cruz Verde'}}"
"{'type': 'node', 'id': 6693784097, 'lat': -32.0644727, 'lon': -64.5552765, 'tags': {'amenity': 'pharmacy', 'healthcare': 'pharmacy', 'name': 'Villa Strada'}}"
"{'type': 'node', 'id': 6693784098, 'lat': -32.0589343, 'lon': -64.5434922, 'tags': {'amenity': 'pharmacy', 'healthcare': 'pharmacy', 'name': 'Costanera'}}"
"{'type': 'node', 'id': 6693784099, 'lat': -32.0711427, 'lon': -64.5328505, 'tags': {'amenity': 'pharmacy', 'healthcare': 'pharmacy', 'name': 'Grau'}}"
"{'type': 'node', 'id': 6693784100, 'lat': -32.0669992, 'lon': -64.5384926, 'tags': {'amenity': 'pharmacy', 'healthcare': 'pharmacy', 'name': 'Sucaria'}}"
"{'type': 'node', 'id': 6693784101, 'lat': -32.0727269, 'lon': -64.5346704, 'tags': {'amenity': 'pharmacy', 'healthcare': 'pharmacy', 'name': 'Independencia'}}"
"{'type': 'node', 'id': 6693784102, 'lat': -32.0710336, 'lon': -64.5344371, 'tags': {'amenity': 'pharmacy', 'healthcare': 'pharmacy', 'name': 'Catalina'}}"
"{'type': 'node', 'id': 6693784103, 'lat': -32.0706245, 'lon': -64.5389083, 'tags': {'amenity': 'pharmacy', 'healthcare': 'pharmacy', 'name': 'Amate'}}"
"{'type': 'node', 'id': 6693784104, 'lat': -32.0702847, 'lon': -64.5364581, 'tags': {'amenity': 'pharmacy', 'healthcare': 'pharmacy', 'name': 'Costa Azul'}}"
"{'type': 'node', 'id': 6698080176, 'lat': -32.0724655, 'lon': -64.5348997, 'tags': {'amenity': 'doctors', 'healthcare': 'doctor', 'name': 'Consultorio Sanarte'}}"
"{'type': 'node', 'id': 6698123789, 'lat': -32.0685039, 'lon': -64.5393965, 'tags': {'amenity': 'dentist', 'healthcare': 'dentist'}}"
"{'type': 'node', 'id': 6698123795, 'lat': -32.0739633, 'lon': -64.5298049, 'tags': {'amenity': 'pharmacy', 'name': 'Berton'}}"
"{'type': 'node', 'id': 6698123829, 'lat': -32.0712245, 'lon': -64.5316073, 'tags': {'amenity': 'doctors', 'healthcare': 'doctor', 'name': 'Calamuchita Salud'}}"
"{'type': 'node', 'id': 6768261980, 'lat': -31.9225262, 'lon': -64.5775965, 'tags': {'amenity': 'clinic', 'healthcare': 'clinic', 'name': 'Dispensario'}}"
"{'type': 'node', 'id': 6806852938, 'lat': -31.8975182, 'lon': -64.7754295, 'tags': {'amenity': 'clinic', 'building': 'yes', 'healthcare': 'clinic', 'name': 'Dispensario'}}"
"{'type': 'node', 'id': 6831720839, 'lat': -31.5580901, 'lon': -64.19278, 'tags': {'addr:city': 'Bower', 'addr:postcode': '5119', 'addr:street': 'Avenida San Martín', 'amenity': 'clinic', 'healthcare': 'clinic', 'healthcare:speciality': 'general', 'name': 'Dispensario Bower', 'opening_hours': 'Mo-Fr 09:00-17:00', 'operator': 'Municipalidad', 'operator:type': 'public', 'phone': '0351- 4993264'}}"
"{'type': 'node', 'id': 7082434291, 'lat': -31.9127885, 'lon': -64.7280558, 'tags': {'amenity': 'clinic', 'healthcare': 'yes', 'name': 'Dispensario'}}"
"{'type': 'node', 'id': 7415832276, 'lat': -31.8461606, 'lon': -63.7468659, 'tags': {'addr:city': 'Manfredi', 'addr:housenumber': '107', 'addr:postcode': '5988', 'addr:street': 'Avenida 8 de Septiembre', 'amenity': 'doctors', 'description': 'Categoría de tipología: Con atención médica general por lo menos 3 días de la semana', 'email': 'munmanfredi@yahoo.com.ar', 'healthcare': 'doctor', 'name': 'Centro De Salud Municipal Manfredi', 'phone': '+54 3572 493024', 'ref': 'ESSIDT'}}"
"{'type': 'node', 'id': 7502294607, 'lat': -31.9122153, 'lon': -63.6807708, 'tags': {'addr:city': 'Oncativo', 'addr:full': 'Ituzaingo 681', 'addr:housenumber': '681', 'addr:postcode': '5986', 'addr:street': 'Ituzaingó', 'amenity': 'hospital', 'healthcare': 'hospital', 'name': 'Sanatorio Privado Gatti Srl', 'operator': 'Privado', 'operator:type': 'private', 'phone': '+54 3572 466085', 'ref:sisa_codigo': '10141192331315', 'ref:sisa_tipologia': 'ESCIG'}}"
"{'type': 'node', 'id': 7504925468, 'lat': -31.6449315, 'lon': -64.4291702, 'tags': {'addr:city': 'Alta Gracia', 'addr:postcode': '5186', 'addr:street': 'Santa Ema Ceballos y Paraguay', 'healthcare': 'Dispensario', 'healthcare:speciality': 'general', 'name': 'Dispensario N°2 Alta Gracia', 'operator': 'Publico', 'phone': '03547 15-66-2446'}}"
"{'type': 'node', 'id': 7508650348, 'lat': -32.4461777, 'lon': -64.3948906, 'tags': {'addr:city': 'Berrotarán', 'addr:full': 'Catamarca 389', 'addr:housenumber': '389', 'addr:postcode': '5817', 'addr:street': 'Catamarca', 'alt_name': 'Hospital Municipal Berrotarán', 'amenity': 'hospital', 'emergency': 'yes', 'healthcare': 'hospital', 'healthcare:speciality': 'general;pediatrics;gynaecology;radiology;dentist;ophthalmology;dermatology;cardiology', 'name': 'Hospital Municipal Doctor René Favaloro', 'official_name': 'Hospital Doctor René Favaloro', 'operator': 'Municipal', 'operator:type': 'public', 'phone': '+54 358 4941509', 'ref:sisa_codigo': '10140982231174', 'ref:sisa_tipologia': 'ESCIG'}}"
"{'type': 'node', 'id': 7508763444, 'lat': -31.5580912, 'lon': -64.1927558, 'tags': {'addr:full': 'Av. Libertador San Martín S / N', 'addr:postcode': '5119', 'amenity': 'clinic', 'name': 'Dispensario Bouwer', 'operator': 'municipal', 'operator:type': 'public', 'phone': '(0351) 499-3100', 'ref:sisa_codigo': '50141472231789', 'ref:sisa_tipologia': 'ESSIDT'}}"
"{'type': 'node', 'id': 7508875525, 'lat': -31.8180181, 'lon': -64.2869347, 'tags': {'addr:city': 'Despeñaderos', 'addr:full': 'Sarmiento 256', 'addr:postcode': '5121', 'addr:street': 'Sarmiento', 'amenity': 'hospital', 'healthcare': 'hospital', 'name': 'Hospital Municipal Despeñaderos', 'operator': 'municipal', 'operator:type': 'public', 'phone': '+54 3547 492013', 'ref:sisa_codigo': '10141472231184', 'ref:sisa_tipologia': 'ESCIG'}}"
"{'type': 'node', 'id': 7508885858, 'lat': -31.6539606, 'lon': -64.4517184, 'tags': {'addr:full': 'Las Rosas S / NY Los Manantiales', 'addr:postcode': '5186', 'addr:street': 'Matienzo', 'amenity': 'clinic', 'healthcare': 'clinic', 'name': 'Dispensario 4 Barrio La Gruta', 'operator': 'municipal', 'operator:type': 'public', 'phone': '03547-428121', 'ref:sisa_codigo': '50141472231553', 'ref:sisa_tipologia': 'ESSIDT'}}"
"{'type': 'node', 'id': 7508886455, 'lat': -31.5910899, 'lon': -64.4563579, 'tags': {'addr:full': 'Ruta Provincial C-45 Km 7.5', 'addr:postcode': '5187', 'amenity': 'clinic', 'healthcare': 'clinic', 'name': 'Dispensario 1 Falda Del Carmen', 'operator': 'municipal', 'operator:type': 'public', 'phone': '(03547) 48-9517', 'ref:sisa_codigo': '50141472231793', 'ref:sisa_tipologia': 'ESSIDT'}}"
"{'type': 'node', 'id': 7509065886, 'lat': -31.6626629, 'lon': -64.4478194, 'tags': {'addr:full': 'Srta. Ema Ceballos Esquina Paraguay', 'addr:postcode': '5186', 'addr:street': 'Florencio Varela', 'amenity': 'clinic', 'healthcare': 'clinic', 'name': 'Dispensario 9 Barrio Liniers', 'operator': 'municipal', 'operator:type': 'public', 'phone': '03547-428121', 'ref:sisa_codigo': '50141472231555', 'ref:sisa_tipologia': 'ESSIDT'}}"
"{'type': 'node', 'id': 7509305051, 'lat': -32.6946018, 'lon': -64.7206571, 'tags': {'addr:city': 'Alpa Corral', 'addr:full': 'Los Ligustros', 'addr:postcode': '5801', 'addr:street': 'Los Ligustros', 'amenity': 'clinic', 'building': 'yes', 'healthcare': 'clinic', 'name': 'Centro de Salud de Alpa Corral', 'operator': 'Municipal', 'operator:type': 'public', 'phone': '+54 0358 488828', 'ref:sisa_codigo': '50140982231730', 'ref:sisa_tipologia': 'ESSIDT'}}"
"{'type': 'node', 'id': 7516129065, 'lat': -31.5139325, 'lon': -64.1966165, 'tags': {'addr:city': 'Córdoba', 'addr:full': 'Sunchillo entre Caragutá y Caimbé', 'addr:postcode': '5000', 'addr:street': 'Sunchillo', 'alt_name': 'UPAS 27 - Barrio Villa Rivadavia', 'amenity': 'clinic', 'fixme': 'ubicacion precisa', 'healthcare': 'clinic', 'name': 'Centro de Salud 89 - Villa Rivadavia', 'opening_hours': 'Mo-Fr 07:00-15:00', 'operator': 'Municipal', 'operator:type': 'public', 'phone': '+54 0351 4333228', 'ref:sisa_codigo': '50140142233253', 'ref:sisa_tipologia': 'ESSIDT'}}"
"{'type': 'node', 'id': 7518562724, 'lat': -31.5547752, 'lon': -64.0071204, 'tags': {'addr:city': 'Toledo', 'addr:full': '25 de Mayo y Constitución', 'addr:postcode': '5123', 'addr:street': 'Constitución', 'amenity': 'clinic', 'healthcare': 'clinic', 'name': 'Dispensario Municipal Jesús Ramon Carreño de Toledo', 'operator': 'Municipal', 'operator:type': 'public', 'phone': '+54 351 4905089;+54 351 4905090;+54 351 4905;+54 351 4905041', 'ref:sisa_codigo': '50141472231927', 'ref:sisa_tipologia': 'ESSIDT'}}"
"{'type': 'node', 'id': 7518642271, 'lat': -31.6991327, 'lon': -64.4021939, 'tags': {'addr:city': 'Anisacate', 'addr:full': 'Calle Bosque Alegre S/N', 'addr:postcode': '5189', 'addr:street': 'Bosque Alegre', 'alt_name': 'CAPS 2', 'amenity': 'clinic', 'healthcare': 'clinic', 'healthcare:speciality': 'general;asistencia_social;dentist;pediatrics;fisioterapia;nutrición;psicología', 'name': 'Dispensario 2 de Anisacate', 'opening_hours': 'Mo-Th 07:30-19:00; Fr 07:30:12:30', 'operator': 'Municipal', 'operator:type': 'public', 'phone': '+54 03547 484054', 'ref:sisa_codigo': '50141472232226', 'ref:sisa_tipologia': 'ESSIDT'}}"
"{'type': 'node', 'id': 7527105777, 'lat': -31.7782044, 'lon': -64.5299685, 'tags': {'addr:full': 'Calle Los Pinos S/N', 'addr:postcode': '5189', 'amenity': 'clinic', 'fixme': 'revisar posición y direccón', 'healthcare': 'clinic', 'name': 'Dispensario Villa Ciudad De América', 'operator': 'Municipal', 'operator:type': 'public', 'phone': '+54 (3547) 48-9101', 'ref:sisa_codigo': '50141472231672', 'ref:sisa_tipologia': 'ESSIDT'}}"
"{'type': 'node', 'id': 7527475450, 'lat': -31.5138396, 'lon': -64.1905913, 'tags': {'addr:full': 'Camino San Antonio Km 7.5', 'addr:postcode': '5000', 'amenity': 'clinic', 'healthcare': 'clinic', 'name': 'UPAS 15 - Barrio Albert Sabin', 'operator': 'Municipal', 'operator:type': 'public', 'phone': '0351-4333215', 'ref:sisa_codigo': '50140142233269', 'ref:sisa_tipologia': 'ESSIDT'}}"
"{'type': 'node', 'id': 7527515454, 'lat': -31.5048531, 'lon': -64.1942953, 'tags': {'addr:full': 'Camino A San Antonio Km 8.5', 'addr:postcode': '5000', 'amenity': 'clinic', 'fixme': 'ubicacion exacta', 'healthcare': 'clinic', 'name': 'CAPS Ciudad Obispo Angelelli', 'operator': 'Provincial', 'operator:type': 'public', 'ref:sisa_codigo': '50140142131387', 'ref:sisa_tipologia': 'ESSIDT'}}"
"{'type': 'node', 'id': 7527627781, 'lat': -31.5498584, 'lon': -64.2289817, 'tags': {'addr:full': 'Ruta Nacional 36 Km 797', 'addr:postcode': '5000', 'amenity': 'hospital', 'healthcare': 'hospital', 'name': 'Centro Medico Complejo Carcelario 1 Reverendo Padre Luchesse', 'operator': 'Provincial', 'operator:type': 'public', 'phone': '351-434 2613', 'ref:sisa_codigo': '10140142135177', 'ref:sisa_tipologia': 'ESCIG'}}"
"{'type': 'node', 'id': 7528170993, 'lat': -31.6683157, 'lon': -64.4249372, 'tags': {'addr:city': 'Alta Gracia', 'addr:full': 'Bernardino Rivadavia 985', 'addr:housenumber': '985', 'addr:postcode': '5186', 'addr:street': 'Bernardino Rivadavia', 'amenity': 'clinic', 'healthcare': 'clinic', 'name': 'Dispensario 5 Juan Ledesma', 'opening_hours': '07:00-13:00', 'operator': 'Municipal', 'operator:type': 'public', 'phone': '+54 03547 428130 / 429303', 'ref:sisa_codigo': '50141472232289', 'ref:sisa_tipologia': 'ESSIDT'}}"
"{'type': 'node', 'id': 7529483506, 'lat': -31.5250944, 'lon': -64.2862832, 'tags': {'addr:full': 'Aniseto Granado S/N°', 'addr:postcode': '5101', 'addr:street': 'Aniseto Granado', 'amenity': 'clinic', 'fixme': 'confirmar ubicacion', 'healthcare': 'clinic', 'name': 'Centro de Salud de Los Cedros', 'operator': 'Municipal', 'operator:type': 'public', 'phone': '+54 9 0351 156626150', 'ref:sisa_codigo': '50141472231444', 'ref:sisa_tipologia': 'ESSIDT'}}"
"{'type': 'node', 'id': 7588170285, 'lat': -32.4526567, 'lon': -64.3860348, 'tags': {'amenity': 'pharmacy', 'dispensing': 'yes', 'healthcare': 'pharmacy'}}"
"{'type': 'node', 'id': 7771337370, 'lat': -31.6781401, 'lon': -63.8815029, 'tags': {'addr:city': 'Pilar', 'addr:housenumber': '646', 'addr:street': '25 de Mayo', 'amenity': 'clinic', 'description': 'Categoría de tipología: Bajo riesgo con internación simple', 'email': 'clinicapasteursrl@gmail.com', 'healthcare': 'clinic', 'name': 'Clínica Privada Pasteur', 'operator': 'CLINICA PRIVADA PASTEUR S.R.L', 'operator:type': 'private', 'phone': '+54 3572 470155', 'ref:sisa_codigo': '10141192331089', 'ref:sisa_tipologia': 'ESCIG'}}"
"{'type': 'node', 'id': 7792822413, 'lat': -32.1759848, 'lon': -64.5739259, 'tags': {'amenity': 'clinic', 'healthcare': 'clinic', 'name': 'Dispensario'}}"
"{'type': 'node', 'id': 7815493424, 'lat': -31.987317, 'lon': -64.6930844, 'tags': {'amenity': 'clinic', 'healthcare': 'clinic', 'name': 'Dispensario'}}"
"{'type': 'node', 'id': 7818519265, 'lat': -32.0832109, 'lon': -64.5353356, 'tags': {'amenity': 'pharmacy', 'healthcare': 'pharmacy'}}"
"{'type': 'node', 'id': 7876252600, 'lat': -31.9102707, 'lon': -63.6888847, 'tags': {'addr:city': 'Oncativo', 'addr:housenumber': '158', 'addr:postcode': '5986', 'addr:street': 'Colón', 'amenity': 'hospital', 'description': 'Categoría de tipología: Bajo riesgo con internación simple', 'healthcare': 'hospital', 'name': 'Hospital Municipal San Isidro', 'ref:sisa_codigo': '10141192231225', 'ref:sisa_tipologia': 'ESCIG'}}"
"{'type': 'node', 'id': 7882185943, 'lat': -31.9126693, 'lon': -63.6831024, 'tags': {'addr:city': 'Oncativo', 'addr:housenumber': '601', 'addr:postcode': '5986', 'addr:street': 'San Martín', 'amenity': 'pharmacy', 'dispensing': 'yes', 'healthcare': 'pharmacy', 'name': 'Dezotti'}}"
"{'type': 'node', 'id': 7882185958, 'lat': -31.9151652, 'lon': -63.680965, 'tags': {'addr:city': 'Oncativo', 'addr:housenumber': '877', 'addr:postcode': '5986', 'addr:street': 'San Martín', 'amenity': 'pharmacy', 'dispensing': 'yes', 'healthcare': 'pharmacy', 'name': 'San Martín'}}"
"{'type': 'node', 'id': 7882185967, 'lat': -31.9169993, 'lon': -63.6833627, 'tags': {'addr:city': 'Oncativo', 'addr:housenumber': '192', 'addr:postcode': '5986', 'addr:street': 'Castelli', 'amenity': 'pharmacy', 'dispensing': 'yes', 'healthcare': 'pharmacy', 'name': 'Cittadini'}}"
"{'type': 'node', 'id': 7882185980, 'lat': -31.9132018, 'lon': -63.6862417, 'tags': {'addr:city': 'Oncativo', 'addr:housenumber': '159', 'addr:postcode': '5986', 'addr:street': 'Juan José Paso', 'amenity': 'pharmacy', 'dispensing': 'yes', 'healthcare': 'pharmacy', 'name': 'San Isidro', 'phone': '+54 3572 457079'}}"
"{'type': 'node', 'id': 7882186003, 'lat': -31.9141644, 'lon': -63.6802929, 'tags': {'addr:city': 'Oncativo', 'addr:housenumber': '826', 'addr:postcode': '5986', 'addr:street': 'Belgrano', 'amenity': 'pharmacy', 'dispensing': 'yes', 'healthcare': 'pharmacy', 'name': 'San Cayetano', 'phone': '+54 3572 421112'}}"
"{'type': 'node', 'id': 7882186004, 'lat': -31.9154037, 'lon': -63.6785523, 'tags': {'addr:city': 'Oncativo', 'addr:housenumber': '226', 'addr:postcode': '5986', 'addr:street': 'Piacenza', 'amenity': 'pharmacy', 'dispensing': 'yes', 'healthcare': 'pharmacy', 'name': 'Guadalupe', 'phone': '+54 3572 457770'}}"
"{'type': 'node', 'id': 7882386319, 'lat': -31.9780564, 'lon': -64.5594326, 'tags': {'amenity': 'pharmacy', 'healthcare': 'pharmacy', 'name': 'De La Villa'}}"
"{'type': 'node', 'id': 7882386346, 'lat': -31.9729007, 'lon': -64.558015, 'tags': {'amenity': 'clinic', 'healthcare': 'clinic', 'name': 'Sanatorio Alta Gracia'}}"
"{'type': 'node', 'id': 7882386353, 'lat': -31.9746424, 'lon': -64.5590571, 'tags': {'amenity': 'pharmacy', 'healthcare': 'pharmacy', 'name': 'Folli'}}"
"{'type': 'node', 'id': 7882386393, 'lat': -31.9770769, 'lon': -64.5590604, 'tags': {'amenity': 'doctors', 'healthcare': 'doctor', 'name': 'Consultorios Medicos'}}"
"{'type': 'node', 'id': 7882386408, 'lat': -31.9784773, 'lon': -64.5573565, 'tags': {'amenity': 'pharmacy', 'healthcare': 'pharmacy', 'name': 'Del Arroyo'}}"
"{'type': 'node', 'id': 7936196034, 'lat': -32.1861613, 'lon': -64.479108, 'tags': {'amenity': 'pharmacy', 'dispensing': 'yes', 'healthcare': 'pharmacy', 'name': 'Piacentini'}}"
"{'type': 'node', 'id': 7936196036, 'lat': -32.1869644, 'lon': -64.4794991, 'tags': {'amenity': 'doctors', 'healthcare': 'doctor', 'name': 'Merakaki Salud Integral'}}"
"{'type': 'node', 'id': 7936196052, 'lat': -32.1886306, 'lon': -64.4802619, 'tags': {'amenity': 'pharmacy', 'dispensing': 'yes', 'healthcare': 'pharmacy', 'name': 'Bernasconi'}}"
"{'type': 'node', 'id': 7936196058, 'lat': -32.1903577, 'lon': -64.4810662, 'tags': {'amenity': 'pharmacy', 'dispensing': 'yes', 'healthcare': 'pharmacy', 'name': 'Penalba'}}"
"{'type': 'node', 'id': 7942221426, 'lat': -32.1893422, 'lon': -64.4760698, 'tags': {'amenity': 'clinic', 'healthcare': 'clinic', 'name': 'Centro de Salud Doña Emilia Menendez'}}"
"{'type': 'node', 'id': 8115240340, 'lat': -32.207123, 'lon': -64.4018098, 'tags': {'amenity': 'pharmacy', 'dispensing': 'yes', 'healthcare': 'pharmacy', 'name': 'Dalvano'}}"
"{'type': 'node', 'id': 8194473707, 'lat': -32.1750835, 'lon': -64.4520181, 'tags': {'amenity': 'pharmacy', 'healthcare': 'pharmacy', 'name': 'Grangetto'}}"
"{'type': 'node', 'id': 8288267259, 'lat': -32.19398, 'lon': -64.3944459, 'tags': {'amenity': 'clinic', 'healthcare': 'clinic', 'name': 'Dispensario'}}"
"{'type': 'node', 'id': 8328988186, 'lat': -32.211798, 'lon': -64.3986797, 'tags': {'amenity': 'pharmacy', 'healthcare': 'pharmacy', 'name': 'Canavesio'}}"
"{'type': 'node', 'id': 8328988187, 'lat': -32.2115121, 'lon': -64.3987682, 'tags': {'amenity': 'clinic', 'healthcare': 'clinic', 'name': 'Centro Medico Calamuchita'}}"
"{'type': 'node', 'id': 8986310731, 'lat': -31.9786471, 'lon': -64.5726407, 'tags': {'addr:city': 'Villa del Dique', 'amenity': 'hospital', 'emergency': 'yes', 'healthcare': 'hospital', 'name': 'Hospital municipal Doctor Luis Rivarola'}}"
"{'type': 'node', 'id': 8986344823, 'lat': -32.449295, 'lon': -64.3911092, 'tags': {'addr:city': 'Berrotarán', 'addr:full': 'Catamarca 389', 'addr:housenumber': '389', 'addr:postcode': '5817', 'addr:street': 'Catamarca', 'alt_name': 'Hospital Municipal Berrotarán', 'amenity': 'hospital', 'emergency': 'yes', 'healthcare': 'hospital', 'healthcare:speciality': 'general;pediatrics;gynaecology;radiology;dentist;ophthalmology;dermatology;cardiology', 'name': 'Hospital Municipal Doctor René Favaloro', 'official_name': 'Hospital Doctor René Favaloro', 'operator': 'Municipal', 'operator:type': 'public', 'phone': '+54 358 4941509', 'ref:sisa_codigo': '10140982231174', 'ref:sisa_tipologia': 'ESCIG'}}"
"{'type': 'node', 'id': 9015678381, 'lat': -32.3042461, 'lon': -64.4837103, 'tags': {'addr:city': 'La Cruz', 'addr:housenumber': '657', 'addr:street': 'Vélez Sarsfield', 'amenity': 'pharmacy', 'healthcare': 'pharmacy', 'name': 'Sucaria Aruani'}}"
"{'type': 'node', 'id': 9015714380, 'lat': -32.297515, 'lon': -64.4777102, 'tags': {'addr:city': 'La Cruz', 'addr:housenumber': '178', 'addr:street': 'Avenida Córdoba', 'amenity': 'pharmacy', 'healthcare': 'pharmacy', 'name': 'Luján de Bima'}}"
"{'type': 'node', 'id': 9025324625, 'lat': -31.9173173, 'lon': -64.575389, 'tags': {'amenity': 'pharmacy', 'healthcare': 'pharmacy', 'name': 'San Agustín'}}"
"{'type': 'node', 'id': 9042230381, 'lat': -31.792119, 'lon': -64.5081916, 'tags': {'amenity': 'pharmacy', 'healthcare': 'pharmacy', 'name': 'La Villa'}}"
"{'type': 'node', 'id': 9099272888, 'lat': -32.2501321, 'lon': -63.6508632, 'tags': {'addr:city': 'Pampayasta Sur', 'addr:postcode': '5931', 'amenity': 'hospital', 'healthcare': 'hospital', 'name': 'Farmacia Cánovas'}}"
"{'type': 'node', 'id': 9111905129, 'lat': -32.7647691, 'lon': -64.3328712, 'tags': {'healthcare': 'midwife', 'name': 'La Partera'}}"
"{'type': 'node', 'id': 9205626368, 'lat': -32.1610285, 'lon': -63.4650199, 'tags': {'amenity': 'pharmacy', 'dispensing': 'yes', 'healthcare': 'pharmacy', 'name': 'Farmacia Fasolis Abello', 'phone': '353-4761835', 'website': 'https://www.facebook.com/farmaciafasolis.abello'}}"
"{'type': 'node', 'id': 9205626375, 'lat': -32.1624167, 'lon': -63.4691741, 'tags': {'amenity': 'hospital', 'healthcare': 'hospital', 'name': 'Hospital Municipal'}}"
"{'type': 'node', 'id': 9205626376, 'lat': -32.1645512, 'lon': -63.4657746, 'tags': {'addr:city': 'James Craik', 'addr:housenumber': '159', 'addr:postcode': '5984', 'addr:street': 'Intendente Moya', 'amenity': 'pharmacy', 'dispensing': 'yes', 'healthcare': 'pharmacy', 'name': 'Farmacia Lerda Nicolino'}}"
"{'type': 'node', 'id': 9205626377, 'lat': -32.1647911, 'lon': -63.4663322, 'tags': {'amenity': 'pharmacy', 'dispensing': 'yes', 'healthcare': 'pharmacy', 'name': 'Farmacia Fasolis Abello'}}"
"{'type': 'node', 'id': 9205626379, 'lat': -32.1643159, 'lon': -63.4666936, 'tags': {'amenity': 'clinic', 'healthcare': 'clinic', 'name': 'Centro Médico'}}"
"{'type': 'node', 'id': 9208372072, 'lat': -32.0388966, 'lon': -63.5705205, 'tags': {'amenity': 'pharmacy', 'dispensing': 'yes', 'healthcare': 'pharmacy', 'name': 'Daghero', 'phone': '+54 (3532) 41-1150'}}"
"{'type': 'node', 'id': 9262358492, 'lat': -31.6591006, 'lon': -64.4093415, 'tags': {'amenity': 'pharmacy', 'healthcare': 'pharmacy', 'name': 'Crucero'}}"
"{'type': 'node', 'id': 9331386245, 'lat': -32.1680908, 'lon': -64.1165695, 'tags': {'addr:housenumber': '25', 'addr:street': 'Obispo Trejo', 'healthcare': 'laboratory', 'name': 'Círculo de Bioquímicos Río Tercero', 'phone': '03571 422326 431227'}}"
"{'type': 'node', 'id': 9406299300, 'lat': -32.163265, 'lon': -63.892641, 'tags': {'addr:city': 'Villa Ascasubi', 'addr:housenumber': '50', 'addr:postcode': 'X5935', 'addr:street': 'Dussan Alacevich', 'amenity': 'pharmacy', 'dispensing': 'yes', 'healthcare': 'pharmacy', 'name': 'Frizzo', 'phone': '+54 (3571) 49-8025'}}"
"{'type': 'node', 'id': 9438022701, 'lat': -31.6541634, 'lon': -63.9150505, 'tags': {'addr:city': 'Río Segundo', 'addr:housenumber': '1076', 'addr:postcode': '5960', 'addr:street': 'Belgrano', 'amenity': 'pharmacy', 'healthcare': 'pharmacy', 'name': 'Marcos Acosta', 'opening_hours': 'Mo-Fr 09:00-12:30, 16:30-20:00', 'phone': '03572 42-3462', 'website': 'https://www.facebook.com/farmaciaMarcosAcosta/'}}"
"{'type': 'node', 'id': 9496114498, 'lat': -32.3028008, 'lon': -64.482889, 'tags': {'amenity': 'pharmacy'}}"
"{'type': 'node', 'id': 9741157598, 'lat': -31.7739443, 'lon': -64.5393754, 'tags': {'addr:city': 'Potrero de Garay', 'addr:housenumber': '6271', 'addr:street': 'Ruta Provincial S495', 'amenity': 'pharmacy', 'dispensing': 'yes', 'healthcare': 'pharmacy', 'name': 'TRAFUL de Potrero', 'opening_hours': 'Mo-Sa 09:00-13:30,17:00-21:00'}}"
"{'type': 'node', 'id': 9741191049, 'lat': -32.068819, 'lon': -64.5701108, 'tags': {'addr:street': 'Ruta Provincial Secundaria 228', 'amenity': 'pharmacy', 'dispensing': 'yes', 'healthcare': 'pharmacy', 'name': 'Santa Mónica', 'opening_hours': 'Mo-Sa 09:00-13:00,17:00-21:00'}}"
"{'type': 'node', 'id': 9854544181, 'lat': -32.0634456, 'lon': -64.5568398, 'tags': {'amenity': 'clinic', 'healthcare': 'yes', 'name': 'Dispensario Municipal Villa Strada'}}"
"{'type': 'node', 'id': 9884104029, 'lat': -32.1745347, 'lon': -64.5729755, 'tags': {'amenity': 'pharmacy', 'dispensing': 'yes', 'healthcare': 'pharmacy', 'name': 'FARMASOFF II'}}"
"{'type': 'node', 'id': 10015193001, 'lat': -31.7296086, 'lon': -64.4288747, 'tags': {'addr:city': 'Villa La Bolsa', 'addr:housenumber': '38,55', 'addr:street': 'Ruta Provincial 5', 'healthcare': 'rehabilitation', 'name': 'Valle Rehabilitación', 'phone': '03515095060'}}"
"{'type': 'node', 'id': 10179147520, 'lat': -31.6563874, 'lon': -64.4300177, 'tags': {'addr:city': 'Alta Gracia', 'addr:housenumber': '155', 'addr:street': 'Paraguay', 'amenity': 'pharmacy', 'healthcare': 'pharmacy', 'name': 'Galetto', 'opening_hours': 'Mo-Sa 9:00-12:30 17:00-21:00'}}"
"{'type': 'node', 'id': 10268914404, 'lat': -31.591991, 'lon': -64.3476534, 'tags': {'amenity': 'clinic', 'name': 'Dispensario'}}"
"{'type': 'node', 'id': 10269103126, 'lat': -31.6590153, 'lon': -64.429302, 'tags': {'addr:city': 'Alta Gracia', 'addr:housenumber': '342', 'addr:street': 'Mateo Beres', 'amenity': 'dentist', 'healthcare': 'dentist', 'phone': '03547404802', 'website': 'https://consultorio-odontologico-integral.business.site/'}}"
"{'type': 'node', 'id': 10272321749, 'lat': -31.6569966, 'lon': -64.4301055, 'tags': {'addr:city': 'Alta Gracia', 'addr:housenumber': '95', 'addr:street': 'Paraguay', 'amenity': 'doctors', 'healthcare': 'doctor', 'name': 'C.E.M.I.', 'phone': '03547423198'}}"
"{'type': 'node', 'id': 10276228082, 'lat': -31.6566597, 'lon': -64.43273, 'tags': {'addr:city': 'Alta Gracia', 'addr:housenumber': '98', 'addr:postcode': '5186', 'addr:street': 'Belisario Roldán', 'amenity': 'doctors', 'healthcare': 'doctor', 'name': 'ODONTIA', 'opening_hours': 'Mo-Sa 18:00-21:00', 'phone': '0354715506868'}}"
"{'type': 'node', 'id': 10653121870, 'lat': -31.6601892, 'lon': -64.4325911, 'tags': {'amenity': 'pharmacy', 'name': 'Farmacia Alta Gracia'}}"
"{'type': 'node', 'id': 10653165363, 'lat': -31.6635088, 'lon': -64.4281207, 'tags': {'amenity': 'pharmacy'}}"
"{'type': 'node', 'id': 10763123089, 'lat': -31.7290316, 'lon': -64.4117228, 'tags': {'addr:city': 'Valle de Anisacate', 'addr:street': 'Ruta Provincial 5', 'amenity': 'pharmacy', 'healthcare': 'pharmacy', 'name': 'Fabbro', 'opening_hours': 'Mo-Su 09:00-13:00 17:00-21:00', 'phone': '03572665530'}}"
"{'type': 'node', 'id': 10763717302, 'lat': -32.0644637, 'lon': -64.543078, 'tags': {'amenity': 'pharmacy', 'healthcare': 'pharmacy', 'name': 'Viena'}}"
"{'type': 'node', 'id': 10990079861, 'lat': -31.7472932, 'lon': -64.3893529, 'tags': {'healthcare': 'yes'}}"
"{'type': 'node', 'id': 11040493307, 'lat': -31.9795285, 'lon': -64.5537534, 'tags': {'amenity': 'pharmacy', 'healthcare': 'pharmacy', 'name': 'HOSS'}}"
"{'type': 'node', 'id': 11040493308, 'lat': -31.9650244, 'lon': -64.5556486, 'tags': {'amenity': 'pharmacy', 'healthcare': 'pharmacy', 'name': 'TRAFUL'}}"
"{'type': 'node', 'id': 11040493309, 'lat': -31.9363092, 'lon': -64.566966, 'tags': {'amenity': 'pharmacy', 'healthcare': 'pharmacy', 'name': 'TRAFUL DEL PORTAL'}}"
"{'type': 'node', 'id': 11040493310, 'lat': -31.9095638, 'lon': -64.5404367, 'tags': {'amenity': 'pharmacy', 'dispensing': 'yes', 'healthcare': 'pharmacy', 'name': 'Farmacia VCP'}}"
"{'type': 'node', 'id': 11146207926, 'lat': -32.1851289, 'lon': -64.5704995, 'tags': {'amenity': 'doctors', 'healthcare': 'doctor'}}"
"{'type': 'node', 'id': 11195008272, 'lat': -31.91714, 'lon': -63.5028053, 'tags': {'amenity': 'clinic', 'healthcare': 'clinic', 'name': 'C.A.P.S. ""Dr. René Favaloro""- Colonia Videla'}}"
"{'type': 'node', 'id': 11276392569, 'lat': -32.0643596, 'lon': -64.5547816, 'tags': {'amenity': 'dentist', 'healthcare': 'dentist', 'name': 'Odontologo'}}"
"{'type': 'node', 'id': 11473195550, 'lat': -31.6486466, 'lon': -64.4292046, 'tags': {'amenity': 'pharmacy', 'name': 'De La Estancia', 'phone': '3547642525'}}"
"{'type': 'node', 'id': 11506410762, 'lat': -32.1701963, 'lon': -64.1304608, 'tags': {'addr:city': 'Río Tercero', 'addr:housenumber': '1143', 'addr:postcode': '5850', 'addr:street': 'Avenida General Savio', 'amenity': 'pharmacy', 'healthcare': 'pharmacy', 'name': 'Somale', 'official_name': 'M.A. Somale', 'ref:sisa_codigo': '70141612333888'}}"
"{'type': 'node', 'id': 11506438066, 'lat': -32.1699073, 'lon': -64.123603, 'tags': {'addr:city': 'Río Tercero', 'addr:postcode': '5850', 'addr:street': 'Avenida General Savio', 'amenity': 'pharmacy', 'contact:facebook': 'https://www.facebook.com/farmacred/', 'contact:instagram': 'https://www.instagram.com/farmaciaponte/', 'healthcare': 'pharmacy', 'name': 'Ponte', 'website': 'https://www.farmaciasponte.com/'}}"
"{'type': 'node', 'id': 11509178822, 'lat': -32.1728144, 'lon': -64.1098059, 'tags': {'addr:city': 'Río Tercero', 'addr:postcode': '5850', 'addr:street': 'Acuña', 'amenity': 'pharmacy', 'healthcare': 'pharmacy', 'name': 'Droguería Argentina'}}"
"{'type': 'node', 'id': 11592981273, 'lat': -32.5679259, 'lon': -64.3935875, 'tags': {'addr:city': 'Elena', 'addr:housenumber': '79', 'addr:postcode': '5815', 'addr:street': 'San Juan', 'amenity': 'hospital', 'healthcare': 'hospital', 'name': 'Centro De Salud Municipal De Elen', 'phone': '+54 358 4881144', 'ref:sisa_codigo': '50140982231658', 'ref:sisa_tipologia': 'ESSIDT'}}"
"{'type': 'node', 'id': 11739748383, 'lat': -32.1921946, 'lon': -64.2619376, 'tags': {'addr:city': 'Almafuerte', 'addr:housenumber': '681', 'addr:postcode': '5854', 'addr:street': 'Catamarca', 'amenity': 'pharmacy', 'contact:facebook': 'https://www.facebook.com/farmaciapentat/?locale=es_LA', 'contact:instagram': 'https://www.instagram.com/pentatfarma/?hl=es', 'healthcare': 'pharmacy', 'name': 'Penta T farma', 'phone': '+54 3571 471249'}}"
"{'type': 'node', 'id': 11739748384, 'lat': -32.1962295, 'lon': -64.2552501, 'tags': {'addr:city': 'Almafuerte', 'addr:housenumber': '305', 'addr:postcode': '5854', 'addr:street': 'Avenida Buenos Aires', 'amenity': 'pharmacy', 'healthcare': 'pharmacy', 'name': 'Victoria', 'phone': '+54 357 1471385'}}"
"{'type': 'node', 'id': 11739748385, 'lat': -32.1950994, 'lon': -64.2508074, 'tags': {'addr:city': 'Almafuerte', 'addr:housenumber': '313', 'addr:postcode': '5854', 'addr:street': 'Alberdi', 'amenity': 'pharmacy', 'healthcare': 'pharmacy', 'name': 'Albrerdi', 'phone': '+54 357 1472988'}}"
"{'type': 'node', 'id': 11761655779, 'lat': -32.1692867, 'lon': -64.1367556, 'tags': {'addr:city': 'Río Tercero', 'addr:housenumber': '250', 'addr:postcode': '5850', 'addr:street': 'Santiago Del estero', 'healthcare': 'yes', 'name': 'CAPS Nº 12 LIBERTADOR', 'operator': 'Florencia Benavidez'}}"
"{'type': 'node', 'id': 11761666185, 'lat': -32.1653512, 'lon': -64.1028243, 'tags': {'healthcare': 'yes'}}"
"{'type': 'node', 'id': 11810381368, 'lat': -32.8089585, 'lon': -63.8715879, 'tags': {'addr:city': 'General Cabrera', 'addr:housenumber': '1132', 'addr:postcode': '5809', 'addr:street': 'Avenida San Martin', 'amenity': 'doctors', 'healthcare': 'doctor', 'healthcare:speciality': 'ophthalmology', 'name': 'Centro De Ojos Privado General Cabrera', 'ref:sisa_codigo': '50140562333300', 'ref:sisa_tipologia': 'ESSIDT'}}"
"{'type': 'node', 'id': 11810407824, 'lat': -32.8113965, 'lon': -63.869528, 'tags': {'addr:city': 'General Cabrera', 'addr:housenumber': '1150', 'addr:postcode': '5809', 'addr:street': '20 de Septiembre', 'amenity': 'clinic', 'healthcare': 'clinic', 'name': 'Centro Medico Quirurgico Privado Zonal Mayo', 'ref:sisa_tipologia': 'ESCIG'}}"
"{'type': 'node', 'id': 11810413077, 'lat': -32.8124863, 'lon': -63.8712879, 'tags': {'addr:city': 'General Cabrera', 'addr:housenumber': '1090', 'addr:postcode': '5809', 'addr:street': 'Las Heras', 'amenity': 'hospital', 'healthcare': 'hospital', 'name': 'Hospital Municipal Amaro E. Sastre', 'phone': '+54 358 4930001', 'ref:sisa_codigo': '10140562231154', 'ref:sisa_tipologia': 'ESCIG'}}"
"{'type': 'node', 'id': 11935135561, 'lat': -31.6485118, 'lon': -64.433706, 'tags': {'amenity': 'pharmacy'}}"
"{'type': 'node', 'id': 12094418701, 'lat': -31.9090438, 'lon': -64.5742654, 'tags': {'addr:street': 'Avenida San Martín esq 25 de Mayo', 'amenity': 'pharmacy', 'dispensing': 'yes', 'healthcare': 'pharmacy', 'name': 'El Vergel'}}"
"{'type': 'node', 'id': 12279533251, 'lat': -32.0713711, 'lon': -64.538905, 'tags': {'amenity': 'dentist', 'healthcare': 'dentist', 'name': 'Consultorio Odontologico'}}"
"{'type': 'node', 'id': 12328653915, 'lat': -31.7307452, 'lon': -64.4226418, 'tags': {'amenity': 'doctors', 'healthcare': 'doctor', 'name': 'Consultorio Médico', 'phone': '351676944'}}"
