OSM_Data
"{'type': 'node', 'id': 3633072499, 'lat': 4.7440888, 'lon': -6.6318285, 'tags': {'amenity': 'pharmacy', 'healthcare': 'pharmacy', 'name:fr': 'Pharmacie Nitoro'}}"
"{'type': 'node', 'id': 4068614774, 'lat': 5.3194706, 'lon': -6.5311018, 'tags': {'amenity': 'hospital', 'healthcare': 'hospital', 'name': 'Dispensaire de Gnintitoigui 1'}}"
"{'type': 'node', 'id': 4648366127, 'lat': 4.7421501, 'lon': -6.6500328, 'tags': {'amenity': 'pharmacy', 'healthcare': 'pharmacy', 'name': 'Pharmacie Roi David'}}"
"{'type': 'node', 'id': 4806189221, 'lat': 4.7785791, 'lon': -6.6488079, 'tags': {'amenity': 'pharmacy', 'healthcare': 'pharmacy', 'name': 'Pharmacie Do', 'name:fr': 'Pharmacie DO'}}"
"{'type': 'node', 'id': 4808223235, 'lat': 4.7760402, 'lon': -6.6471291, 'tags': {'amenity': 'pharmacy', 'healthcare': 'pharmacy', 'name': 'Pharmacie Madou', 'name:fr': 'Pharmacie Madou'}}"
"{'type': 'node', 'id': 5209368526, 'lat': 4.7700129, 'lon': -6.66303, 'tags': {'amenity': 'pharmacy', 'healthcare': 'pharmacy', 'name': 'Pharmacie de terre rouge', 'name:fr': 'Pharmacie de terre rouge'}}"
"{'type': 'node', 'id': 5209368549, 'lat': 4.7478351, 'lon': -6.6305969, 'tags': {'addr:suburb': 'Cité', 'amenity': 'clinic', 'contact:email': 'empspy@aviso.ci', 'contact:mobile': '+22507202470', 'contact:phone': '+22534718606', 'description': 'Accouchement Consultation Consultation prénatale Contraceptifs Dépistage VIH, IST Distribution de Préservatifs', 'healthcare': 'clinic', 'name': 'Centre Médical Pasteur', 'opening_hours': '24/7', 'operator:type': 'private', 'project:geoloc_unicef': 'yes', 'project:geoloc_unicef:id': 'SP_069'}}"
"{'type': 'node', 'id': 5209368975, 'lat': 4.7709539, 'lon': -6.6493088, 'tags': {'amenity': 'pharmacy', 'healthcare': 'pharmacy', 'name': 'Pharmacie Sainte Claudine'}}"
"{'type': 'node', 'id': 5209369724, 'lat': 4.7393455, 'lon': -6.6319906, 'tags': {'addr:suburb': 'Cité', 'amenity': 'clinic', 'contact:mobile': '3730355', 'contact:phone': '+22534714852', 'description': 'Accouchement Conseil et dépistage volontaire (CDV) Consultation Consultation prénatale Contraceptifs Dépistage VIH, IST', 'healthcare': 'clinic', 'name': 'Clinique le rocher', 'name:fr': 'La clinique Les rochers', 'opening_hours': '24/7', 'operator:type': 'private', 'project:geoloc_unicef': 'yes', 'project:geoloc_unicef:id': 'SP_063'}}"
"{'type': 'node', 'id': 5237630722, 'lat': 4.7722892, 'lon': -6.6544592, 'tags': {'amenity': 'pharmacy', 'healthcare': 'pharmacy', 'name': 'Pharmacie des mosquées'}}"
"{'type': 'node', 'id': 5251565622, 'lat': 4.747812, 'lon': -6.6296078, 'tags': {'addr:suburb': 'Cité', 'amenity': 'clinic', 'contact:email': 'petrussiere@gmail.com', 'contact:mobile': '+22534711076', 'contact:phone': '+22547818121', 'description': 'Accouchement Conseil et dépistage volontaire (CDV) Consultation Consultation prénatale Dépistage VIH, IST Ecoute', 'healthcare': 'clinic', 'name': 'Clinique Centrale de San-Pédro', 'opening_hours': '24/7', 'operator:type': 'private', 'project:geoloc_unicef': 'yes', 'project:geoloc_unicef:id': 'SP_087'}}"
"{'type': 'node', 'id': 5251565625, 'lat': 4.7466043, 'lon': -6.6343732, 'tags': {'amenity': 'pharmacy', 'healthcare': 'pharmacy', 'name': 'Pharmacie denise'}}"
"{'type': 'node', 'id': 5251565921, 'lat': 4.744496, 'lon': -6.635406, 'tags': {'addr:suburb': 'Cité', 'amenity': 'clinic', 'contact:email': 'cmnd2012@yahoo.fr', 'contact:mobile': '5697798', 'contact:phone': '+22534713535', 'description': 'Accouchement Dépistage VIH, IST Consultation prénatale Consultation gynéco-obstétriques Ecoute soutien psy-social', 'healthcare': 'clinic', 'name': 'Clinique Notre Dame de San Pedro', 'opening_hours': '24/7', 'operator:type': 'private', 'project:geoloc_unicef': 'yes', 'project:geoloc_unicef:id': 'SP_037'}}"
"{'type': 'node', 'id': 5286053221, 'lat': 5.0156713, 'lon': -6.5542266, 'tags': {'amenity': 'hospital', 'healthcare': 'hospital', 'name': 'CSU DE GABIADJI'}}"
"{'type': 'node', 'id': 5840661637, 'lat': 4.7496353, 'lon': -6.6277009, 'tags': {'amenity': 'clinic', 'healthcare': 'clinic', 'name': 'infirmerie Medical'}}"
"{'type': 'node', 'id': 5840661689, 'lat': 4.7477028, 'lon': -6.6290434, 'tags': {'amenity': 'doctors', 'healthcare': 'doctor', 'name': 'CNS Sinusite'}}"
"{'type': 'node', 'id': 5840669282, 'lat': 4.740928, 'lon': -6.64387, 'tags': {'amenity': 'pharmacy', 'healthcare': 'pharmacy', 'name': 'Pharmacie du Lac'}}"
"{'type': 'node', 'id': 5840671813, 'lat': 4.7457682, 'lon': -6.6390648, 'tags': {'amenity': 'pharmacy', 'healthcare': 'pharmacy', 'name': 'Les Béatitudes'}}"
"{'type': 'node', 'id': 5840671815, 'lat': 4.7458597, 'lon': -6.6393283, 'tags': {'addr:suburb': 'Lac', 'amenity': 'clinic', 'contact:phone': '+22534710094', 'description': 'Echographie,radiologie,scanner,laboratoire,cardiologie', 'healthcare': 'clinic', 'name': 'Clinique la rosette', 'opening_hours': 'Mo-Sa 08:00-17:00', 'operator:type': 'private', 'project:geoloc_unicef': 'yes', 'project:geoloc_unicef:id': 'SP_039'}}"
"{'type': 'node', 'id': 5840671824, 'lat': 4.7484017, 'lon': -6.6365381, 'tags': {'amenity': 'pharmacy', 'healthcare': 'pharmacy', 'name': 'Pharmacie de la Cité'}}"
"{'type': 'node', 'id': 5841720491, 'lat': 4.7467846, 'lon': -6.630701, 'tags': {'amenity': 'pharmacy', 'healthcare': 'pharmacy', 'name': 'Pharmacie Nabenou'}}"
"{'type': 'node', 'id': 5842212745, 'lat': 4.7688266, 'lon': -6.6676699, 'tags': {'amenity': 'dentist', 'healthcare': 'dentist', 'name': 'Prothèse dentaire'}}"
"{'type': 'node', 'id': 5842271974, 'lat': 4.7611893, 'lon': -6.6676658, 'tags': {'amenity': 'doctors', 'healthcare': 'doctor', 'name': 'Privée: Source de vie'}}"
"{'type': 'node', 'id': 5842317896, 'lat': 4.7753959, 'lon': -6.6458555, 'tags': {'addr:suburb': 'Seweke 1', 'amenity': 'doctors', 'contact:phone': '+22505782855', 'description': 'Assistance sociale, soutien social Conseil et dépistage volontaire (CDV) Conseil, informations sur la santé sexuelle et', 'healthcare': 'doctor', 'name': 'Centre medicale la grace Seweke 1', 'opening_hours': 'Mo-Su 07:00-22:30', 'operator:type': 'private', 'project:geoloc_unicef': 'yes', 'project:geoloc_unicef:id': 'SP_070'}}"
"{'type': 'node', 'id': 5842318131, 'lat': 4.7653845, 'lon': -6.6456905, 'tags': {'addr:suburb': 'Seweke 4', 'amenity': 'doctors', 'contact:email': 'tohoriabale@gmail.com', 'contact:phone': '+22545548089', 'description': 'Conseil et dépistage volontaire (CDV) Conseil, informations sur la santé sexuelle et reproductive Consultation', 'healthcare': 'doctor', 'name': 'Centre médical des bois', 'opening_hours': '24/7', 'operator:type': 'public', 'project:geoloc_unicef': 'yes', 'project:geoloc_unicef:id': 'SP_038'}}"
"{'type': 'node', 'id': 5842351247, 'lat': 4.7709375, 'lon': -6.6465548, 'tags': {'amenity': 'clinic', 'healthcare': 'clinic', 'name': 'Centre Médical Chinois'}}"
"{'type': 'node', 'id': 5842351248, 'lat': 4.7708927, 'lon': -6.6465287, 'tags': {'amenity': 'clinic', 'healthcare': 'clinic', 'name': 'Centre de Santé Les Archanges'}}"
"{'type': 'node', 'id': 5842509795, 'lat': 4.7718977, 'lon': -6.6700323, 'tags': {'amenity': 'pharmacy', 'healthcare': 'pharmacy', 'name': 'Pharmacie Nour'}}"
"{'type': 'node', 'id': 5842509831, 'lat': 4.7745793, 'lon': -6.6676404, 'tags': {'amenity': 'pharmacy', 'healthcare': 'pharmacy', 'name': ""Pharmacie de l'Archange""}}"
"{'type': 'node', 'id': 5842644033, 'lat': 4.7729515, 'lon': -6.6679153, 'tags': {'addr:suburb': 'Zimbabwe', 'amenity': 'doctors', 'contact:mobile': '+22588060853', 'description': 'Consultation Dépistage VIH, IST gynéco-obstétriques Pédiatrie Pansement Soins bucco-dentaires Test de grossesse', 'healthcare': 'doctor', 'name': 'Centre médical grâce divine', 'office': 'ngo', 'opening_hours': 'Mo-Su 08:30-14:00, 14:30-20:30', 'operator:type': 'private', 'project:geoloc_unicef': 'yes', 'project:geoloc_unicef:id': 'SP_088'}}"
"{'type': 'node', 'id': 5842659142, 'lat': 4.7705405, 'lon': -6.650666, 'tags': {'addr:suburb': 'Bardot 18 Derrière La Petite Mairie', 'amenity': 'doctors', 'contact:mobile': '+22548857191', 'contact:phone': '+22545159382', 'description': 'Conseil et dépistage du VIH Prévention de la transmission mère-enfant du VIH,', 'healthcare': 'doctor', 'name': 'Ong Initiative Pour le Developpement et l’Enfance', 'note': 'Santé', 'office': 'ngo', 'opening_hours': '24/7', 'project:geoloc_unicef': 'yes', 'project:geoloc_unicef:id': 'SP_002', 'short_name': 'Ong IDEE'}}"
"{'type': 'node', 'id': 5842659143, 'lat': 4.7687236, 'lon': -6.6503931, 'tags': {'addr:suburb': 'Bardot 18', 'amenity': 'doctors', 'contact:email': 'centremedicalstantoine@gmail.com', 'contact:mobile': '+22501314098', 'contact:phone': '+22559244854', 'description': 'Conseil et dépistage du VIH Prévention de la transmission mère-enfant du VIH,', 'healthcare': 'doctor', 'name': 'Centre Médical Saint Antoine', 'note': 'Santé', 'office': 'ngo', 'opening_hours': '24/7', 'project:geoloc_unicef': 'yes', 'project:geoloc_unicef:id': 'SP_001'}}"
"{'type': 'node', 'id': 5842708813, 'lat': 4.7764069, 'lon': -6.6662128, 'tags': {'addr:suburb': 'Colas', 'amenity': 'doctors', 'contact:email': 'Mamsdib7G@gmail.com', 'contact:phone': '+22540630853', 'description': 'Consultation prénatale Accouchement Conseil et dépistage volontaire (CDV) Conseil, informations sur la santé sexuelle', 'healthcare': 'doctor', 'name': 'Cabinet prénatal djiguiba', 'opening_hours': '24/7', 'operator:type': 'private', 'project:geoloc_unicef': 'yes', 'project:geoloc_unicef:id': 'SP_095'}}"
"{'type': 'node', 'id': 5842720692, 'lat': 4.7759546, 'lon': -6.6669249, 'tags': {'amenity': 'doctors', 'healthcare': 'doctor', 'name': 'Cabinet Médical'}}"
"{'type': 'node', 'id': 5843176231, 'lat': 4.7694667, 'lon': -6.6634537, 'tags': {'amenity': 'doctors', 'healthcare': 'doctor', 'name': 'Cabinet de Soins Privée: Keneyasso', 'phone': '06740274'}}"
"{'type': 'node', 'id': 5843243298, 'lat': 4.7675402, 'lon': -6.6683404, 'tags': {'amenity': 'clinic', 'healthcare': 'clinic', 'name': 'Clinique'}}"
"{'type': 'node', 'id': 5844138473, 'lat': 4.7544253, 'lon': -6.6422228, 'tags': {'amenity': 'dentist', 'healthcare': 'dentist', 'note': '1er etage'}}"
"{'type': 'node', 'id': 5844345900, 'lat': 4.7692489, 'lon': -6.6676725, 'tags': {'addr:suburb': 'Zimbabwe', 'amenity': 'doctors', 'contact:phone': '+22549702094', 'description': 'Consultation Consultation prénatale Accouchement', 'healthcare': 'doctor', 'name': 'Cabinet de soins privé Canaan', 'opening_hours': 'Mo-Sa 00:00-00:00', 'operator:type': 'private', 'project:geoloc_unicef': 'yes', 'project:geoloc_unicef:id': 'SP_092'}}"
"{'type': 'node', 'id': 5844453976, 'lat': 4.7808105, 'lon': -6.64733, 'tags': {'amenity': 'pharmacy', 'healthcare': 'pharmacy', 'name': 'Sainte Marie'}}"
"{'type': 'node', 'id': 5844502960, 'lat': 4.7816344, 'lon': -6.6478396, 'tags': {'amenity': 'clinic', 'healthcare': 'clinic', 'name': 'Infirmerie Saint Chekinael'}}"
"{'type': 'node', 'id': 5844502965, 'lat': 4.7814875, 'lon': -6.6474514, 'tags': {'amenity': 'clinic', 'healthcare': 'clinic', 'name': 'Clinique Chinoise'}}"
"{'type': 'node', 'id': 5844577917, 'lat': 4.7721657, 'lon': -6.6463872, 'tags': {'amenity': 'clinic', 'healthcare': 'clinic', 'name': 'Clinique Seweke 2'}}"
"{'type': 'node', 'id': 5844582328, 'lat': 4.7828933, 'lon': -6.6523933, 'tags': {'amenity': 'pharmacy', 'healthcare': 'pharmacy', 'name': 'Pharmacie Grâce de Sotref'}}"
"{'type': 'node', 'id': 5844918103, 'lat': 4.7836424, 'lon': -6.6491294, 'tags': {'addr:suburb': 'sotref', 'amenity': 'doctors', 'contact:phone': '+22546530742', 'description': 'consultations, hospitalisations, soins,infirmeries', 'healthcare': 'doctor', 'name': 'centre médical TORABA', 'opening_hours': 'Mo-Sa 07:00-12:00, 14:00-20:00', 'operator:type': 'private', 'project:geoloc_unicef': 'yes', 'project:geoloc_unicef:id': 'SP_048'}}"
"{'type': 'node', 'id': 5844934580, 'lat': 4.7744817, 'lon': -6.6453693, 'tags': {'addr:suburb': 'Seweke 1', 'amenity': 'doctors', 'contact:email': 'scompaore07@gmail.com', 'contact:mobile': '+22546457045', 'contact:phone': '+22507560054', 'description': 'Conseil et dépistage volontaire (CDV) Conseil, informations sur la santé sexuelle et reproductive Consultation', 'healthcare': 'doctor', 'name': 'Cabinet médical Everest', 'opening_hours': 'Mo-Su 08:00-23:00', 'operator:type': 'private', 'project:geoloc_unicef': 'yes', 'project:geoloc_unicef:id': 'SP_061'}}"
"{'type': 'node', 'id': 5844939514, 'lat': 4.7723982, 'lon': -6.6483491, 'tags': {'addr:suburb': 'BARDOT 3', 'amenity': 'clinic', 'contact:phone': '+22507914408', 'description': 'Conseil et dépistage volontaire (CDV) Conseil, informations sur la santé sexuelle et reproductive', 'healthcare': 'clinic', 'name': 'Association Ivoirienne pour le Bien Être Familial', 'opening_hours': 'Mo-Sa 07:30-12:30,13:30-16:30', 'operator:type': 'public', 'project:geoloc_unicef': 'yes', 'project:geoloc_unicef:id': 'SP_005', 'short_name': 'AIBEF'}}"
"{'type': 'node', 'id': 5844947577, 'lat': 4.779462, 'lon': -6.6504796, 'tags': {'amenity': 'clinic', 'healthcare': 'clinic', 'name': 'Centre Medicale Pierre et Marie Curie'}}"
"{'type': 'node', 'id': 5844949841, 'lat': 4.7779088, 'lon': -6.6474471, 'tags': {'amenity': 'doctors', 'healthcare': 'doctor', 'name': 'Espace Santé Biomedical International'}}"
"{'type': 'node', 'id': 5845043519, 'lat': 4.7719946, 'lon': -6.6587733, 'tags': {'addr:suburb': 'BARDOT 17 après le dépôt de Solibra', 'amenity': 'doctors', 'contact:mobile': '+22587167464', 'contact:phone': '+22545190962', 'description': 'Consultation Consultation prénatale Contraceptifs Distribution de Préservatifs Pédiatrie Pansement Test de grossesse', 'healthcare': 'doctor', 'name': 'Nouveau centre Médical Mossely Grand Max (MGM)', 'opening_hours': '24/7', 'operator:type': 'private', 'project:geoloc_unicef': 'yes', 'project:geoloc_unicef:id': 'SP_118'}}"
"{'type': 'node', 'id': 5845793034, 'lat': 4.7788519, 'lon': -6.6536017, 'tags': {'amenity': 'doctors', 'healthcare': 'doctor'}}"
"{'type': 'node', 'id': 5847378433, 'lat': 4.7724343, 'lon': -6.658887, 'tags': {'amenity': 'doctors', 'healthcare': 'doctor', 'name': 'Medecin traditionnelle'}}"
"{'type': 'node', 'id': 5847378437, 'lat': 4.7706929, 'lon': -6.6609429, 'tags': {'amenity': 'doctors', 'healthcare': 'doctor', 'name': 'Medecin traditionnelle'}}"
"{'type': 'node', 'id': 5847404992, 'lat': 4.7545911, 'lon': -6.6511542, 'tags': {'amenity': 'doctors', 'healthcare': 'doctor', 'name': 'Infirmerie Plaque Air Ivoire'}}"
"{'type': 'node', 'id': 5847809729, 'lat': 4.7547848, 'lon': -6.6441844, 'tags': {'amenity': 'doctors', 'healthcare': 'doctor', 'name': 'Centre Médical Cremoss'}}"
"{'type': 'node', 'id': 5848266621, 'lat': 4.7782879, 'lon': -6.6522311, 'tags': {'amenity': 'pharmacy', 'healthcare': 'pharmacy', 'name': 'Pharmacie Bardot 2000'}}"
"{'type': 'node', 'id': 5848266622, 'lat': 4.7782605, 'lon': -6.6522344, 'tags': {'addr:suburb': 'Bardot au dessus de la pharmacie Bardot 2000', 'amenity': 'clinic', 'contact:email': 'djatouben88@gmail.com', 'contact:mobile': '+22568875569', 'contact:phone': '+22534718161', 'description': 'Conseil et dépistage volontaire (CDV) Conseil, informations sur la santé sexuelle et reproductive Consultation', 'health_facility:type': 'clinic', 'healthcare': 'clinic', 'name': ""Clinique médicale chirurgicale l'Emmanuel"", 'opening_hours': '24/7', 'operator:type': 'private', 'project:geoloc_unicef': 'yes', 'project:geoloc_unicef:id': 'SP_052'}}"
"{'type': 'node', 'id': 5848293638, 'lat': 4.7759552, 'lon': -6.6470873, 'tags': {'amenity': 'pharmacy', 'healthcare': 'pharmacy', 'name': 'Pharmacie Madou', 'note': 'Laboratoire'}}"
"{'type': 'node', 'id': 5848336996, 'lat': 4.7357075, 'lon': -6.646982, 'tags': {'amenity': 'doctors', 'healthcare': 'doctor', 'name': 'Centre Kine Medical Begnanko'}}"
"{'type': 'node', 'id': 5848340485, 'lat': 4.7656464, 'lon': -6.6761845, 'tags': {'amenity': 'pharmacy', 'healthcare': 'pharmacy', 'name': 'Pharmacie du Bien Être'}}"
"{'type': 'node', 'id': 5848371037, 'lat': 4.7666875, 'lon': -6.6777764, 'tags': {'addr:suburb': 'Jb fayette', 'amenity': 'doctors', 'contact:mobile': '+22574661168', 'contact:phone': '+22557586650', 'description': 'Accouchement Conseil, informations sur la santé sexuelle et reproductive Consultation Consultation prénatale', 'healthcare': 'doctor', 'name': 'Centre de Santé Allou Marie', 'opening_hours': '24/7', 'operator:type': 'private', 'project:geoloc_unicef': 'yes', 'project:geoloc_unicef:id': 'SP_085'}}"
"{'type': 'node', 'id': 5848371063, 'lat': 4.7667002, 'lon': -6.6786917, 'tags': {'addr:suburb': 'Jb fayette', 'amenity': 'doctors', 'contact:email': 'Kimdetertius@gmail.com', 'contact:mobile': '+2255933161', 'contact:phone': '+22507321555', 'description': 'Assistance sociale, soutien social Conseil et dépistage volontaire (CDV) Conseil, informations sur la santé sexuelle et', 'healthcare': 'doctor', 'name': 'Cabinet de soin polivalant le Rapha', 'opening_hours': '24/7', 'operator:type': 'private', 'project:geoloc_unicef': 'yes', 'project:geoloc_unicef:id': 'SP_086'}}"
"{'type': 'node', 'id': 5848375024, 'lat': 4.7425331, 'lon': -6.6324431, 'tags': {'addr:suburb': 'Cité', 'amenity': 'dentist', 'contact:email': 'azimutassurances@gmail.com', 'contact:mobile': '22506933', 'contact:phone': '+22522506808', 'description': 'Soins bucco-dentaires, Consultation, Détartrage', 'healthcare': 'dentist', 'name': 'Clinique dentaire ROSYL', 'opening_hours': 'Mo-Fr 08:00-12:00, 14:00-18:00', 'operator:type': 'private', 'project:geoloc_unicef': 'yes', 'project:geoloc_unicef:id': 'SP_064'}}"
"{'type': 'node', 'id': 5848375038, 'lat': 4.7435502, 'lon': -6.6323318, 'tags': {'addr:suburb': 'Cité Nitero', 'amenity': 'doctors', 'contact:email': 'Richardkohou@gmail.com', 'contact:mobile': '+22507087107', 'contact:phone': '+22534710415', 'description': ""Consultation, Traitement, laboratoire d'analyse médicale"", 'healthcare': 'doctor', 'name': 'Cabinet médical le Rosaire', 'opening_hours': 'Mo-Su 07:00-18:00', 'operator:type': 'private', 'project:geoloc_unicef': 'yes', 'project:geoloc_unicef:id': 'SP_077'}}"
"{'type': 'node', 'id': 5848733584, 'lat': 4.7446261, 'lon': -6.6360399, 'tags': {'amenity': 'clinic', 'healthcare': 'clinic', 'name': ""Centre Medical d'orphtamologie Iris Chez Dr. Assa""}}"
"{'type': 'node', 'id': 5849333983, 'lat': 4.7653387, 'lon': -6.6442066, 'tags': {'amenity': 'pharmacy', 'healthcare': 'pharmacy', 'name': 'Grande Pharmacie Seweke'}}"
"{'type': 'node', 'id': 5849707959, 'lat': 4.7515946, 'lon': -6.6292083, 'tags': {'addr:suburb': 'Cité', 'amenity': 'doctors', 'contact:phone': '+22548080807', 'description': 'Consultation Pansement Conseil, informations sur la santé sexuelle et reproductive Prévention de la Transmission de la Mère', 'healthcare': 'doctor', 'name': 'Centre de naturotherapie', 'opening_hours': 'Mo-Sa 07:30-18:00', 'operator:type': 'private', 'project:geoloc_unicef': 'yes', 'project:geoloc_unicef:id': 'SP_082'}}"
"{'type': 'node', 'id': 5849775385, 'lat': 4.7661349, 'lon': -6.6749319, 'tags': {'addr:suburb': 'JB', 'amenity': 'clinic', 'contact:email': 'alexis.tossou@yahoo.fr', 'contact:mobile': '5697698', 'contact:phone': '+22547471798', 'description': 'Assistance sociale, soutien social Conseil et dépistage volontaire (CDV) Conseil, informations sur la santé sexuelle et', 'healthcare': 'clinic', 'name': 'Clinique orientale Novabio', 'opening_hours': 'Mo-Sa 07:00-12:00, 14:00-19:00', 'operator:type': 'private', 'project:geoloc_unicef': 'yes', 'project:geoloc_unicef:id': 'SP_074'}}"
"{'type': 'node', 'id': 5849795452, 'lat': 4.7596857, 'lon': -6.6651332, 'tags': {'amenity': 'doctors', 'healthcare': 'doctor', 'name': 'Tradi-praticien'}}"
"{'type': 'node', 'id': 5850018289, 'lat': 4.737711, 'lon': -6.655089, 'tags': {'amenity': 'clinic', 'healthcare': 'clinic', 'name': 'Centre de Soins Pour Ulcers De Buruli'}}"
"{'type': 'node', 'id': 5851992818, 'lat': 4.7820126, 'lon': -6.6587109, 'tags': {'addr:suburb': 'Victor ballet 2', 'amenity': 'doctors', 'contact:mobile': '+22558970100', 'contact:phone': '+22549186337', 'description': 'Assistance sociale, soutien social Consultation Contraceptifs Pansement Test de grossesse', 'healthcare': 'doctor', 'name': 'Centre de santé fondara', 'opening_hours': '24/7', 'operator:type': 'private', 'project:geoloc_unicef': 'yes', 'project:geoloc_unicef:id': 'SP_018'}}"
"{'type': 'node', 'id': 5852023036, 'lat': 4.81073, 'lon': -6.642897, 'tags': {'amenity': 'pharmacy', 'healthcare': 'pharmacy', 'name': 'Pharmacie Privée Chinois'}}"
"{'type': 'node', 'id': 5852023050, 'lat': 4.8108817, 'lon': -6.643021, 'tags': {'amenity': 'doctors', 'healthcare': 'doctor', 'name': 'Centre Medicale Privée Dion'}}"
"{'type': 'node', 'id': 5852074523, 'lat': 4.7705395, 'lon': -6.6563184, 'tags': {'addr:suburb': 'Bardot 18 Derrière Epp Grand Bardot.', 'amenity': 'doctors', 'contact:mobile': '+22502628139', 'contact:phone': '+22534711169', 'description': 'Médecine générale, Examens médicaux, petite Chirurgie,Gynécologie, pédiatre, ORL,', 'healthcare': 'doctor', 'name': 'Ong Initiative Pour le Développement et l\'Enfance - Centre Médical ""Bon Secours""', 'note': 'Santé', 'office': 'ngo', 'opening_hours': '24/7', 'project:geoloc_unicef': 'yes', 'project:geoloc_unicef:id': 'SP_053', 'short_name': 'Ong IDEE'}}"
"{'type': 'node', 'id': 5852224988, 'lat': 4.7472203, 'lon': -6.6363215, 'tags': {'healthcare': 'yes', 'name': 'Pédiatrie'}}"
"{'type': 'node', 'id': 5852243289, 'lat': 4.7447892, 'lon': -6.6377887, 'tags': {'amenity': 'pharmacy', 'healthcare': 'pharmacy', 'name': 'Pharmacie du District sanitaire'}}"
"{'type': 'node', 'id': 5852321516, 'lat': 4.7786314, 'lon': -6.6559982, 'tags': {'amenity': 'pharmacy', 'healthcare': 'pharmacy', 'name': 'Pharmacie du Grand Marché'}}"
"{'type': 'node', 'id': 5852321543, 'lat': 4.7718563, 'lon': -6.6594093, 'tags': {'amenity': 'pharmacy', 'healthcare': 'pharmacy', 'name': 'Pharmacie Chinoise'}}"
"{'type': 'node', 'id': 5852345459, 'lat': 4.7679518, 'lon': -6.6670898, 'tags': {'addr:suburb': 'Zimbabwe', 'amenity': 'clinic', 'contact:mobile': '+22544866374', 'contact:phone': '+22544866374', 'description': ""Conseil et dépistage volontaire (CDV) Consultation Prévention de la Transmission de la Mère à l'Enfant (PTME)"", 'healthcare': 'clinic', 'name:fr': 'Infirmerie Guibli', 'opening_hours': '24/7', 'operator:type': 'private', 'project:geoloc_unicef': 'yes', 'project:geoloc_unicef:id': 'SP_101'}}"
"{'type': 'node', 'id': 5852414338, 'lat': 4.7783828, 'lon': -6.6592732, 'tags': {'amenity': 'pharmacy', 'healthcare': 'pharmacy', 'name': 'Pharmacie Divine Providence'}}"
"{'type': 'node', 'id': 5852414353, 'lat': 4.7795683, 'lon': -6.6581185, 'tags': {'addr:suburb': 'Victor Ballet', 'amenity': 'doctors', 'contact:mobile': '+22548874068', 'contact:phone': '+22505909024', 'description': 'Conseil et dépistage du VIH Centre accueil Prévention de la transmission mère-enfant du VIH', 'healthcare': 'doctor', 'name': 'Ong La Famille pour les Enfants de Grâce', 'note': 'Santé', 'office': 'ngo', 'opening_hours': 'Mo-Su 07:30-22:30', 'project:geoloc_unicef': 'yes', 'project:geoloc_unicef:id': 'SP_051', 'short_name': 'Ong LAFED', 'website': 'www.lafedong.com'}}"
"{'type': 'node', 'id': 5852560402, 'lat': 4.7589754, 'lon': -6.6667981, 'tags': {'amenity': 'pharmacy', 'healthcare': 'pharmacy', 'name': 'Jéhovah Rapha'}}"
"{'type': 'node', 'id': 5853524302, 'lat': 4.7660246, 'lon': -6.6830309, 'tags': {'addr:suburb': 'DAFCI', 'amenity': 'doctors', 'contact:mobile': '+22549941996', 'contact:phone': '+22548856720', 'description': 'Accouchement Assistance sociale, soutien social Conseil et dépistage volontaire (CDV) Consultation Consultation prénatale', 'healthcare': 'doctor', 'name': 'Centre De Santé Communautaire De Supervision Cathédrale 1 Et 2', 'opening_hours': 'Mo-Su 07:30-12:00,14:00-23:00', 'operator:type': 'private', 'project:geoloc_unicef': 'yes', 'project:geoloc_unicef:id': 'SP_043'}}"
"{'type': 'node', 'id': 5853524635, 'lat': 4.7694794, 'lon': -6.6861083, 'tags': {'addr:suburb': 'Dafci', 'amenity': 'doctors', 'contact:email': 'kkissouf24@gmail.com', 'contact:mobile': '+22543244863', 'contact:phone': '+22559432313', 'description': 'Alphabétisation Conseil et dépistage du VIH Prévention de la transmission mère-enfant du VIH', 'healthcare': 'doctor', 'name': 'Ong Femme Équilibre de la Creation - Centre de Santé Ramatoul', 'note': 'Santé, Sensibilisation', 'office': 'ngo', 'opening_hours': '24/7', 'project:geoloc_unicef': 'yes', 'project:geoloc_unicef:id': 'SP_007', 'short_name': 'Ong FEC'}}"
"{'type': 'node', 'id': 5853524637, 'lat': 4.7719004, 'lon': -6.6871923, 'tags': {'amenity': 'doctors', 'healthcare': 'doctor', 'name': 'Pharmacie Chinoise'}}"
"{'type': 'node', 'id': 5854115732, 'lat': 4.7691847, 'lon': -6.6840689, 'tags': {'addr:suburb': 'Dafci', 'amenity': 'doctors', 'contact:mobile': '+22559209922', 'contact:phone': '+22579209972', 'description': 'Conseil et dépistage du VIH, Soin infirmier', 'healthcare': 'doctor', 'name': 'Ong Aide et Developpement des Planteurs - Centre Medical Le Divin', 'note': 'Santé', 'office': 'ngo', 'opening_hours': 'Mo-Su 07:00-18:00', 'project:geoloc_unicef': 'yes', 'project:geoloc_unicef:id': 'SP_026'}}"
"{'type': 'node', 'id': 5854201051, 'lat': 4.7753023, 'lon': -6.6586449, 'tags': {'amenity': 'doctors', 'healthcare': 'doctor', 'name': 'Centre Medicale le Philantrope'}}"
"{'type': 'node', 'id': 5854298016, 'lat': 4.7638228, 'lon': -6.6774696, 'tags': {'amenity': 'doctors', 'healthcare': 'doctor', 'name': 'Centre Santé Privé'}}"
"{'type': 'node', 'id': 5854351868, 'lat': 4.7546244, 'lon': -6.6940246, 'tags': {'addr:suburb': 'Digboué', 'amenity': 'clinic', 'contact:mobile': '+22504070700', 'contact:phone': '+22584201331', 'description': 'Consultation Distribution de Préservatifs Pédiatrie Pansement Test de grossesse Conseil,', 'healthcare': 'clinic', 'name': 'Clinique Maya', 'opening_hours': 'Mo-Su 08:30-18:30', 'operator:type': 'private', 'project:geoloc_unicef': 'yes', 'project:geoloc_unicef:id': 'SP_025'}}"
"{'type': 'node', 'id': 5854363637, 'lat': 4.761065, 'lon': -6.6748649, 'tags': {'amenity': 'doctors', 'healthcare': 'doctor', 'name': 'Centre de Santé AEmmanuel'}}"
"{'type': 'node', 'id': 5854468060, 'lat': 4.7753732, 'lon': -6.6595468, 'tags': {'amenity': 'doctors', 'healthcare': 'doctor', 'name': 'ONG ADP Centre Medical Divine'}}"
"{'type': 'node', 'id': 5854486573, 'lat': 4.7637092, 'lon': -6.6706666, 'tags': {'addr:suburb': 'Jb-Soleil', 'amenity': 'doctors', 'contact:email': 'kouamebakary@gmail.com', 'contact:mobile': '+22586224773', 'contact:phone': '+22504723443', 'description': 'Conseil et dépistage du VIH Prise en charge des populations cles (TS, HSH)', 'healthcare': 'doctor', 'name': 'Ong Aide aux développements des Producteurs - Centre Médical Espoir', 'note': 'Santé', 'office': 'ngo', 'opening_hours': 'Mo-Su 07:00-12:00, 14:00-21:00', 'project:geoloc_unicef': 'yes', 'project:geoloc_unicef:id': 'SP_084'}}"
"{'type': 'node', 'id': 5854886713, 'lat': 4.7779391, 'lon': -6.6589057, 'tags': {'amenity': 'doctors', 'healthcare': 'doctor', 'name': 'Santé Pour Tous (ONG)'}}"
"{'type': 'node', 'id': 5854910501, 'lat': 4.7465173, 'lon': -6.6344534, 'tags': {'amenity': 'pharmacy', 'healthcare': 'pharmacy', 'name': 'Pharmacie Diététique'}}"
"{'type': 'node', 'id': 5856196933, 'lat': 4.767619, 'lon': -6.6498211, 'tags': {'amenity': 'doctors', 'healthcare': 'doctor', 'name': 'Clinique Privée'}}"
"{'type': 'node', 'id': 6544957768, 'lat': 4.7849721, 'lon': -6.651419, 'tags': {'addr:suburb': 'Sotref', 'amenity': 'doctors', 'contact:phone': '+22549927314', 'description': 'Conseil et dépistage du VIH', 'healthcare': 'doctor', 'name': 'Centre de soin Paramédical', 'note': 'Santé', 'office': 'ngo', 'opening_hours': 'Mo-Su 06:35-19:30', 'project:geoloc_unicef': 'yes', 'project:geoloc_unicef:id': 'SP_014'}}"
"{'type': 'node', 'id': 6545258756, 'lat': 4.7607122, 'lon': -6.6747911, 'tags': {'addr:suburb': 'Soleil', 'amenity': 'doctors', 'contact:mobile': '+22507363579', 'contact:phone': '+22509049075', 'description': 'Conseil et dépistage du VIH Centre accueil, Petit chirurgie, hospitalisation, consultation', 'healthcare': 'doctor', 'name': 'Ong Femme Equilibre De La Creation – Centre De Santé Emmanuel', 'note': 'Santé', 'office': 'ngo', 'opening_hours': 'Mo-Su 07:30-12:00, 14:00-22:00', 'project:geoloc_unicef': 'yes', 'project:geoloc_unicef:id': 'SP_075', 'short_name': 'Ong FEC'}}"
"{'type': 'node', 'id': 6564456812, 'lat': 4.7818135, 'lon': -6.6518743, 'tags': {'addr:suburb': 'Sotref', 'amenity': 'doctors', 'contact:phone': '+22507452312', 'description': 'Consultation Contraceptifs Pansement', 'healthcare': 'doctor', 'name': 'Infirmerie privé inchala', 'opening_hours': 'Mo-Fr 07:30-12:00, 12:00-14:00', 'operator:type': 'private', 'project:geoloc_unicef': 'yes', 'project:geoloc_unicef:id': 'SP_016'}}"
"{'type': 'node', 'id': 6564489416, 'lat': 4.7631739, 'lon': -6.6759901, 'tags': {'addr:suburb': 'Soleil', 'amenity': 'doctors', 'contact:mobile': '+22555263415', 'contact:phone': '+22551972764', 'description': 'Consultation Conseil, informations sur la santé sexuelle et reproductive Contraceptifs Pédiatrie, Petit chirurgie', 'healthcare': 'doctor', 'name': 'Infirmerie Divine', 'opening_hours': 'Mo-Su 07:30-12:00, 14:00-21:00', 'operator:type': 'private', 'project:geoloc_unicef': 'yes', 'project:geoloc_unicef:id': 'SP_023'}}"
"{'type': 'node', 'id': 6564489417, 'lat': 4.7627102, 'lon': -6.6741152, 'tags': {'addr:suburb': 'Soleil', 'amenity': 'doctors', 'contact:mobile': '+22585069908', 'contact:phone': '+22505832867', 'description': 'Accouchement Conseil et dépistage volontaire (CDV) Conseil, informations sur la santé sexuelle et', 'healthcare': 'doctor', 'name': 'Infirmerie Notre Dame de la Paix', 'opening_hours': 'Mo-Su 07:30-12:00, 14:00-23:00', 'operator:type': 'private', 'project:geoloc_unicef': 'yes', 'project:geoloc_unicef:id': 'SP_024'}}"
"{'type': 'node', 'id': 6564517404, 'lat': 4.7811653, 'lon': -6.6566802, 'tags': {'addr:suburb': 'Victor balet 1', 'amenity': 'clinic', 'contact:phone': '+22546530742', 'description': 'soins', 'healthcare': 'clinic', 'name': 'clinique de tonton BERTIN', 'opening_hours': 'Mo-Fr 07:00-18:00', 'operator:type': 'private', 'project:geoloc_unicef': 'yes', 'project:geoloc_unicef:id': 'SP_050'}}"
"{'type': 'node', 'id': 6564519996, 'lat': 4.7717193, 'lon': -6.6533006, 'tags': {'addr:suburb': 'Bardot 18 face à la poste', 'amenity': 'doctors', 'contact:email': 'seydoucamaistsp@gmail.com', 'contact:phone': '+22534710903', 'description': 'Test de grossesse Conseil et dépistage volontaire (CDV) Conseil, informations sur la santé sexuelle et', 'healthcare': 'doctor', 'name': 'Cabinet de soins infirmiers Dognimin de san Pedro', 'opening_hours': '24/7', 'operator:type': 'private', 'project:geoloc_unicef': 'yes', 'project:geoloc_unicef:id': 'SP_020'}}"
"{'type': 'node', 'id': 6564519997, 'lat': 4.7713177, 'lon': -6.6456496, 'tags': {'addr:suburb': 'Seweke 2', 'amenity': 'doctors', 'contact:email': 'alexistossou@yahoo.fr', 'contact:phone': '+22547471798', 'description': 'Assistance sociale, soutien social Conseil et dépistage volontaire (CDV) Conseil, informations sur la', 'healthcare': 'doctor', 'name': 'Centre médical orientale', 'opening_hours': 'Mo-Su 07:00-22:00', 'operator:type': 'private', 'project:geoloc_unicef': 'yes', 'project:geoloc_unicef:id': 'SP_003'}}"
"{'type': 'node', 'id': 6564534089, 'lat': 4.761784, 'lon': -6.6446511, 'tags': {'addr:suburb': 'Seweke 5', 'amenity': 'doctors', 'contact:mobile': '+22541476902', 'contact:phone': '+22501116853', 'description': 'Consultation Dépistage VIH, IST Distribution de Préservatifs Ecoute soutien psy-social', 'healthcare': 'doctor', 'name': 'Infirmerie corps de troupes', 'opening_hours': '24/7', 'operator:type': 'public', 'project:geoloc_unicef': 'yes', 'project:geoloc_unicef:id': 'SP_012'}}"
"{'type': 'node', 'id': 6564534090, 'lat': 4.7620446, 'lon': -6.6446585, 'tags': {'addr:suburb': 'Seweke 5', 'amenity': 'dentist', 'contact:email': 'cabinetdentairesanpedro@gmail.com', 'contact:phone': '+22503912692', 'description': 'Soins bucco-dentaires Consultation Ecoute soutien psy-social IEC (Information, Education, Communication)', 'healthcare': 'dentist', 'name': 'Cabinet dentaire gendarmerie', 'opening_hours': 'Mo-Fr 08:00-15:00', 'operator:type': 'public', 'project:geoloc_unicef': 'yes', 'project:geoloc_unicef:id': 'SP_011'}}"
"{'type': 'node', 'id': 6564548552, 'lat': 4.7656651, 'lon': -6.6668974, 'tags': {'addr:suburb': 'Zimbabwe', 'amenity': 'clinic', 'contact:mobile': '+22504028557', 'contact:phone': '+22509599234', 'description': 'Consultation Pédiatrie Pansement Test de grossesse Traitement IST (gono, chaude pisse)', 'healthcare': 'clinic', 'name': 'Clinique Afrique Noire', 'opening_hours': 'Mo-Su 07:30-20:00', 'operator:type': 'private', 'project:geoloc_unicef': 'yes', 'project:geoloc_unicef:id': 'SP_109'}}"
"{'type': 'node', 'id': 6564582000, 'lat': 4.7441396, 'lon': -6.6322862, 'tags': {'addr:suburb': 'Cité nitoro', 'amenity': 'clinic', 'contact:email': 'evssanpedronew@gmail.com', 'contact:mobile': '59750244', 'contact:phone': '+22534710434', 'description': 'Accouchement Consultation Consultation prénatale Dépistage VIH, IST Ecoute soutien psy-social gynéco-obstétriques', 'healthcare': 'clinic', 'name': 'Clinique Espace Médical Santé', 'opening_hours': '24/7', 'operator:type': 'private', 'project:geoloc_unicef': 'yes', 'project:geoloc_unicef:id': 'SP_062', 'short_name': 'EVS'}}"
"{'type': 'node', 'id': 6564588122, 'lat': 4.7598528, 'lon': -6.6918272, 'tags': {'addr:suburb': 'Digboue', 'amenity': 'clinic', 'contact:mobile': '+22501653330', 'contact:phone': '+22565820654', 'description': 'Consultation Conseil et dépistage volontaire (CDV) Conseil, informations sur la santé sexuelle', 'healthcare': 'clinic', 'name': 'Clinique la Grâce', 'opening_hours': 'Mo-Su 08:00-18:00', 'operator:type': 'private', 'project:geoloc_unicef': 'yes', 'project:geoloc_unicef:id': 'SP_004'}}"
"{'type': 'node', 'id': 6564622156, 'lat': 4.7828746, 'lon': -6.6657937, 'tags': {'addr:suburb': 'Château', 'amenity': 'clinic', 'contact:phone': '+22549000524', 'description': 'Conseil et dépistage volontaire (CDV) Conseil, informations sur la santé sexuelle et reproductive Consultation Contraceptifs', 'healthcare': 'clinic', 'name': 'Infirmerie privée du bien-être', 'opening_hours': 'Mo-Su 07:00-22:00', 'operator:type': 'private', 'project:geoloc_unicef': 'yes', 'project:geoloc_unicef:id': 'SP_115'}}"
"{'type': 'node', 'id': 6564622157, 'lat': 4.7801135, 'lon': -6.6651928, 'tags': {'addr:suburb': 'Colas', 'amenity': 'doctors', 'contact:phone': '+22545271718', 'description': 'Accouchement Conseil et dépistage volontaire (CDV) Conseil, informations sur la santé sexuelle et reproductive', 'healthcare': 'doctor', 'name': 'Centre médical la vie', 'opening_hours': '24/7', 'operator:type': 'private', 'project:geoloc_unicef': 'yes', 'project:geoloc_unicef:id': 'SP_117'}}"
"{'type': 'node', 'id': 7619731113, 'lat': 5.3990034, 'lon': -6.5532358, 'tags': {'amenity': 'doctors', 'healthcare': 'doctor', 'name': 'OAS-COM-CI', 'office': 'ngo', 'phone': '+22505705230'}}"
"{'type': 'node', 'id': 7620358538, 'lat': 5.4047618, 'lon': -6.5533251, 'tags': {'amenity': 'pharmacy', 'healthcare': 'pharmacy', 'name': 'Pharmacie du Carrefour'}}"
"{'type': 'node', 'id': 7622891447, 'lat': 5.4073041, 'lon': -6.5647344, 'tags': {'amenity': 'doctors', 'healthcare': 'doctor', 'name': 'OAS.COM.CI Béthanie', 'office': 'ngo', 'phone': '+22571372062'}}"
"{'type': 'node', 'id': 7643577698, 'lat': 5.398311, 'lon': -6.5562239, 'tags': {'amenity': 'pharmacy', 'healthcare': 'pharmacy', 'name': 'Pharmacie Quartier Bayard'}}"
"{'type': 'node', 'id': 8488413719, 'lat': 5.0194684, 'lon': -6.5592513, 'tags': {'amenity': 'pharmacy', 'healthcare': 'pharmacy', 'name': 'PHARMACIE LES ANGES - GABIDJI'}}"
