OSM_Data
"{'type': 'node', 'id': 298299500, 'lat': 10.3961543, 'lon': -75.5560536, 'tags': {'amenity': 'pharmacy', 'healthcare': 'pharmacy'}}"
"{'type': 'node', 'id': 298299506, 'lat': 10.3942042, 'lon': -75.5610232, 'tags': {'amenity': 'pharmacy'}}"
"{'type': 'node', 'id': 887665691, 'lat': 10.3997076, 'lon': -75.4941661, 'tags': {'amenity': 'doctors', 'healthcare': 'doctor', 'name': 'Centro Medico Los Ejecutivos'}}"
"{'type': 'node', 'id': 1152345388, 'lat': 10.3881351, 'lon': -75.516117, 'tags': {'amenity': 'pharmacy', 'dispensing': 'yes', 'name': 'Drogas La Rebaja', 'opening_hours': '24/7'}}"
"{'type': 'node', 'id': 1422539755, 'lat': 10.3975591, 'lon': -75.5562013, 'tags': {'amenity': 'doctors', 'healthcare': 'doctor', 'name': 'Centro Médico Castillogrande', 'opening_hours': 'Mo-Fr 08:30-20:00'}}"
"{'type': 'node', 'id': 1422539756, 'lat': 10.3976457, 'lon': -75.5560136, 'tags': {'amenity': 'pharmacy', 'dispensing': 'yes', 'healthcare': 'pharmacy', 'name': 'Droguería Alemana', 'opening_hours': 'Mo-Fr 08:30-20:00'}}"
"{'type': 'node', 'id': 1422539757, 'lat': 10.3974475, 'lon': -75.5563754, 'tags': {'amenity': 'hospital', 'healthcare': 'hospital', 'name': 'Medihelp'}}"
"{'type': 'node', 'id': 1807692980, 'lat': 9.3005244, 'lon': -75.394363, 'tags': {'amenity': 'pharmacy'}}"
"{'type': 'node', 'id': 2070878877, 'lat': 9.3061578, 'lon': -75.3876738, 'tags': {'amenity': 'hospital'}}"
"{'type': 'node', 'id': 2364634614, 'lat': 9.0751753, 'lon': -75.8278241, 'tags': {'amenity': 'hospital', 'healthcare': 'hospital', 'name': 'Centro de Salud Mata de Caña'}}"
"{'type': 'node', 'id': 2423874186, 'lat': 9.297594, 'lon': -75.3793123, 'tags': {'amenity': 'hospital', 'name': 'Cruz Roja Colombiana Sede Sincelejo'}}"
"{'type': 'node', 'id': 2640966527, 'lat': 9.3797201, 'lon': -75.2686823, 'tags': {'amenity': 'pharmacy', 'dispensing': 'no', 'name': 'Maxidrogas No. 2', 'shop': 'chemist'}}"
"{'type': 'node', 'id': 2640966528, 'lat': 9.3802553, 'lon': -75.2685359, 'tags': {'amenity': 'pharmacy', 'dispensing': 'no', 'name': 'Drogas la Oportunidad'}}"
"{'type': 'node', 'id': 2640966547, 'lat': 9.3805206, 'lon': -75.2670277, 'tags': {'amenity': 'pharmacy', 'dispensing': 'no', 'name': 'Farmacia Carmita'}}"
"{'type': 'node', 'id': 2640966549, 'lat': 9.3802115, 'lon': -75.2720303, 'tags': {'amenity': 'pharmacy', 'dispensing': 'no', 'name': 'Farmacia'}}"
"{'type': 'node', 'id': 2640966550, 'lat': 9.3843586, 'lon': -75.2655846, 'tags': {'amenity': 'pharmacy', 'dispensing': 'no', 'name': 'Farmacia'}}"
"{'type': 'node', 'id': 2640966639, 'lat': 9.3801992, 'lon': -75.2695033, 'tags': {'amenity': 'pharmacy', 'dispensing': 'no', 'name': 'IPS Sumisalud (Coosalud)'}}"
"{'type': 'node', 'id': 2640966752, 'lat': 9.3800524, 'lon': -75.2678744, 'tags': {'amenity': 'pharmacy', 'dispensing': 'no', 'name': 'Maxidrogas La Central'}}"
"{'type': 'node', 'id': 2640966808, 'lat': 9.3798898, 'lon': -75.2688271, 'tags': {'amenity': 'pharmacy', 'dispensing': 'no', 'name': 'PharmaSer'}}"
"{'type': 'node', 'id': 2646567496, 'lat': 9.4705339, 'lon': -75.2929235, 'tags': {'amenity': 'hospital', 'healthcare': 'hospital', 'layer': '1', 'name': 'Puesto de Salud'}}"
"{'type': 'node', 'id': 2898246153, 'lat': 10.4091282, 'lon': -75.5180375, 'tags': {'amenity': 'hospital', 'designation': 'hospital', 'emergency': 'yes', 'name': 'Gestion Salud Ips', 'website': 'http://gestionsaludips.com'}}"
"{'type': 'node', 'id': 3016872233, 'lat': 9.2800636, 'lon': -75.4057814, 'tags': {'amenity': 'hospital', 'name': 'Puesto de Salud Argelia'}}"
"{'type': 'node', 'id': 3018805290, 'lat': 9.2979422, 'lon': -75.397517, 'tags': {'amenity': 'clinic', 'name': 'Clínica La Medalla Milagrosa'}}"
"{'type': 'node', 'id': 3025275459, 'lat': 9.304372, 'lon': -75.3919452, 'tags': {'amenity': 'clinic', 'name': 'Clínica Integral de Sincelejo'}}"
"{'type': 'node', 'id': 3026186040, 'lat': 9.2922023, 'lon': -75.3981338, 'tags': {'amenity': 'clinic', 'name': 'CLÍNICA SANTA ISABEL'}}"
"{'type': 'node', 'id': 3026238657, 'lat': 9.3063969, 'lon': -75.3955297, 'tags': {'amenity': 'clinic', 'name': 'IPS Salud Social'}}"
"{'type': 'node', 'id': 3026247024, 'lat': 9.3071401, 'lon': -75.3950113, 'tags': {'amenity': 'clinic', 'name': 'Clínica Pediátrica Niño Jesús'}}"
"{'type': 'node', 'id': 3026542129, 'lat': 9.2968798, 'lon': -75.3974078, 'tags': {'amenity': 'clinic', 'name': 'Clínica General de Sucre'}}"
"{'type': 'node', 'id': 3026542130, 'lat': 9.2970656, 'lon': -75.3972312, 'tags': {'amenity': 'clinic', 'name': 'Clínica'}}"
"{'type': 'node', 'id': 3026582344, 'lat': 9.3056111, 'lon': -75.3959711, 'tags': {'amenity': 'clinic', 'name': 'COOMEVA'}}"
"{'type': 'node', 'id': 3056707570, 'lat': 9.3074874, 'lon': -75.3943937, 'tags': {'amenity': 'clinic', 'name': 'Clínica Oftalmológica de Sucre'}}"
"{'type': 'node', 'id': 3063396646, 'lat': 9.3044574, 'lon': -75.4111845, 'tags': {'amenity': 'hospital', 'name': 'IPS VALLEJO'}}"
"{'type': 'node', 'id': 4022320101, 'lat': 10.3227374, 'lon': -75.4101691, 'tags': {'amenity': 'hospital', 'name': 'Centro de Diagnostico Salud Social IPS'}}"
"{'type': 'node', 'id': 4022342909, 'lat': 10.3200669, 'lon': -75.4093752, 'tags': {'amenity': 'hospital', 'name': 'Centro de Salud de Pumarejo'}}"
"{'type': 'node', 'id': 4568899758, 'lat': 9.1836861, 'lon': -75.3783233, 'tags': {'amenity': 'clinic', 'healthcare': 'clinic', 'name': 'Ips Salud Integral'}}"
"{'type': 'node', 'id': 4789144123, 'lat': 10.3290894, 'lon': -75.4245808, 'tags': {'amenity': 'pharmacy', 'name': 'Droguería la 14', 'name:es': 'Droguería la 14'}}"
"{'type': 'node', 'id': 4806580421, 'lat': 10.4026379, 'lon': -75.5567176, 'tags': {'amenity': 'pharmacy', 'healthcare': 'pharmacy', 'name': 'Drogueria Inglesa', 'name:es': 'English Pharmacy'}}"
"{'type': 'node', 'id': 4961858133, 'lat': 10.3912865, 'lon': -75.4800968, 'tags': {'amenity': 'pharmacy'}}"
"{'type': 'node', 'id': 4961876128, 'lat': 10.3799498, 'lon': -75.4872043, 'tags': {'amenity': 'pharmacy'}}"
"{'type': 'node', 'id': 5081543922, 'lat': 9.3025047, 'lon': -75.3961453, 'tags': {'amenity': 'pharmacy', 'name': 'Droguería La Economía', 'name:es': 'Droguería La Economía'}}"
"{'type': 'node', 'id': 5081567021, 'lat': 9.30232, 'lon': -75.3947688, 'tags': {'amenity': 'pharmacy', 'name': 'Droguería La Economía', 'name:es': 'Droguería La Economía'}}"
"{'type': 'node', 'id': 5216456321, 'lat': 9.3317102, 'lon': -75.3060243, 'tags': {'healthcare': 'rehabilitation', 'name': 'Centro de Rehabilitación Fisiocender Ltda.'}}"
"{'type': 'node', 'id': 5393874661, 'lat': 10.3979242, 'lon': -75.5556487, 'tags': {'addr:street': 'Carrera 6', 'amenity': 'clinic', 'healthcare': 'clinic', 'name': 'Prisma Centro Medico', 'source': 'Kaart Ground Survey 2018'}}"
"{'type': 'node', 'id': 5397389492, 'lat': 10.3826172, 'lon': -75.4807346, 'tags': {'amenity': 'pharmacy', 'name': 'farmacenter', 'source': 'Kaart Ground Survey 2018'}}"
"{'type': 'node', 'id': 5413419921, 'lat': 10.4096963, 'lon': -75.5176424, 'tags': {'addr:street': 'Calle 31', 'amenity': 'pharmacy', 'name': 'La Rebaja', 'source': 'Kaart Ground Survey 2018'}}"
"{'type': 'node', 'id': 5413591993, 'lat': 10.4096414, 'lon': -75.5078664, 'tags': {'addr:street': 'Calle 31D', 'amenity': 'pharmacy', 'name': 'Drogueria Hermanos Vega', 'source': 'Kaart Ground Survey 2018'}}"
"{'type': 'node', 'id': 5413591998, 'lat': 10.4099712, 'lon': -75.5119005, 'tags': {'addr:street': 'Calle 31D', 'amenity': 'pharmacy', 'name': 'Drogueria Farma Plus', 'source': 'Kaart Ground Survey 2018'}}"
"{'type': 'node', 'id': 5762630153, 'lat': 10.3825694, 'lon': -75.4587514, 'tags': {'amenity': 'clinic', 'name': 'CASA Doña arsenia'}}"
"{'type': 'node', 'id': 5794579143, 'lat': 10.4106788, 'lon': -75.5325032, 'tags': {'amenity': 'clinic', 'name': 'Laboratorio Clínico Syso'}}"
"{'type': 'node', 'id': 6119607179, 'lat': 9.545358, 'lon': -75.3134187, 'tags': {'amenity': 'clinic', 'healthcare': 'clinic', 'name': 'Mutual Ser'}}"
"{'type': 'node', 'id': 6119623582, 'lat': 9.5444069, 'lon': -75.3137639, 'tags': {'amenity': 'clinic', 'healthcare': 'clinic', 'name': 'Entidad de Salud'}}"
"{'type': 'node', 'id': 6751697205, 'lat': 9.3946973, 'lon': -75.0652201, 'tags': {'addr:city': 'San Pedro', 'addr:street': 'Carrera 12', 'amenity': 'hospital', 'emergency': 'yes', 'healthcare': 'hospital', 'healthcare:speciality': 'general', 'name': 'Centro de Salud', 'operator': 'Centro de Salud', 'operator:type': 'public'}}"
"{'type': 'node', 'id': 8316658776, 'lat': 10.394158, 'lon': -75.4785396, 'tags': {'addr:city': 'Cartagena', 'addr:housenumber': '35-297', 'addr:postcode': '130010', 'addr:street': 'Carrera 71', 'amenity': 'hospital', 'description': 'Apoyo diagnóstico y terapéutico en torno a la promoción, prevención e intervención de la salud mental. Utilizamos equipos de neurotecnología de punta en interacción con las diferentes disciplinas del comportamiento y la salud en general.', 'email': 'neuroinnovacartagena@gmail.com', 'healthcare': 'hospital', 'healthcare:speciality': 'Neuropsychology;psychology;psychiatry;neurology;speech_therapy;occupational_therapy;special_education;brain_mapping;neurofeedback;transcranial_stimulation;rehabilitation_cognitive;detoxification_ionic', 'healthcare:speciality:de': 'mental_health', 'name': 'NEUROINNOVACOLOMBIA', 'name:es': 'NEUROINNOVA', 'operator': 'Neurociencias', 'operator:type': 'private', 'wheelchair': 'yes'}}"
"{'type': 'node', 'id': 8558578017, 'lat': 10.1771246, 'lon': -75.7423803, 'tags': {'amenity': 'pharmacy', 'name': 'Farmacia', 'name:de': 'Apotheke', 'name:en': 'Pharmacy'}}"
"{'type': 'node', 'id': 8865961221, 'lat': 9.2927733, 'lon': -75.3953169, 'tags': {'amenity': 'clinic', 'name': 'CERINPROS'}}"
"{'type': 'node', 'id': 8963753005, 'lat': 10.4099316, 'lon': -75.5220956, 'tags': {'addr:housenumber': '30-238', 'addr:street': 'Diagonal 21', 'amenity': 'pharmacy', 'name': 'Multidrogas'}}"
"{'type': 'node', 'id': 9487066918, 'lat': 10.4058218, 'lon': -75.4849894, 'tags': {'amenity': 'clinic', 'name': 'Centro de salud Olaya Herrera'}}"
"{'type': 'node', 'id': 10003548410, 'lat': 9.3253855, 'lon': -74.9224489, 'tags': {'amenity': 'hospital', 'healthcare': 'hospital', 'name': 'Centro de Salud Juan Arias'}}"
"{'type': 'node', 'id': 10119734429, 'lat': 10.3932546, 'lon': -75.4813246, 'tags': {'amenity': 'pharmacy', 'name': 'Cruz Verde Ronda Real Santa Lucía', 'operator': 'Cruz Verde'}}"
"{'type': 'node', 'id': 10119740017, 'lat': 10.3926294, 'lon': -75.4790065, 'tags': {'amenity': 'pharmacy', 'name': 'Cruz Verde Santa Lucía', 'operator': 'Cruz Verde'}}"
"{'type': 'node', 'id': 10183946010, 'lat': 9.321733, 'lon': -75.2881682, 'tags': {'amenity': 'pharmacy', 'name': '24 horas'}}"
"{'type': 'node', 'id': 10215581469, 'lat': 9.3174671, 'lon': -75.2911021, 'tags': {'amenity': 'pharmacy', 'name': 'Super baratas'}}"
"{'type': 'node', 'id': 10215605935, 'lat': 9.3172191, 'lon': -75.2918006, 'tags': {'amenity': 'pharmacy', 'name': 'La rebaja'}}"
"{'type': 'node', 'id': 10215622055, 'lat': 9.3173142, 'lon': -75.2912323, 'tags': {'amenity': 'pharmacy', 'name': 'Plus'}}"
"{'type': 'node', 'id': 10238104763, 'lat': 9.1841588, 'lon': -75.548077, 'tags': {'amenity': 'hospital', 'name': 'Manexka'}}"
"{'type': 'node', 'id': 11175693637, 'lat': 10.3789829, 'lon': -75.4700621, 'tags': {'addr:housenumber': '84 - 150', 'amenity': 'pharmacy'}}"
"{'type': 'node', 'id': 11779055062, 'lat': 9.3739942, 'lon': -75.2724175, 'tags': {'amenity': 'doctors', 'healthcare': 'doctor', 'name': 'Centro Atención Afiliado EPS Familiar'}}"
"{'type': 'node', 'id': 11809951967, 'lat': 9.3779999, 'lon': -75.2684379, 'tags': {'healthcare': 'clinic', 'name': 'Centro de Fisioterapia Rehabilitar'}}"
"{'type': 'node', 'id': 11810022108, 'lat': 9.3754201, 'lon': -75.2710663, 'tags': {'amenity': 'clinic', 'healthcare': 'clinic', 'name': 'Global Health Group', 'shop': 'medical_supply'}}"
"{'type': 'node', 'id': 12077379452, 'lat': 10.3895143, 'lon': -75.4783645, 'tags': {'healthcare': 'laboratory', 'name': 'Sede Synlab Cartagena', 'phone': '+573183473394', 'website': 'https://www.synlab.co/'}}"
"{'type': 'node', 'id': 12351766068, 'lat': 10.406743, 'lon': -75.4627034, 'tags': {'amenity': 'pharmacy', 'healthcare': 'pharmacy', 'name': 'Drogueria'}}"
