OSM_Data
"{'type': 'node', 'id': 267795759, 'lat': 38.7992255, 'lon': -9.1638054, 'tags': {'amenity': 'pharmacy', 'dispensing': 'yes', 'healthcare': 'pharmacy'}}"
"{'type': 'node', 'id': 268088209, 'lat': 38.8022209, 'lon': -9.1625177, 'tags': {'amenity': 'pharmacy', 'dispensing': 'yes', 'healthcare': 'pharmacy'}}"
"{'type': 'node', 'id': 268088687, 'lat': 38.8002031, 'lon': -9.1599212, 'tags': {'amenity': 'pharmacy', 'dispensing': 'yes', 'healthcare': 'pharmacy'}}"
"{'type': 'node', 'id': 268283740, 'lat': 38.7916534, 'lon': -9.2103757, 'tags': {'amenity': 'pharmacy', 'created_by': 'Potlatch 0.9c', 'name': 'Farmácia de Famões'}}"
"{'type': 'node', 'id': 428770612, 'lat': 39.0861652, 'lon': -9.2571445, 'tags': {'alt_name': 'Centro Hospitalar do Oeste', 'amenity': 'hospital', 'emergency': 'yes', 'healthcare': 'hospital', 'name': 'Hospital de Torres Vedras', 'wheelchair': 'limited'}}"
"{'type': 'node', 'id': 462186445, 'lat': 38.8079068, 'lon': -9.3075898, 'tags': {'addr:city': 'Mem Martins', 'addr:housenumber': '55', 'addr:postcode': '2725-588', 'addr:street': 'Estrada do Telhal', 'amenity': 'hospital', 'email': 'cst.telhal@isjd.pt', 'healthcare': 'hospital', 'healthcare:speciality': 'Psiquiatria;psicogeriatria;alcoologia', 'name': 'Casa de Saúde do Telhal', 'operator': 'Ordem Hospitaleira de S. João de Deus', 'phone': '+351 219179200', 'website': 'https://www.isjd.pt/cst.telhal'}}"
"{'type': 'node', 'id': 470729376, 'lat': 38.7188991, 'lon': -9.1218115, 'tags': {'addr:housenumber': '33', 'addr:postcode': '1170-124 Santa Engrácia', 'addr:street': 'Rua Fernão de Magalhães', 'amenity': 'pharmacy', 'contact:email': 'farmacia.cf@gmail.com', 'contact:phone': '+351 218 149 448', 'contact:website': 'https://www.facebook.com/farmaciacostaferreira', 'healthcare': 'pharmacy', 'name': 'Farmácia Costa Ferreira'}}"
"{'type': 'node', 'id': 476505596, 'lat': 38.815595, 'lon': -9.1312099, 'tags': {'amenity': 'pharmacy'}}"
"{'type': 'node', 'id': 489789755, 'lat': 38.7482514, 'lon': -9.1360807, 'tags': {'addr:housenumber': '3-B', 'addr:postcode': '1700-307 Alvalade', 'addr:street': 'Rua Moura Girão', 'amenity': 'pharmacy', 'name': 'Farmácia Celta'}}"
"{'type': 'node', 'id': 494335903, 'lat': 38.6609171, 'lon': -9.0781853, 'tags': {'addr:city': 'Barreiro', 'addr:housenumber': '48', 'addr:postcode': '2830-302', 'addr:street': 'Avenida Alfredo da Silva', 'addr:unit': 'B', 'amenity': 'pharmacy', 'dispensing': 'yes', 'healthcare': 'pharmacy', 'name': 'Farmácia Central'}}"
"{'type': 'node', 'id': 495417579, 'lat': 38.6733473, 'lon': -9.1592711, 'tags': {'amenity': 'pharmacy', 'check_date': '2025-01-09', 'dispensing': 'yes', 'healthcare': 'pharmacy', 'name': 'Farmácia Atlântico', 'opening_hours': 'Mo-Sa 09:00-21:00'}}"
"{'type': 'node', 'id': 503408728, 'lat': 38.8176769, 'lon': -9.0942932, 'tags': {'amenity': 'pharmacy'}}"
"{'type': 'node', 'id': 503422621, 'lat': 38.8379291, 'lon': -9.0921761, 'tags': {'amenity': 'pharmacy', 'name': 'Farmácia Ribeiro'}}"
"{'type': 'node', 'id': 580298178, 'lat': 38.7656991, 'lon': -9.1986619, 'tags': {'amenity': 'pharmacy'}}"
"{'type': 'node', 'id': 580298244, 'lat': 38.7826266, 'lon': -9.2166569, 'tags': {'amenity': 'pharmacy', 'name': 'Farmácia do Casal do Rato'}}"
"{'type': 'node', 'id': 590441593, 'lat': 38.5968241, 'lon': -9.092185, 'tags': {'addr:housenumber': '52', 'addr:street': 'Rua Dr. Raúl Machado', 'amenity': 'pharmacy', 'dispensing': 'yes', 'drive_through': 'yes', 'name': 'Farmácia Pinhal de Frades', 'opening_hours': '09:00-20:00', 'website': 'http://www.farmaciapinhalfrades.com/'}}"
"{'type': 'node', 'id': 593576649, 'lat': 38.7064514, 'lon': -9.2052254, 'tags': {'addr:housenumber': '10-B', 'addr:postcode': '1400-352 Santa Maria de Belém', 'addr:street': 'Rua Tristão Vaz', 'amenity': 'pharmacy', 'healthcare': 'pharmacy', 'name': 'Farmácia Belém'}}"
"{'type': 'node', 'id': 595839243, 'lat': 38.6927524, 'lon': -9.297862, 'tags': {'amenity': 'pharmacy', 'name': 'Pargana'}}"
"{'type': 'node', 'id': 601738058, 'lat': 38.7957351, 'lon': -9.1939366, 'tags': {'amenity': 'pharmacy', 'name': 'Torres'}}"
"{'type': 'node', 'id': 620172733, 'lat': 38.7024687, 'lon': -9.2982314, 'tags': {'amenity': 'clinic', 'emergency': 'no', 'healthcare': 'clinic', 'name': 'Centro de Saúde de Paço de Arcos'}}"
"{'type': 'node', 'id': 620172916, 'lat': 38.7005115, 'lon': -9.2927367, 'tags': {'amenity': 'pharmacy', 'name': 'Farmácia Dias'}}"
"{'type': 'node', 'id': 620173032, 'lat': 38.6950869, 'lon': -9.2923137, 'tags': {'amenity': 'pharmacy'}}"
"{'type': 'node', 'id': 650194167, 'lat': 39.7622509, 'lon': -8.8220343, 'tags': {'addr:city': 'Leiria', 'addr:country': 'PT', 'addr:housenumber': 'Lt29-30', 'addr:place': ""Rego d'Agua"", 'addr:postcode': '2415-766', 'amenity': 'pharmacy', 'dispensing': 'yes', 'drive_through': 'yes', 'email': 'farmacialis.geral@gmail.com', 'healthcare': 'pharmacy', 'name': 'Farmácia Lis', 'operator': 'Farmácias Grupo Antunes', 'phone': '+351244882609'}}"
"{'type': 'node', 'id': 653972051, 'lat': 39.7517532, 'lon': -8.8075367, 'tags': {'amenity': 'pharmacy', 'dispensing': 'yes', 'healthcare': 'pharmacy', 'level': '0', 'name': 'Farmácia Oliveira', 'phone': '+351 244 822 757'}}"
"{'type': 'node', 'id': 666418794, 'lat': 38.6089796, 'lon': -9.1882236, 'tags': {'addr:housenumber': '3', 'addr:street': 'Estrada do Poço Novo', 'amenity': 'pharmacy', 'drive_through': 'no', 'healthcare': 'pharmacy', 'name': 'Farmácia Nita'}}"
"{'type': 'node', 'id': 672368260, 'lat': 38.7457247, 'lon': -9.2193988, 'tags': {'addr:housenumber': '9', 'addr:postcode': '2720-008', 'addr:street': 'Largo Alexandre Gusmão', 'addr:unit': 'A', 'amenity': 'pharmacy', 'dispensing': 'no', 'healthcare': 'pharmacy', 'name': 'Farmácia Damaia', 'opening_hours': 'Mo-Fr 09:00-14:00, 15:00-20:00; Sa 09:00-13:00'}}"
"{'type': 'node', 'id': 680363182, 'lat': 39.3679668, 'lon': -9.0493567, 'tags': {'addr:city': 'Vidais', 'addr:housenumber': '35', 'addr:postcode': '2500-749', 'addr:street': 'Rua Dr. João Botelho Moniz', 'amenity': 'pharmacy', 'drive_through': 'no', 'healthcare': 'pharmacy', 'name': 'Farmácia Vidais', 'opening_hours': 'Mo-Fr 09:00-19:30; Sa 09:00-13:00', 'phone': '262 93 92 19'}}"
"{'type': 'node', 'id': 681261092, 'lat': 39.4183118, 'lon': -8.9087048, 'tags': {'addr:city': 'Alcobertas', 'addr:country': 'PT', 'amenity': 'pharmacy', 'dispensing': 'yes', 'is_in': 'Alcobertas;Portugal;Europe', 'is_in:city': 'Alcobertas', 'is_in:country': 'Portugal'}}"
"{'type': 'node', 'id': 685227849, 'lat': 38.9070059, 'lon': -9.0514872, 'tags': {'amenity': 'pharmacy', 'name': 'Raposo'}}"
"{'type': 'node', 'id': 694111052, 'lat': 38.7673805, 'lon': -9.1529686, 'tags': {'addr:housenumber': '6 A', 'addr:street': 'Rua António Lopes Ribeiro', 'amenity': 'pharmacy', 'contact:email': 'farmfal@gmail.com', 'contact:phone': '+351 217 542 650', 'healthcare': 'pharmacy', 'name': 'Farmácia Alta de Lisboa'}}"
"{'type': 'node', 'id': 694442643, 'lat': 39.4465914, 'lon': -9.1294993, 'tags': {'addr:housenumber': '14', 'addr:postcode': '2500-315', 'addr:street': 'Rua 1 de Maio', 'amenity': 'pharmacy', 'name': 'Tornada', 'opening_hours': 'Mo-Fr 09:00-20:00; Sa 09:00-13:00,15:00-19:00; Su 10:00-13:00'}}"
"{'type': 'node', 'id': 694442705, 'lat': 39.4999188, 'lon': -9.1039062, 'tags': {'amenity': 'pharmacy', 'healthcare': 'pharmacy', 'name': 'Farmácia Alfeizerão', 'opening_hours': 'Mo-Sa 09:00-19:00'}}"
"{'type': 'node', 'id': 694753764, 'lat': 39.5422396, 'lon': -8.7130012, 'tags': {'addr:city': 'Mira de Aire', 'addr:country': 'PT', 'addr:housenumber': '169', 'addr:street': 'Rua General Trindade', 'amenity': 'pharmacy', 'healthcare': 'pharmacy', 'is_in': 'Mira de Aire;Leiria;Portugal;Europe', 'is_in:city': 'Mira de Aire', 'is_in:country': 'Portugal', 'name': 'Farmácia Mirense', 'opening_hours': 'Mo-Fr 09:00-20:00', 'phone': '244 440 213'}}"
"{'type': 'node', 'id': 699625576, 'lat': 39.6051762, 'lon': -9.0753645, 'tags': {'addr:city': 'Nazaré', 'addr:country': 'PT', 'addr:housenumber': '22', 'addr:street': 'Estrada do Sítio', 'amenity': 'pharmacy', 'healthcare': 'pharmacy', 'name': 'Farmácia Maria Orlanda'}}"
"{'type': 'node', 'id': 699631874, 'lat': 39.5350634, 'lon': -9.0837885, 'tags': {'addr:city': 'Famalicão', 'addr:country': 'PT', 'amenity': 'pharmacy', 'is_in': 'Famalicão;Portugal;Europe', 'is_in:city': 'Famalicão', 'is_in:country': 'Portugal'}}"
"{'type': 'node', 'id': 701191112, 'lat': 38.7722055, 'lon': -9.161174, 'tags': {'addr:city': 'Lisboa', 'addr:country': 'PT', 'addr:housenumber': '243', 'addr:postcode': '1750-144', 'addr:street': 'Alameda das Linhas de Torres', 'amenity': 'clinic', 'email': 'lumiar@cslumiar.min-saude.pt', 'healthcare': 'centre', 'name': 'Unidade de Cuidados de Saúde Personalizados do Lumiar', 'note': 'Agrupamento de Centros de Saúde Grande Lisboa Norte', 'old_name': 'Centro Saúde do Lumiar', 'phone': '+351 217 527 110', 'short_name': 'UCSP Lumiar'}}"
"{'type': 'node', 'id': 702173727, 'lat': 38.7529118, 'lon': -9.2843646, 'tags': {'addr:housenumber': '1', 'addr:postcode': '2745-862', 'addr:street': 'Arcadas do Shopping de Massamá', 'amenity': 'pharmacy', 'name': 'Pinto Leal', 'opening_hours': 'Mo-Su 08:00-21:00', 'phone': '214387580'}}"
"{'type': 'node', 'id': 712051425, 'lat': 38.7491384, 'lon': -9.1900335, 'tags': {'addr:housenumber': '444-A', 'addr:postcode': '1500-103', 'addr:street': 'Estrada de Benfica', 'amenity': 'pharmacy', 'contact:email': 'farmaciabenfiluz@gmail.com', 'contact:phone': '+351 217 141 206', 'contact:website': 'https://www.facebook.com/Farmácia-Benfiluz-465690890138972', 'dispensing': 'yes', 'healthcare': 'pharmacy', 'name': 'Farmácia Benfiluz'}}"
"{'type': 'node', 'id': 721674597, 'lat': 38.7477863, 'lon': -9.236101, 'tags': {'amenity': 'pharmacy', 'check_date': '2024-09-02', 'dispensing': 'yes', 'drive_through': 'no', 'healthcare': 'pharmacy', 'name': 'Farmácia do Borel', 'name:pt': 'Farmácia do Borel', 'opening_hours': 'Mo-Fr 09:00-20:00; Sa 09:00-19:00'}}"
"{'type': 'node', 'id': 721688868, 'lat': 38.7487194, 'lon': -9.2308387, 'tags': {'addr:street': 'Avenida dos Hospitais Civis de Lisboa', 'amenity': 'clinic', 'healthcare': 'clinic', 'name': 'Clínica de Santo António', 'opening_hours': 'Mo-Su 08:00-20:00'}}"
"{'type': 'node', 'id': 721688877, 'lat': 38.7517902, 'lon': -9.2292295, 'tags': {'addr:housenumber': '3 D', 'addr:postcode': '2720-454', 'addr:street': 'Rua Pedro del Negro', 'amenity': 'pharmacy', 'healthcare': 'pharmacy', 'name': 'Farmácia São Jorge'}}"
"{'type': 'node', 'id': 721688885, 'lat': 38.7529165, 'lon': -9.232758, 'tags': {'addr:housenumber': '12C', 'addr:postcode': '2720-127', 'addr:street': 'Avenida Conde de Oeiras', 'amenity': 'pharmacy', 'healthcare': 'pharmacy', 'name': 'Farmácia Jardim'}}"
"{'type': 'node', 'id': 736963041, 'lat': 38.7151852, 'lon': -9.151135, 'tags': {'addr:housenumber': '59-60', 'addr:postcode': '1200-192 Mercês', 'addr:street': 'Praça das Flores', 'amenity': 'pharmacy', 'contact:phone': '+351 213 952 401', 'healthcare': 'pharmacy', 'name': 'Farmácia Confiança'}}"
"{'type': 'node', 'id': 739539836, 'lat': 38.726162, 'lon': -9.2395503, 'tags': {'amenity': 'pharmacy', 'healthcare': 'pharmacy', 'name': 'Central de Carnaxide'}}"
"{'type': 'node', 'id': 802969616, 'lat': 39.8445967, 'lon': -8.7075332, 'tags': {'amenity': 'pharmacy', 'healthcare': 'pharmacy', 'name': 'Mota'}}"
"{'type': 'node', 'id': 845946260, 'lat': 38.7064108, 'lon': -8.9228921, 'tags': {'addr:city': 'Atalaia', 'addr:postcode': '2870-736', 'addr:street': 'Avenida Dom Manuel I', 'amenity': 'pharmacy', 'facebook': 'https://www.facebook.com/fcravidao/', 'name': 'Cravidão'}}"
"{'type': 'node', 'id': 903624523, 'lat': 39.7432619, 'lon': -8.708463, 'tags': {'amenity': 'pharmacy', 'healthcare': 'pharmacy'}}"
"{'type': 'node', 'id': 911793689, 'lat': 38.7149202, 'lon': -9.2413554, 'tags': {'addr:housenumber': '27', 'addr:postcode': '2795-198', 'addr:street': 'Avenida 25 Abril de 1974', 'amenity': 'pharmacy', 'healthcare': 'pharmacy', 'name': 'Farmácia Marta', 'opening_hours': 'Mo-Fr 09:00-20:00'}}"
"{'type': 'node', 'id': 950396228, 'lat': 38.7080647, 'lon': -9.2100822, 'tags': {'addr:city': 'São Francisco Xavier', 'addr:housenumber': '47 Bl I2', 'addr:postcode': '1400-203', 'addr:street': 'Avenida Ilha da Madeira', 'amenity': 'pharmacy', 'contact:email': 'centraldorestelo@sapo.pt', 'contact:phone': '+351 213 554 808', 'dispensing': 'yes', 'healthcare': 'pharmacy', 'name': 'Farmácia Central do Restelo', 'note': 'Director Técnico - Ana Paula dos Santos Cabral', 'opening_hours': 'Mo-Sa 09:00-21:00'}}"
"{'type': 'node', 'id': 976667352, 'lat': 38.7022589, 'lon': -9.2276203, 'tags': {'amenity': 'pharmacy', 'healthcare': 'pharmacy', 'name': 'Miraflores'}}"
"{'type': 'node', 'id': 976669739, 'lat': 39.6463536, 'lon': -8.6214081, 'tags': {'amenity': 'pharmacy', 'name': 'Farmácia Fonseca'}}"
"{'type': 'node', 'id': 983907967, 'lat': 39.7356918, 'lon': -8.8308479, 'tags': {'addr:housenumber': '19', 'amenity': 'clinic', 'email': 'davita.leiria@davita.com', 'healthcare': 'dialysis', 'healthcare:speciality': 'dialysis', 'name': 'DaVita', 'opening_hours': 'Mo-Sa 07:00-22:45', 'operator': 'DaVita', 'operator:type': 'private', 'phone': '+351 244 819 030', 'website': 'https://www.davita.pt/pt/davita-leiria'}}"
"{'type': 'node', 'id': 983908059, 'lat': 39.7299107, 'lon': -8.8353882, 'tags': {'amenity': 'pharmacy'}}"
"{'type': 'node', 'id': 983911600, 'lat': 39.713957, 'lon': -8.8324262, 'tags': {'amenity': 'pharmacy', 'healthcare': 'pharmacy'}}"
"{'type': 'node', 'id': 996681507, 'lat': 38.7172725, 'lon': -9.3012357, 'tags': {'amenity': 'pharmacy', 'healthcare': 'pharmacy', 'name': 'Farmácia Ferreira Bastos'}}"
"{'type': 'node', 'id': 996681542, 'lat': 38.7226222, 'lon': -9.3060658, 'tags': {'amenity': 'pharmacy', 'name': 'Farmácia Varela Baião'}}"
"{'type': 'node', 'id': 1018965420, 'lat': 38.733473, 'lon': -9.2795571, 'tags': {'amenity': 'pharmacy'}}"
"{'type': 'node', 'id': 1156203525, 'lat': 39.2484982, 'lon': -9.2253614, 'tags': {'amenity': 'pharmacy', 'name': 'Farmácia Correia Mendes'}}"
"{'type': 'node', 'id': 1156940888, 'lat': 38.7905501, 'lon': -9.1764411, 'tags': {'amenity': 'pharmacy', 'dispensing': 'yes', 'healthcare': 'pharmacy', 'name': 'Monserrate'}}"
"{'type': 'node', 'id': 1156940889, 'lat': 38.7935243, 'lon': -9.1781235, 'tags': {'addr:housenumber': '29 A', 'addr:postcode': '2675-300', 'addr:street': 'Avenida Professor Doutor Augusto Abreu Lopes', 'amenity': 'pharmacy', 'healthcare': 'pharmacy', 'name': 'Catela Tavares'}}"
"{'type': 'node', 'id': 1156978706, 'lat': 38.7926938, 'lon': -9.1744729, 'tags': {'amenity': 'pharmacy', 'healthcare': 'pharmacy', 'name': 'Farmácia Gonçalves', 'opening_hours': 'Mo-Fr 09:00-22:00; Sa 09:00-18:00', 'phone': '+351219315662', 'wheelchair': 'limited'}}"
"{'type': 'node', 'id': 1156978715, 'lat': 38.782995, 'lon': -9.192114, 'tags': {'amenity': 'pharmacy', 'name': 'Tanara'}}"
"{'type': 'node', 'id': 1157008785, 'lat': 38.7877164, 'lon': -9.1821617, 'tags': {'amenity': 'pharmacy', 'name': 'Joléni'}}"
"{'type': 'node', 'id': 1157023784, 'lat': 38.79477, 'lon': -9.182768, 'tags': {'addr:housenumber': '45 R/C, Lj Esq.', 'addr:postcode': '2675-031', 'addr:street': 'Avenida Professor Doutor Augusto Abreu Lopes', 'amenity': 'pharmacy', 'name': 'Almeida'}}"
"{'type': 'node', 'id': 1157329672, 'lat': 38.799258, 'lon': -9.1784015, 'tags': {'addr:housenumber': '3-A - R/C Esq.', 'addr:postcode': '2675-604', 'addr:street': 'Rua Artur Bual', 'amenity': 'pharmacy', 'healthcare': 'pharmacy', 'name': 'Nabais Vicente'}}"
"{'type': 'node', 'id': 1157342537, 'lat': 38.681366, 'lon': -9.3299072, 'tags': {'amenity': 'pharmacy', 'name': 'Farmácia de São Gonçalo'}}"
"{'type': 'node', 'id': 1159228821, 'lat': 38.7673036, 'lon': -9.2373912, 'tags': {'addr:housenumber': 'N.º 31, Loja B', 'addr:postcode': '2700', 'addr:street': 'Avenida Fernando Valle', 'amenity': 'pharmacy', 'name': 'Farmácia Carlos'}}"
"{'type': 'node', 'id': 1159228828, 'lat': 38.7611047, 'lon': -9.2334081, 'tags': {'addr:housenumber': '3A', 'addr:postcode': '2700', 'addr:street': 'Praça 25 de Abril', 'amenity': 'pharmacy', 'name': 'Amadora'}}"
"{'type': 'node', 'id': 1159228829, 'lat': 38.7607889, 'lon': -9.2369888, 'tags': {'addr:housenumber': '25', 'addr:postcode': '2700', 'addr:street': 'Avenida Cardoso Lopes', 'amenity': 'pharmacy', 'name': 'Farmácia Central'}}"
"{'type': 'node', 'id': 1159228830, 'lat': 38.7629138, 'lon': -9.2381449, 'tags': {'addr:housenumber': '45-A', 'addr:postcode': '2700', 'addr:street': 'Avenida Marquês de Pombal', 'amenity': 'pharmacy', 'name': 'Farmácia Dias e Brito'}}"
"{'type': 'node', 'id': 1159228836, 'lat': 38.7718228, 'lon': -9.2518025, 'tags': {'addr:housenumber': '120B', 'addr:street': 'Estrada das Águas Livres', 'amenity': 'pharmacy', 'name': 'Farmácia de Carenque'}}"
"{'type': 'node', 'id': 1159701050, 'lat': 38.788384, 'lon': -9.176959, 'tags': {'addr:city': 'Odivelas', 'addr:street': 'Alameda do Infante Dom Henrique', 'amenity': 'pharmacy', 'check_date': '2023-01-09', 'dispensing': 'yes', 'drive_through': 'no', 'healthcare': 'pharmacy', 'name': 'Farmácia Central de Odivelas', 'payment:debit_cards': 'yes'}}"
"{'type': 'node', 'id': 1161506293, 'lat': 38.7651265, 'lon': -9.2304764, 'tags': {'addr:housenumber': '32B', 'addr:postcode': '2700', 'addr:street': 'Estrada da Serra da Mira', 'amenity': 'pharmacy', 'name': 'Farmácia Nunes'}}"
"{'type': 'node', 'id': 1161506298, 'lat': 38.7674835, 'lon': -9.2299986, 'tags': {'addr:housenumber': '12A', 'addr:street': 'Rua Comandante Ramiro Correia', 'amenity': 'pharmacy', 'name': 'Farmácia Romeiro'}}"
"{'type': 'node', 'id': 1161506303, 'lat': 38.7683785, 'lon': -9.2237459, 'tags': {'addr:city': 'Encosta do Sol', 'addr:housenumber': 'N.º 28A', 'addr:postcode': '2650-224', 'addr:street': 'Rua Joaquim Tim Tim Sitima', 'amenity': 'pharmacy', 'healthcare': 'pharmacy', 'name': 'Farmácia Alto da Brandoa'}}"
"{'type': 'node', 'id': 1161524699, 'lat': 38.7664795, 'lon': -9.213382, 'tags': {'addr:city': 'Encosta do Sol', 'addr:housenumber': '2A', 'addr:postcode': '2650-143', 'addr:street': 'Largo 1 de Maio', 'amenity': 'pharmacy', 'healthcare': 'pharmacy', 'name': 'Farmácia Brito'}}"
"{'type': 'node', 'id': 1161524705, 'lat': 38.768389, 'lon': -9.2193989, 'tags': {'addr:housenumber': 'LOTE 308 LOJA DTA', 'addr:postcode': '2700', 'addr:street': 'Rua Irene Lisboa', 'amenity': 'pharmacy', 'name': 'Farmácia Tavares de Matos e Neca', 'official_name': 'Farmácia Tavares de Matos e Neca, Lda.', 'opening_hours': 'Mo-Fr 09:00-13:00,14:00-20:00; Sa 09:00-13:00'}}"
"{'type': 'node', 'id': 1161543643, 'lat': 38.7490274, 'lon': -9.2261285, 'tags': {'addr:housenumber': '9', 'addr:postcode': '2720-354', 'addr:street': 'Avenida dos Cravos Vermelhos', 'amenity': 'pharmacy', 'healthcare': 'pharmacy', 'name': 'Farmácia Solla'}}"
"{'type': 'node', 'id': 1161543649, 'lat': 38.7499771, 'lon': -9.2225156, 'tags': {'addr:housenumber': 'LOTE 7 LJ 3 B', 'addr:postcode': '2700', 'addr:street': 'Avenida Manuel Alpedrinha', 'amenity': 'pharmacy', 'healthcare': 'pharmacy', 'name': 'Farmácia Heleno'}}"
"{'type': 'node', 'id': 1161560794, 'lat': 38.7433981, 'lon': -9.2188169, 'tags': {'addr:housenumber': '51 B', 'addr:postcode': '2700', 'addr:street': 'Avenida Padre Bartolomeu de Gusmão', 'amenity': 'pharmacy', 'name': 'Farmácia Dom João V', 'opening_hours': 'Mo-Fr 09:00-13:00,14:00-20:00; Sa 09:00-13:00; Su off'}}"
"{'type': 'node', 'id': 1161599622, 'lat': 38.7579686, 'lon': -9.2470757, 'tags': {'addr:city': 'Amadora', 'addr:housenumber': '9B', 'addr:postcode': '2700-248', 'addr:street': 'Praça D. João', 'amenity': 'pharmacy', 'healthcare': 'pharmacy', 'name': 'Farmácia Melo', 'website': 'http://www.farmaciamelo.com.pt/'}}"
"{'type': 'node', 'id': 1161626709, 'lat': 38.7571056, 'lon': -9.2397191, 'tags': {'addr:city': 'Amadora', 'addr:housenumber': '22-A', 'addr:postcode': '2700', 'addr:street': 'Praça da Igreja', 'amenity': 'pharmacy', 'name': 'Farmácia da Igreja', 'wheelchair': 'yes'}}"
"{'type': 'node', 'id': 1161626721, 'lat': 38.7591015, 'lon': -9.2418534, 'tags': {'addr:city': 'Amadora', 'addr:housenumber': '15A', 'addr:postcode': '2700-253', 'addr:street': 'Avenida Dom Nuno Álvares Pereira', 'amenity': 'pharmacy', 'healthcare': 'pharmacy', 'name': 'Farmácia Confiança', 'phone': '214938149'}}"
"{'type': 'node', 'id': 1161626727, 'lat': 38.7598903, 'lon': -9.2389847, 'tags': {'addr:housenumber': '372 C', 'addr:postcode': '2700', 'addr:street': 'Rua Elias Garcia', 'amenity': 'pharmacy', 'name': 'Farmácia Helenica'}}"
"{'type': 'node', 'id': 1161651929, 'lat': 38.7580071, 'lon': -9.2350038, 'tags': {'addr:housenumber': '187', 'addr:postcode': '2700', 'addr:street': 'Rua Elias Garcia', 'amenity': 'pharmacy', 'name': 'Farmácia Campos', 'phone': '+351 214 987 900'}}"
"{'type': 'node', 'id': 1161651958, 'lat': 38.7582665, 'lon': -9.2366131, 'tags': {'addr:housenumber': 'N.º 221 R/C A', 'addr:postcode': '2700', 'addr:street': 'Rua Elias Garcia', 'amenity': 'pharmacy', 'name': 'Farmácia Cavaca', 'phone': '+351 214 915 962'}}"
"{'type': 'node', 'id': 1161656887, 'lat': 38.7580469, 'lon': -9.228116, 'tags': {'addr:housenumber': '123 A', 'addr:postcode': '2700', 'addr:street': 'Rua Elias Garcia', 'amenity': 'pharmacy', 'name': 'Farmácia Carmele'}}"
"{'type': 'node', 'id': 1161702708, 'lat': 38.7791958, 'lon': -9.2354115, 'tags': {'addr:housenumber': '3-A', 'addr:postcode': '2700', 'addr:street': 'Avenida Doutor Armando Romão', 'amenity': 'pharmacy', 'name': 'São Damião'}}"
"{'type': 'node', 'id': 1161702720, 'lat': 38.7538198, 'lon': -9.2102766, 'tags': {'addr:housenumber': '10 G', 'addr:postcode': '2700', 'addr:street': 'Rua Elias Garcia', 'amenity': 'pharmacy', 'name': 'Farmácia Nova'}}"
"{'type': 'node', 'id': 1161702729, 'lat': 38.7789699, 'lon': -9.2325013, 'tags': {'addr:housenumber': '16-A', 'addr:postcode': '2700', 'addr:street': 'Avenida Doutor Fernando Piteira Santos', 'amenity': 'pharmacy', 'name': 'Soares Correia'}}"
"{'type': 'node', 'id': 1161702734, 'lat': 38.7544792, 'lon': -9.2141743, 'tags': {'addr:housenumber': '17-C', 'addr:postcode': '2700', 'addr:street': 'Rua Elias Garcia', 'amenity': 'pharmacy', 'name': 'Farmácia Girassol'}}"
"{'type': 'node', 'id': 1161702738, 'lat': 38.7612344, 'lon': -9.2041585, 'tags': {'addr:housenumber': '3B', 'addr:postcode': '2700', 'addr:street': 'Rua Damião de Góis', 'amenity': 'pharmacy', 'dispensing': 'yes', 'healthcare': 'pharmacy', 'name': 'Vidal Reis'}}"
"{'type': 'node', 'id': 1161702744, 'lat': 38.7823405, 'lon': -9.2228885, 'tags': {'addr:housenumber': '7A', 'addr:postcode': '2700', 'addr:street': 'Rua Ramiro Martins', 'amenity': 'pharmacy', 'name': 'Casal da Mira'}}"
"{'type': 'node', 'id': 1161702751, 'lat': 38.7534684, 'lon': -9.2135465, 'tags': {'addr:city': 'Venda Nova', 'addr:postcode': '2700-220', 'addr:street': 'Av. Câmara Pestana', 'amenity': 'clinic', 'name': 'Centro de Saúde da Venda Nova - Centro Diagnóstico Pneumológico'}}"
"{'type': 'node', 'id': 1161702764, 'lat': 38.7628009, 'lon': -9.2058778, 'tags': {'addr:city': 'Alfornelos', 'addr:housenumber': '5B', 'addr:postcode': '2700', 'addr:street': 'Avenida Ruy Luís Gomes', 'amenity': 'pharmacy', 'dispensing': 'yes', 'healthcare': 'pharmacy', 'name': 'Farmácia Correia', 'opening_hours': 'Mo-Fr 09:00-20:00; Sa 09:00-13:00'}}"
"{'type': 'node', 'id': 1161702766, 'lat': 38.7572897, 'lon': -9.22306, 'tags': {'addr:housenumber': '86 R/C ESQ', 'addr:postcode': '2700', 'addr:street': 'Rua Elias Garcia', 'amenity': 'pharmacy', 'name': 'Farmácia Flama'}}"
"{'type': 'node', 'id': 1161702770, 'lat': 38.7492953, 'lon': -9.2126772, 'tags': {'addr:housenumber': '21-A', 'addr:postcode': '2700', 'addr:street': 'Rua de Goa', 'amenity': 'pharmacy', 'name': 'Farmácia Lemos'}}"
"{'type': 'node', 'id': 1161935387, 'lat': 38.7421471, 'lon': -9.2087157, 'tags': {'addr:housenumber': '5; 5A', 'addr:postcode': '2700', 'addr:street': 'Praceta Fernando Pessoa', 'amenity': 'pharmacy', 'name': 'Farmácia Vaz Martins'}}"
"{'type': 'node', 'id': 1161935392, 'lat': 38.7384253, 'lon': -9.2107014, 'tags': {'addr:housenumber': '76 A', 'addr:postcode': '2700', 'addr:street': 'Estrada do Zambujal', 'amenity': 'pharmacy', 'name': 'Gaspar Pote'}}"
"{'type': 'node', 'id': 1162163805, 'lat': 38.764264, 'lon': -9.2133099, 'tags': {'addr:street': 'Largo 1º de Maio. Brandoa', 'amenity': 'clinic', 'name': 'Cruz Vermelha Portuguesa - Amadora'}}"
"{'type': 'node', 'id': 1166384236, 'lat': 38.787408, 'lon': -9.3220594, 'tags': {'amenity': 'pharmacy'}}"
"{'type': 'node', 'id': 1166384261, 'lat': 38.7859788, 'lon': -9.3143464, 'tags': {'addr:housename': 'Avenida de Fitares', 'addr:street': 'Avenida de Fitares', 'amenity': 'pharmacy', 'name': 'Farmácia de Fitares'}}"
"{'type': 'node', 'id': 1180403534, 'lat': 38.7546157, 'lon': -9.139938, 'tags': {'addr:city': 'Lisboa', 'addr:housenumber': '6C', 'addr:postcode': '1700-230', 'addr:street': 'Avenida da Igreja', 'contact:email': 'farmacialibia@gmail.com', 'contact:phone': '+351 218492359', 'contact:website': 'http://farmacialibia.pt/pt', 'dispensing': 'yes', 'healthcare': 'pharmacy', 'name': 'Carcassone', 'opening_hours': 'Mo-Su 06:30-19:30', 'shop': 'pastry', 'wheelchair': 'limited'}}"
"{'type': 'node', 'id': 1180403540, 'lat': 38.7536355, 'lon': -9.14183, 'tags': {'addr:city': 'Lisboa', 'addr:housenumber': '21 C', 'addr:postcode': '1700-231', 'addr:street': 'Avenida da Igreja', 'amenity': 'pharmacy', 'contact:email': 'cartaxo.lsb@farmalink.pt', 'dispensing': 'yes', 'healthcare': 'pharmacy', 'name': 'Farmácia Cartaxo', 'opening_hours': 'Mo-Fr 08:00-21:00; Sa 09:00-21:00; Su 09:00-20:00', 'phone': '218497958', 'website': 'https://www.bairrodasaude.pt/', 'wheelchair': 'yes'}}"
"{'type': 'node', 'id': 1180403544, 'lat': 38.7531651, 'lon': -9.1432623, 'tags': {'addr:city': 'Lisboa', 'addr:housenumber': '31C', 'addr:postcode': '1700-232', 'addr:street': 'Avenida da Igreja', 'amenity': 'pharmacy', 'contact:email': 'f.sanex@gmail.com', 'contact:phone': '+351 218 497 505', 'healthcare': 'pharmacy', 'name': 'Farmácia Sanex', 'opening_hours': 'Mo-Fr 09:00-21:00; PH,Sa,Su 09:00-20:00', 'wheelchair': 'yes'}}"
"{'type': 'node', 'id': 1180403546, 'lat': 38.7579006, 'lon': -9.1404695, 'tags': {'addr:housenumber': '66 A', 'addr:postcode': '1700-338 São João de Brito', 'addr:street': 'Avenida Rio de Janeiro', 'amenity': 'pharmacy', 'contact:email': 'fprogressoalvalade@gmail.com', 'contact:phone': '+351 218 482 368', 'contact:website': 'http://www.grupoprogressosaude.net/farmcia-brislia', 'dispensing': 'yes', 'healthcare': 'pharmacy', 'name': 'Farmácia Brisália', 'wheelchair': 'no'}}"
"{'type': 'node', 'id': 1180411833, 'lat': 38.7457211, 'lon': -9.1446818, 'tags': {'amenity': 'clinic', 'healthcare': 'clinic'}}"
"{'type': 'node', 'id': 1180426259, 'lat': 38.7223569, 'lon': -9.1520478, 'tags': {'addr:city': 'Lisboa', 'addr:housenumber': '52 C', 'addr:postcode': '1250-051 São Mamede', 'addr:street': 'Rua Braamcamp', 'amenity': 'pharmacy', 'contact:email': 'braamcamp@iol.pt', 'contact:phone': '+351 213 863 409', 'contact:website': 'http://farmaciabraamcamp.pt/', 'dispensing': 'yes', 'drive_through': 'no', 'healthcare': 'pharmacy', 'name': 'Farmácia Braamcamp', 'opening_hours': '08:30-20:30'}}"
"{'type': 'node', 'id': 1180443566, 'lat': 38.7133219, 'lon': -9.1397524, 'tags': {'addr:housenumber': '31', 'addr:postcode': '1100-200 Santa Justa', 'addr:street': 'Praça Dom Pedro IV', 'amenity': 'pharmacy', 'check_date': '2024-05-01', 'dispensing': 'yes', 'name': 'Farmácia Azevedos', 'official_name': 'Farmácia Azevedo & Filhos'}}"
"{'type': 'node', 'id': 1180443567, 'lat': 38.7151451, 'lon': -9.1417778, 'tags': {'addr:city': 'Lisboa', 'addr:country': 'PT', 'addr:housenumber': '60-63', 'addr:postcode': '1100-200', 'addr:street': 'Praça Dom Pedro IV', 'amenity': 'pharmacy', 'check_date': '2024-05-01', 'contact:email': 'farmacia.estacio.rossio@gmail.com', 'contact:website': 'https://www.facebook.com/Farmacia-Estacio-721167104564074', 'name': 'Farmácia Estácio', 'opening_hours': 'Mo-Fr 08:30-20:00;Sa-Su 10:00-19:00', 'phone': '+351 213 211 390;+351 913 619 683'}}"
"{'type': 'node', 'id': 1180446284, 'lat': 38.7160941, 'lon': -9.1402807, 'tags': {'addr:city': 'Lisboa', 'addr:housenumber': '70;72', 'addr:postcode': '1150-268', 'addr:street': 'Rua das Portas de Santo Antão', 'amenity': 'pharmacy', 'contact:email': 'farmaciafrazao@hotmail.com', 'contact:phone': '+351 213 428 180', 'contact:website': 'www.farmaciafrazao.pt', 'healthcare': 'pharmacy', 'name': 'Farmácia Frazão', 'opening_hours': 'Mo-Su 09:00-21:00'}}"
"{'type': 'node', 'id': 1180862331, 'lat': 38.7118602, 'lon': -9.1389104, 'tags': {'addr:housenumber': '228-230', 'addr:street': 'Rua Áurea', 'amenity': 'pharmacy', 'contact:email': 'info@farmaciainternacional.pt', 'contact:phone': '+351 213 241 360', 'contact:website': 'www.farmaciainternacional.pt', 'dispensing': 'yes', 'name': 'Farmácia Internacional'}}"
"{'type': 'node', 'id': 1180862354, 'lat': 38.7107156, 'lon': -9.1384472, 'tags': {'addr:city': 'Lisboa', 'addr:housenumber': '154;156', 'addr:street': 'Rua Áurea', 'amenity': 'pharmacy', 'contact:phone': '+351 213 424 816', 'dispensing': 'yes', 'drive_through': 'no', 'healthcare': 'pharmacy', 'name': 'Farmácia Teixeira Lopes', 'official_name': 'Farmácia Teixeira Lopes, Lda.'}}"
"{'type': 'node', 'id': 1180862356, 'lat': 38.7119943, 'lon': -9.1382901, 'tags': {'addr:housenumber': '225', 'addr:postcode': '1100-051 São Nicolau', 'addr:street': 'Rua Augusta', 'amenity': 'pharmacy', 'check_date': '2024-05-01', 'contact:email': 'farmaciabarral@gmail.com', 'contact:phone': '+351 213 476 141', 'contact:website': 'http://www.farmaciabarral.com/farmacia-barral/', 'name': 'Farmácia Barral', 'opening_hours': 'Mo-Fr 08:00-21:00; Sa,Su 09:00-21:00'}}"
"{'type': 'node', 'id': 1180869728, 'lat': 38.7127967, 'lon': -9.1369916, 'tags': {'addr:housenumber': '8', 'addr:postcode': '1100-485 São Nicolau', 'addr:street': 'Rua de Santa Justa', 'amenity': 'pharmacy', 'contact:email': 'homeopatica.santajusta@gmail.com', 'contact:fax': '+351 218 855 334', 'contact:phone': '+351 218 855 333', 'contact:website': 'www.farmaciasantajusta.com', 'healthcare': 'pharmacy', 'name': 'Farmácia Homeopática de Santa Justa', 'opening_hours': 'Mo-Su 09:00-19:00'}}"
"{'type': 'node', 'id': 1180883954, 'lat': 38.7474585, 'lon': -9.1412398, 'tags': {'addr:housenumber': '53 D', 'addr:postcode': '1700-342 Alvalade', 'addr:street': 'Avenida de Roma', 'amenity': 'pharmacy', 'contact:email': 'farmacia.belo@gmail.com', 'contact:phone': '+351 217 976 314', 'contact:website': 'https://www.facebook.com/farmaciabelo', 'name': 'Farmácia Belo'}}"
"{'type': 'node', 'id': 1212282889, 'lat': 38.948133, 'lon': -9.1999177, 'tags': {'addr:housenumber': '15', 'addr:street': 'Largo de São Miguel', 'amenity': 'pharmacy', 'fixme': 'location is not exact. please correct', 'name': 'Farmácia Afonso de Medeiros'}}"
"{'type': 'node', 'id': 1212316941, 'lat': 38.9636676, 'lon': -9.3570629, 'tags': {'addr:postcode': '2640-578 Mafra', 'addr:street': 'Estrada Nacional 116', 'amenity': 'pharmacy', 'name': 'Farmácia Costa Maximiano', 'source': 'http://portalnacional.com.pt/farmacia/farmacia-costa-maximiano-22730/'}}"
"{'type': 'node', 'id': 1212336867, 'lat': 38.9371556, 'lon': -9.3292056, 'tags': {'addr:housenumber': '19', 'addr:postcode': '2640-495 Mafra', 'addr:street': 'Rua José Elias Garcia', 'amenity': 'pharmacy', 'fixme': 'location may not be exact. please correct', 'healthcare': 'pharmacy', 'name': 'Farmácia Medeiros', 'source': 'http://portalnacional.com.pt/farmacia/farmacia-medeiros-4090/'}}"
"{'type': 'node', 'id': 1212336872, 'lat': 38.9717213, 'lon': -9.2572472, 'tags': {'addr:housenumber': '53', 'addr:postcode': '2665-419 Vila Franca do Rosário', 'addr:street': 'Estrada Nacional 8', 'amenity': 'pharmacy', 'fixme': 'location is not exact. please correct', 'name': 'Farmácia Falcão', 'source': 'http://portalnacional.com.pt/farmacia/farmacia-falcao-13846/'}}"
"{'type': 'node', 'id': 1212336874, 'lat': 39.0064124, 'lon': -9.2906407, 'tags': {'addr:postcode': '2665-015 Azueira', 'amenity': 'pharmacy', 'fixme': 'location may not be exact. please correct', 'name': 'Farmácia Marques', 'source': 'http://portalnacional.com.pt/farmacia/farmacia-marques-3352/'}}"
"{'type': 'node', 'id': 1212336885, 'lat': 38.9300368, 'lon': -9.2572365, 'tags': {'addr:housenumber': '12 A', 'addr:postcode': '2665-236 Malveira', 'addr:street': 'Avenida José Batista Antunes', 'amenity': 'pharmacy', 'healthcare': 'pharmacy', 'name': 'Farmácia Ferreira', 'source': 'http://portalnacional.com.pt/farmacia/farmacia-ferreira-795/'}}"
"{'type': 'node', 'id': 1212336889, 'lat': 38.9371874, 'lon': -9.3285319, 'tags': {'addr:housenumber': '21', 'addr:postcode': '2640-525 Mafra', 'addr:street': 'Praça República', 'amenity': 'pharmacy', 'name': 'Farmácia Rolim', 'source': 'http://portalnacional.com.pt/farmacia/farmacia-rolim-19089/'}}"
"{'type': 'node', 'id': 1212349849, 'lat': 38.9250483, 'lon': -9.2327607, 'tags': {'addr:housenumber': '2-A', 'addr:postcode': '2665-527', 'addr:street': 'Rua Padre Alfredo F. Brito', 'amenity': 'pharmacy', 'healthcare': 'pharmacy', 'name': 'Farmácia Nogueira', 'recycling:drugs': 'yes', 'source': 'http://portalnacional.com.pt/farmacia/farmacia-nogueira-11355/'}}"
"{'type': 'node', 'id': 1212423115, 'lat': 39.1516938, 'lon': -9.2982393, 'tags': {'addr:housenumber': '2-A', 'addr:postcode': '2560-003 A dos Cunhados', 'addr:street': 'Largo da Cruz', 'amenity': 'pharmacy', 'fixme': 'location may not be exact. please correct', 'name': 'Farmácia Campos Gomes', 'source': 'http://portalnacional.com.pt/farmacia/farmacia-campos-gomes-11584/'}}"
"{'type': 'node', 'id': 1212489522, 'lat': 39.1978529, 'lon': -9.2365067, 'tags': {'addr:housenumber': '21', 'addr:postcode': '2565-028 Campelos', 'addr:street': 'Rua Augusto Ferreira Lopes', 'amenity': 'pharmacy', 'fixme': 'location may not be exact. please correct', 'name': 'Farmácia Campelos', 'source': 'http://portalnacional.com.pt/farmacia/farmacia-campelos-25755/'}}"
"{'type': 'node', 'id': 1212489532, 'lat': 39.0382967, 'lon': -9.1828081, 'tags': {'addr:housenumber': '63', 'addr:postcode': '2565-206 Dois Portos', 'addr:street': 'Avenida 25 de Abril', 'amenity': 'pharmacy', 'fixme': 'location may not be exact. please correct', 'name': 'Farmácia Dois Portos', 'source': 'http://portalnacional.com.pt/farmacia/farmacia-dois-portos-23477/'}}"
"{'type': 'node', 'id': 1212489536, 'lat': 39.0280543, 'lon': -9.3180384, 'tags': {'addr:housenumber': '12', 'addr:postcode': '2565-281 Freiria', 'addr:street': 'Rua das Lameiras', 'amenity': 'pharmacy', 'name': 'Farmácia Vitória', 'source': 'http://portalnacional.com.pt/farmacia/farmacia-vitoria-34967/'}}"
"{'type': 'node', 'id': 1212519016, 'lat': 39.0920241, 'lon': -9.2117998, 'tags': {'addr:housenumber': '13-A', 'addr:postcode': '2565-385 Matacães', 'addr:street': 'Rua D. Vasco Martinho Sequeira', 'amenity': 'pharmacy', 'fixme': 'location may not be exact. please correct', 'name': 'Farmácia Rocha Dias', 'source': 'http://portalnacional.com.pt/farmacia/farmacia-rocha-dias-24228/', 'wheelchair': 'limited'}}"
"{'type': 'node', 'id': 1212519032, 'lat': 39.1921856, 'lon': -9.1806433, 'tags': {'addr:postcode': '2565-591 Outeiro da Cabeça', 'addr:street': 'Rua B', 'amenity': 'pharmacy', 'fixme': 'location may not be exact. please correct', 'name': 'Farmácia Venâncio Costa', 'source': 'http://portalnacional.com.pt/farmacia/farmacia-venancio-costa-23850/', 'wheelchair': 'no'}}"
"{'type': 'node', 'id': 1212524904, 'lat': 39.1456258, 'lon': -9.2328179, 'tags': {'addr:housenumber': '16', 'addr:postcode': '2565-668 Ramalhal', 'addr:street': 'Rua Francisco Manuel Santos', 'amenity': 'pharmacy', 'fixme': 'location may not be exact. please correct', 'healthcare': 'pharmacy', 'name': 'Farmácia Edite Rosa', 'source': 'http://portalnacional.com.pt/farmacia/farmacia-edite-rosa-24570/', 'wheelchair': 'limited'}}"
"{'type': 'node', 'id': 1212524906, 'lat': 39.0907246, 'lon': -9.3217276, 'tags': {'addr:housenumber': '8', 'addr:postcode': '2560-712 Ponte do Rol', 'addr:street': 'Largo do Salão Paroquial', 'amenity': 'pharmacy', 'healthcare': 'pharmacy', 'name': 'Farmácia Santo António', 'source': 'http://portalnacional.com.pt/farmacia/farmacia-santo-antonio-21164/'}}"
"{'type': 'node', 'id': 1212544357, 'lat': 39.0947234, 'lon': -9.2581161, 'tags': {'addr:city': 'Torres Vedras', 'addr:housenumber': '1 A/B/C', 'addr:postcode': '2560-331', 'addr:street': 'Rua Dr. Gomes Leal', 'amenity': 'pharmacy', 'fixme': 'location may not be exact. please correct', 'healthcare': 'pharmacy', 'name': 'Farmácia Calquinha', 'source': 'http://portalnacional.com.pt/farmacia/farmacia-calquinha-24511/', 'wheelchair': 'yes'}}"
"{'type': 'node', 'id': 1212544363, 'lat': 39.0637068, 'lon': -9.2094771, 'tags': {'addr:housenumber': '24', 'addr:postcode': '2565-737 Runa', 'addr:street': 'Rua da Liberdade', 'amenity': 'pharmacy', 'fixme': 'location may not be exact. please correct', 'name': 'Farmácia Boavida', 'source': 'http://portalnacional.com.pt/farmacia/farmacia-boavida-15466/'}}"
"{'type': 'node', 'id': 1212544374, 'lat': 39.0854654, 'lon': -9.2603534, 'tags': {'addr:city': 'Torres Vedras', 'addr:housenumber': '5 - Loja 21', 'addr:postcode': '2560-306', 'addr:street': 'Rua Ana Maria Bastos', 'amenity': 'pharmacy', 'healthcare': 'pharmacy', 'name': 'Farmácia Quintela', 'source': 'http://portalnacional.com.pt/farmacia/farmacia-quintela-16713/', 'wheelchair': 'yes'}}"
"{'type': 'node', 'id': 1212544403, 'lat': 39.0878743, 'lon': -9.2554093, 'tags': {'addr:city': 'Torres Vedras', 'addr:housenumber': '5', 'addr:postcode': '2560-272', 'addr:street': 'Avenida General Humberto Delgado', 'amenity': 'pharmacy', 'healthcare': 'pharmacy', 'name': 'Farmácia Garcia Alves', 'source': 'http://portalnacional.com.pt/farmacia/farmacia-garcia-alves-24767/;GPS', 'wheelchair': 'limited'}}"
"{'type': 'node', 'id': 1212571636, 'lat': 39.0806532, 'lon': -9.2584329, 'tags': {'addr:city': 'Torres Vedras', 'addr:housenumber': '2 A e B', 'addr:postcode': '2560-253', 'addr:street': 'Rua Amadeu Rodrigues Ferreira Matias', 'amenity': 'pharmacy', 'name': 'Farmácia Garção', 'opening_hours': 'Mo-Fr 09:00-21:00; Sa 09:00-19:00', 'source': 'http://portalnacional.com.pt/farmacia/farmacia-garcao-22128/', 'wheelchair': 'yes'}}"
"{'type': 'node', 'id': 1212571639, 'lat': 39.1075609, 'lon': -9.2646179, 'tags': {'addr:city': 'Torres Vedras', 'addr:housenumber': '14, Loja 2', 'addr:postcode': '2560-373', 'addr:street': 'Rua Augusto Bastos Troni', 'amenity': 'pharmacy', 'fixme': 'location may not be exact. please correct', 'healthcare': 'pharmacy', 'name': 'Farmácia Espadanal', 'source': 'http://portalnacional.com.pt/farmacia/farmacia-espadanal-760/', 'wheelchair': 'no'}}"
"{'type': 'node', 'id': 1212571640, 'lat': 39.0889244, 'lon': -9.2580209, 'tags': {'addr:city': 'Torres Vedras', 'addr:housenumber': '17', 'addr:postcode': '2560-362', 'addr:street': 'Rua Santos Bernardes', 'amenity': 'pharmacy', 'healthcare': 'pharmacy', 'name': 'Farmácia Santa Cruz', 'source': 'http://portalnacional.com.pt/farmacia/farmacia-santa-cruz-16683/', 'wheelchair': 'limited'}}"
"{'type': 'node', 'id': 1212571641, 'lat': 39.0914878, 'lon': -9.2591526, 'tags': {'addr:city': 'Torres Vedras', 'addr:housenumber': '1A', 'addr:postcode': '2560-363', 'addr:street': 'Rua Serpa Pinto', 'amenity': 'pharmacy', 'fixme': 'location may not be exact. please correct', 'healthcare': 'pharmacy', 'name': 'Farmácia São Gonçalo', 'source': 'http://portalnacional.com.pt/farmacia/farmacia-perdigao-3409/', 'wheelchair': 'limited'}}"
"{'type': 'node', 'id': 1212571648, 'lat': 39.0913208, 'lon': -9.2581876, 'tags': {'addr:city': 'Torres Vedras', 'addr:housenumber': '32D', 'addr:postcode': '2560-270', 'addr:street': 'Avenida 5 de Outubro', 'amenity': 'pharmacy', 'check_date': '2022-11-11', 'dispensing': 'yes', 'healthcare': 'pharmacy', 'name': 'Farmácia Torreense', 'opening_hours': 'Mo-Fr 08:30-20:00; Sa 09:00-13:00', 'source': 'http://portalnacional.com.pt/farmacia/farmacia-torreense-10987/', 'wheelchair': 'yes'}}"
"{'type': 'node', 'id': 1212576595, 'lat': 39.0670222, 'lon': -9.3095074, 'tags': {'addr:housenumber': '26', 'addr:postcode': '2565-842 Ventosa', 'addr:street': 'Avenida Padre Manuel Antunes,', 'amenity': 'pharmacy', 'fixme': 'location may not be exact. please correct', 'name': 'Farmácia Januário', 'source': 'http://portalnacional.com.pt/farmacia/farmacia-januario-21253/'}}"
"{'type': 'node', 'id': 1212576602, 'lat': 39.0428778, 'lon': -9.266721, 'tags': {'addr:housenumber': '158 R/C', 'addr:postcode': '2565-814 Turcifal', 'addr:street': 'Rua Rogério de Figueiroa Rego', 'amenity': 'pharmacy', 'fixme': 'location may not be exact. please correct', 'name': 'Farmácia Turcifalense', 'source': 'http://portalnacional.com.pt/farmacia/farmacia-turcifalense-11215/'}}"
"{'type': 'node', 'id': 1212599440, 'lat': 38.7213195, 'lon': -9.0039173, 'tags': {'addr:housenumber': '19', 'addr:postcode': '2890-214 Samouco', 'addr:street': 'Rua 1º de Dezembro', 'amenity': 'pharmacy', 'dispensing': 'no', 'name': 'Farmácia Póvoas'}}"
"{'type': 'node', 'id': 1212599445, 'lat': 38.7549785, 'lon': -8.9618729, 'tags': {'addr:housenumber': '10-12', 'addr:postcode': '2890-023 Alcochete', 'addr:street': 'Largo Coronel Ramos Costa', 'amenity': 'pharmacy', 'dispensing': 'no', 'healthcare': 'pharmacy', 'name': 'Farmácia Nunes'}}"
"{'type': 'node', 'id': 1212628289, 'lat': 38.7067596, 'lon': -9.1429467, 'tags': {'addr:city': 'Lisboa', 'addr:country': 'PT', 'addr:housenumber': '43', 'addr:postcode': '1200-052', 'addr:street': 'Rua Bernardino Costa', 'amenity': 'pharmacy', 'dispensing': 'no', 'healthcare': 'pharmacy', 'name': 'Farmácia Africana'}}"
"{'type': 'node', 'id': 1212628299, 'lat': 38.7087854, 'lon': -9.150833, 'tags': {'addr:housenumber': '2', 'addr:postcode': '1200-118 São Paulo', 'addr:street': 'Largo do Conde Barão', 'amenity': 'pharmacy', 'check_date': '2024-10-31', 'contact:email': 'acoreanafarmacia@gmail.com', 'contact:phone': '+351 213 961 330', 'contact:website': 'https://www.facebook.com/acoreanafarmacia', 'dispensing': 'no', 'healthcare': 'pharmacy', 'name': 'Farmácia Açoreana'}}"
"{'type': 'node', 'id': 1212628304, 'lat': 38.7117651, 'lon': -9.1645261, 'tags': {'addr:city': 'Lisboa', 'addr:housenumber': '133', 'addr:place': 'Lapa', 'addr:postcode': '1350-290', 'addr:street': 'Rua de Santana à Lapa', 'amenity': 'pharmacy', 'contact:email': 'farmacia.alb@sapo.pt', 'contact:phone': '+ 351 213 963 562', 'dispensing': 'no', 'fixme': 'Number may be 156 instead of 133.', 'name': 'Farmácia Alb'}}"
"{'type': 'node', 'id': 1212628306, 'lat': 38.7340622, 'lon': -9.1311537, 'tags': {'addr:housenumber': '46 B;46 C', 'addr:postcode': '1900-140', 'addr:street': 'Rua Carvalho Araújo', 'amenity': 'pharmacy', 'contact:phone': '+351 218 141 708', 'dispensing': 'yes', 'name': 'Farmácia Alcalis', 'opening_hours': 'Mo-Fr 08:45-13:30,14:30-20:00; Sa 09:00-13:00'}}"
"{'type': 'node', 'id': 1212628307, 'lat': 38.743115, 'lon': -9.1738965, 'tags': {'addr:city': 'Lisboa', 'addr:housenumber': '180', 'addr:postcode': '1500-093 São Domingos de Benfica', 'addr:street': 'Estrada de Benfica', 'addr:unit': 'A e B', 'amenity': 'pharmacy', 'contact:phone': '+351 217 780 511', 'contact:website': 'http://farmaciaalegria.pt/', 'dispensing': 'yes', 'healthcare': 'pharmacy', 'name': 'Farmácia Alegria'}}"
"{'type': 'node', 'id': 1212628308, 'lat': 38.7390419, 'lon': -9.1653119, 'tags': {'addr:housenumber': '98-A', 'addr:postcode': '1070-066 São Domingos de Benfica', 'addr:street': 'Avenida Columbano Bordalo Pinheiro', 'amenity': 'pharmacy', 'contact:email': 'farmacia.aguiar@gmail.com', 'contact:phone': '+351 217 260 934', 'contact:website': 'http://www.farmaciaaguiar.pt', 'dispensing': 'yes', 'name': 'Farmácia Aguiar'}}"
"{'type': 'node', 'id': 1212628309, 'lat': 38.7173543, 'lon': -9.1504082, 'tags': {'addr:housenumber': '57-59', 'addr:postcode': '1250-099 São Mamede', 'addr:street': 'Rua da Escola Politécnica', 'amenity': 'pharmacy', 'contact:email': 'geral@farmaciaalbano.com', 'contact:phone': '+351 213 426 750', 'contact:website': 'www.farmaciaalbano.com', 'dispensing': 'no', 'healthcare': 'pharmacy', 'name': 'Farmácia Albano'}}"
"{'type': 'node', 'id': 1212628311, 'lat': 38.7700931, 'lon': -9.1598777, 'tags': {'addr:city': 'Lumiar', 'addr:housenumber': '201-B', 'addr:postcode': '1750-143', 'addr:street': 'Alameda das Linhas de Torres', 'amenity': 'pharmacy', 'contact:email': 'farmacia.alameda@sapo.pt', 'contact:phone': '+351 217 590 942', 'dispensing': 'yes', 'healthcare': 'pharmacy', 'name': 'Farmácia Alameda', 'wheelchair': 'yes'}}"
"{'type': 'node', 'id': 1212671085, 'lat': 38.742278, 'lon': -9.1383648, 'tags': {'addr:housenumber': '7-B', 'addr:postcode': '1000-260 São João de Deus', 'addr:street': 'Avenida de Roma', 'amenity': 'pharmacy', 'check_date:opening_hours': '2023-01-10', 'contact:email': 'farmacialgarvelisboa@gmail.com', 'contact:phone': '+351 218 401 478', 'contact:website': 'http://farmaciaalgarve.pt/pt', 'dispensing': 'yes', 'healthcare': 'pharmacy', 'name': 'Farmácia Algarve', 'opening_hours': 'Mo-Su 09:00-24:00'}}"
"{'type': 'node', 'id': 1212671086, 'lat': 38.7511308, 'lon': -9.1804861, 'tags': {'addr:housenumber': '15 A;15 B', 'addr:postcode': '1500-714 São Domingos de Benfica', 'addr:street': 'Rua João de Freitas Branco', 'amenity': 'pharmacy', 'contact:email': 'farmaciaaltodosmoinhos@gmail.com', 'contact:phone': '+351 217 264 450', 'contact:website': 'http://www.farmaciaaltodosmoinhos.com/', 'dispensing': 'yes', 'name': 'Farmácia Alto dos Moinhos', 'opening_hours': 'Mo-Sa 08:30-00:00; Su 09:00-22:00'}}"
"{'type': 'node', 'id': 1212671087, 'lat': 38.7573157, 'lon': -9.1221992, 'tags': {'addr:housenumber': 'Lote 248, Loja 92', 'addr:postcode': '1950-172', 'addr:street': 'Rua Luís Cristino da Silva', 'amenity': 'pharmacy', 'contact:email': 'farmacia.almeida.vaz@farmaciasholon.pt', 'contact:phone': '+351 218 595 673', 'contact:website': 'http://www.grupo-holon.pt/', 'dispensing': 'yes', 'healthcare': 'pharmacy', 'name': 'Farmácia Almeida Vaz'}}"
"{'type': 'node', 'id': 1212671088, 'lat': 38.7058201, 'lon': -9.178362, 'tags': {'addr:city': 'Alcântara', 'addr:housenumber': '30-32b', 'addr:postcode': '1300-371', 'addr:street': 'Rua dos Lusiadas', 'amenity': 'pharmacy', 'dispensing': 'yes', 'name': 'Farmácia Alquimista'}}"
"{'type': 'node', 'id': 1212671089, 'lat': 38.7748771, 'lon': -9.1518781, 'tags': {'addr:housenumber': '7-A', 'addr:postcode': '1750-044 Lumiar', 'addr:street': 'Alameda da Música', 'amenity': 'pharmacy', 'contact:phone': '+351 217 568 267', 'contact:website': 'https://www.facebook.com/FarmaciaAltoDoLumiar', 'dispensing': 'yes', 'healthcare': 'pharmacy', 'name': 'Farmácia Alto do Lumiar'}}"
"{'type': 'node', 'id': 1212671091, 'lat': 38.7328055, 'lon': -9.1344762, 'tags': {'addr:city': 'Lisboa', 'addr:country': 'PT', 'addr:door': '145-B;145-C', 'addr:housenumber': '145-B/C', 'addr:postcode': '1150-015', 'addr:street': 'São Jorge de Arroios', 'amenity': 'pharmacy', 'contact:email': 'dlfarmaciaalianca@gmail.com', 'contact:phone': '+351 213 570 487', 'contact:website': 'http://farmaciaalianca.com/pt', 'dispensing': 'yes', 'healthcare': 'pharmacy', 'name': 'Farmácia Aliança', 'opening_hours': 'Mo-Fr 08:30-20:00; Sa 09:00-20:00', 'operator': 'António Silveira Lda.', 'phone': '+351 213 570 487'}}"
"{'type': 'node', 'id': 1212671092, 'lat': 38.7201084, 'lon': -9.1611871, 'tags': {'addr:housenumber': '136', 'addr:postcode': '1250-257 Santa Isabel', 'addr:street': 'Rua Silva Carvalho', 'amenity': 'pharmacy', 'contact:email': 'farmacia-almeida@sapo.pt', 'contact:phone': '+351 213 881 726', 'dispensing': 'no', 'name': 'Farmácia Almeida'}}"
"{'type': 'node', 'id': 1212671093, 'lat': 38.7326614, 'lon': -9.1308159, 'tags': {'addr:city': 'Penha de França', 'addr:housenumber': '91-D', 'addr:postcode': '1900-342 Penha de França', 'addr:street': 'Rua Morais Soares', 'amenity': 'pharmacy', 'contact:email': 'f.alves.da.graça@gmail.com', 'contact:phone': '+351 218 144 350', 'contact:website': 'http://farmacia-lopes-graca.pt/', 'dispensing': 'yes', 'healthcare': 'pharmacy', 'name': 'Farmácia Alves da Graça', 'opening_hours': 'Mo-Fr 09:00-20:00; Sa 09:00-19:00; Su 09:00-13:00,14:00-18:00'}}"
"{'type': 'node', 'id': 1212694258, 'lat': 38.7657048, 'lon': -9.1160613, 'tags': {'addr:city': 'Santa Maria dos Olivais', 'addr:housenumber': 'Lote 199', 'addr:postcode': '1800-100', 'addr:street': 'Praça Cidade do Luso', 'amenity': 'pharmacy', 'contact:phone': '+351 218 513 610', 'dispensing': 'yes', 'healthcare': 'pharmacy', 'name': 'Farmácia Antunes Rosas', 'opening_hours': 'seg-sex 9:00-19:30 sab 9:00-13:00 dom encerrado', 'phone': '+351 218 513 610'}}"
"{'type': 'node', 'id': 1212694260, 'lat': 38.7101361, 'lon': -9.1431919, 'tags': {'addr:city': 'Encarnação', 'addr:housenumber': '125-127', 'addr:postcode': '1200-016', 'addr:street': 'Rua do Alecrim', 'amenity': 'pharmacy', 'contact:email': 'farmaciaandrade.lisboa@gmail.com', 'contact:phone': '+351 213 241 670', 'contact:website': 'http://www.farmaciaandrade.pt', 'dispensing': 'no;yes', 'healthcare': 'pharmacy', 'name': 'Farmácia Andrade', 'opening_hours': 'Mo-Sa 08:00-20:00; Su 08:00-19:00'}}"
"{'type': 'node', 'id': 1212694264, 'lat': 38.7095153, 'lon': -9.1656351, 'tags': {'addr:city': 'Lisboa', 'addr:country': 'PT', 'addr:housenumber': '66-B', 'addr:place': 'Lapa', 'addr:postcode': '1350-180', 'addr:street': 'Avenida Infante Santo', 'amenity': 'pharmacy', 'contact:email': 'farmaciaandraderibeiro@gmail.com', 'contact:phone': '+351 213 966 971', 'dispensing': 'no', 'drive_through': 'no', 'healthcare': 'pharmacy', 'name': 'Farmácia Andrade Ribeiro', 'wheelchair': 'yes'}}"
"{'type': 'node', 'id': 1212694279, 'lat': 38.7422982, 'lon': -9.1480113, 'tags': {'addr:housenumber': '10-A', 'addr:postcode': '1069-216 Nossa Senhora de Fátima', 'addr:street': 'Avenida Júlio Dinis', 'amenity': 'pharmacy', 'contact:email': 'encomendas@farmaciaapolo70.pt', 'contact:phone': '+351 217 993 002', 'contact:website': 'www.farmaciaapolo70.pt', 'dispensing': 'yes', 'healthcare': 'pharmacy', 'name': 'Farmácia Apolo 70'}}"
"{'type': 'node', 'id': 1212694280, 'lat': 38.7126684, 'lon': -9.1573525, 'tags': {'addr:housenumber': '139', 'addr:postcode': '1200-662', 'addr:street': 'Calçada da Estrela', 'amenity': 'pharmacy', 'contact:email': 'farmacia.aurelio.rego@grupo-holon.pt', 'contact:phone': '+351 213 961 758', 'contact:website': 'http://www.grupo-holon.pt/', 'dispensing': 'yes', 'healthcare': 'pharmacy', 'name': 'Farmácia Aurélio Rego'}}"
"{'type': 'node', 'id': 1212694281, 'lat': 38.7293643, 'lon': -9.1344275, 'tags': {'addr:housenumber': '88-B', 'addr:postcode': '1150-021', 'addr:street': 'Avenida Almirante Reis', 'amenity': 'pharmacy', 'contact:email': 'farmacia.atena.lisboa@gmail.com', 'contact:phone': '+351 218 121 773', 'contact:website': 'https://www.facebook.com/farmacia.atena.lisboa/about/', 'dispensing': 'yes', 'name': 'Farmácia Atena', 'opening_hours': 'Mo-Fr 09:00-19:00; Sa 09:00-13:00'}}"
"{'type': 'node', 'id': 1212710134, 'lat': 38.7472392, 'lon': -9.1043226, 'tags': {'addr:housenumber': '79-B', 'addr:postcode': '1950-266', 'addr:street': 'Rua do Vale Formoso de Cima', 'amenity': 'pharmacy', 'contact:email': 'farmaciabg@gmail.com', 'contact:phone': '+351 218 595 180', 'dispensing': 'yes', 'healthcare': 'pharmacy', 'name': 'Farmácia Barros Gouveia', 'opening_hours': 'Sa 09:00-13:00; Mo-Fr 09:00-19:00'}}"
"{'type': 'node', 'id': 1212710155, 'lat': 38.7107208, 'lon': -9.1444387, 'tags': {'addr:postcode': '1200-242 Encarnação', 'amenity': 'pharmacy', 'check_date': '2023-09-21', 'contact:phone': '+351 213 427 284', 'dispensing': 'yes', 'healthcare': 'pharmacy', 'name': 'Farmácia Barreto', 'opening_hours': 'Mo-Sa 09:00-19:30', 'wheelchair': 'no'}}"
"{'type': 'node', 'id': 1212710162, 'lat': 38.748668, 'lon': -9.1162028, 'tags': {'addr:housenumber': 'Lote 12, Loja C', 'addr:postcode': '1950-442', 'addr:street': 'Avenida República da Bulgária', 'amenity': 'pharmacy', 'contact:email': 'farmaciadabelavista@gmail.com', 'contact:phone': '+351 218 682 241', 'contact:website': 'www.farmaciadabelavista.com', 'dispensing': 'no', 'healthcare': 'pharmacy', 'name': 'Farmácia Bela Vista'}}"
"{'type': 'node', 'id': 1212710170, 'lat': 38.7158775, 'lon': -9.13275, 'tags': {'addr:housenumber': '109', 'addr:postcode': '1100-496 Socorro', 'addr:street': 'Calçada Santo André', 'amenity': 'pharmacy', 'dispensing': 'no', 'healthcare': 'pharmacy', 'name': 'Farmácia Bastos de Andrade'}}"
"{'type': 'node', 'id': 1212710173, 'lat': 38.7520155, 'lon': -9.2049195, 'tags': {'addr:housenumber': '678-E', 'addr:postcode': '1500-110', 'addr:street': 'Estrada de Benfica', 'amenity': 'pharmacy', 'contact:phone': '+351 217 602 532', 'dispensing': 'yes', 'name': 'Farmácia Benfica'}}"
"{'type': 'node', 'id': 1213082177, 'lat': 38.7453217, 'lon': -9.1691272, 'tags': {'addr:city': 'Lisboa', 'addr:housenumber': '202', 'addr:postcode': '1600-139', 'addr:street': 'Estrada das Laranjeiras', 'addr:unit': 'B', 'alt_name': 'Farmácia Canto', 'amenity': 'pharmacy', 'contact:email': 'farmacia.canto@gmail.com', 'contact:phone': '+351 217 272 082', 'contact:website': 'https://www.facebook.com/farmaciaseterios', 'dispensing': 'yes', 'drive_through': 'no', 'healthcare': 'pharmacy', 'name': 'Farmácia Sete Rios', 'opening_hours': 'Mo-Fr 08:30-20:30', 'payment:credit_cards': 'yes'}}"
"{'type': 'node', 'id': 1213082179, 'lat': 38.7104927, 'lon': -9.1439195, 'tags': {'addr:housenumber': '22;24', 'addr:postcode': '1200-243 Encarnação', 'addr:street': 'Praça Luís de Camões', 'amenity': 'pharmacy', 'contact:phone': '+351 213 473 589', 'dispensing': 'yes', 'healthcare': 'pharmacy', 'name': 'Farmácia Camões'}}"
"{'type': 'node', 'id': 1213082180, 'lat': 38.7494415, 'lon': -9.1710227, 'tags': {'addr:city': 'Lisboa', 'addr:housenumber': '11', 'addr:postcode': '1600-166 São Domingos de Benfica', 'addr:street': 'Rua Manuel da Silva Leal', 'addr:unit': 'B', 'amenity': 'pharmacy', 'contact:email': 'farmaciabruxellas@sapo.pt', 'contact:phone': '+351 217 210 561', 'contact:website': 'https://www.facebook.com/Farm%C3%A1cia-Bruxellas-1571679853052820/?fref=ts', 'dispensing': 'yes', 'name': 'Farmácia Bruxellas', 'opening_hours': 'Mo-Fr 09:00-20:00, Sa 09:00-13:00'}}"
"{'type': 'node', 'id': 1213082184, 'lat': 38.7386788, 'lon': -9.1542418, 'tags': {'addr:city': 'Lisboa', 'addr:country': 'PT', 'addr:housenumber': '44-A', 'addr:postcode': '1050-042', 'addr:street': 'Avenida de Berna', 'amenity': 'pharmacy', 'contact:phone': '+351 217 973 568', 'dispensing': 'no', 'healthcare': 'pharmacy', 'name': 'Farmácia Berne'}}"
"{'type': 'node', 'id': 1213082185, 'lat': 38.7210746, 'lon': -9.1273668, 'tags': {'addr:housenumber': '87', 'addr:postcode': '1170-339 Graça', 'addr:street': 'Rua dos Sapadores', 'amenity': 'pharmacy', 'contact:email': 'farmacia.branquinho@grupo-holon.pt', 'contact:phone': '+351 218 142 725', 'contact:website': 'http://farmaciasholon.pt', 'dispensing': 'yes', 'name': 'Farmácia Branquinho', 'opening_hours': 'Mo-Fr 09:00-19:00; Sa 09:00-13:00', 'wheelchair': 'limited'}}"
"{'type': 'node', 'id': 1213082186, 'lat': 38.7231586, 'lon': -9.1562854, 'tags': {'addr:housenumber': '5-B', 'addr:postcode': '1250-136', 'addr:street': 'São Mamede', 'amenity': 'pharmacy', 'contact:email': 'farm.britanica@gmail.com', 'contact:phone': '+351 213 866 128', 'contact:website': 'https://www.facebook.com/farmbritanica', 'dispensing': 'no', 'name': 'Farmácia Britânica', 'opening_hours': 'Mo-Fr 08:30-20:00; Sa 09:00-19:00'}}"
"{'type': 'node', 'id': 1213082188, 'lat': 38.7029225, 'lon': -9.1941724, 'tags': {'addr:city': 'Ajuda', 'addr:housenumber': '25', 'addr:postcode': '1300-481', 'addr:street': 'Rua dos Quartéis', 'amenity': 'pharmacy', 'contact:email': 'farmaciaboahora@netcabo.pt', 'contact:phone': '+351 213 617 130', 'contact:website': 'http://farmaciaboahora.pai.pt/', 'dispensing': 'yes', 'healthcare': 'pharmacy', 'name': 'Farmácia Boa-Hora', 'note': 'Director Técnico - Maria Antonieta Filipe Miguel Dias.'}}"
"{'type': 'node', 'id': 1213123611, 'lat': 38.7382585, 'lon': -9.1465992, 'tags': {'addr:city': 'Lisboa', 'addr:housenumber': '28-A;28B', 'addr:postcode': '1050-240', 'addr:street': 'Avenida Visconde Valmor', 'amenity': 'pharmacy', 'dispensing': 'yes', 'healthcare': 'pharmacy', 'name': 'Farmácia Cardote', 'official_name': 'Farmácia Cardote, Lda.'}}"
"{'type': 'node', 'id': 1213123620, 'lat': 38.7352956, 'lon': -9.144706, 'tags': {'addr:housenumber': '32-C;32-D', 'addr:postcode': '1000-141 Nossa Senhora de Fátima', 'addr:street': 'Avenida Duque de Ávila', 'amenity': 'pharmacy', 'contact:email': 'geral@farmaciaduquedeavila.pt', 'contact:phone': '+351 213 543 495', 'dispensing': 'yes', 'healthcare': 'pharmacy', 'name': 'Farmácia Duque de Ávila'}}"
"{'type': 'node', 'id': 1213123621, 'lat': 38.7110559, 'lon': -9.1590109, 'tags': {'addr:housenumber': '10-14', 'addr:postcode': '1200-731', 'addr:street': 'Rua dos Navegantes', 'amenity': 'pharmacy', 'dispensing': 'no', 'name': 'Farmácia Central da Lapa', 'name:de': 'Apotheke Central da Lapa'}}"
"{'type': 'node', 'id': 1213123633, 'lat': 38.7082436, 'lon': -9.1456206, 'tags': {'addr:city': 'Lisboa', 'addr:housenumber': '168', 'addr:street': 'Rua de São Paulo', 'amenity': 'pharmacy', 'contact:phone': '1400', 'dispensing': 'no', 'healthcare': 'pharmacy', 'name': 'Farmácia Central', 'opening_hours': 'Mo-Fr 08:45-19:00; Sa 09:00-13:00', 'operator': 'Farmácia de serviço do concelho de lisboa'}}"
"{'type': 'node', 'id': 1213123662, 'lat': 38.7180911, 'lon': -9.1647404, 'tags': {'addr:city': 'Lisboa', 'addr:housenumber': '28-A', 'addr:postcode': '1350-272 Santo Condestável', 'addr:street': 'Rua 4 de Infantaria', 'amenity': 'pharmacy', 'check_date': '2023-09-09', 'contact:email': 'farmacia.c.fonseca@clix.pt', 'contact:phone': '+351 213 888 857', 'contact:website': 'https://www.facebook.com/farmacia.castrofonseca', 'dispensing': 'yes', 'healthcare': 'pharmacy', 'name': 'Farmácia Castro Fonseca'}}"
"{'type': 'node', 'id': 1213123665, 'lat': 38.7155498, 'lon': -9.1546426, 'tags': {'addr:housenumber': '199-A', 'addr:postcode': '1250-219', 'addr:street': 'Santa Isabel', 'amenity': 'pharmacy', 'check_date': '2024-11-07', 'contact:email': 'anaportugalcruz@netcabo.pt', 'contact:phone': '+351 213 960 513', 'dispensing': 'yes', 'name': 'Farmácia Castro Sucessor', 'opening_hours': 'PH,Mo-Su 00:00-24:00', 'wheelchair': 'limited'}}"
"{'type': 'node', 'id': 1213123685, 'lat': 38.7280974, 'lon': -9.1345879, 'tags': {'addr:housenumber': '76-A', 'addr:postcode': '1150-020 Anjos', 'addr:street': 'Avenida Almirante Reis', 'amenity': 'pharmacy', 'check_date:opening_hours': '2024-10-14', 'contact:email': 'farmacia.castro@netcabo.pt', 'contact:phone': '+351 218 121 973', 'dispensing': 'no', 'name': 'Farmácia Castro', 'opening_hours': 'Mo-Fr 09:00-19:00'}}"
"{'type': 'node', 'id': 1213221679, 'lat': 38.7285453, 'lon': -9.1091671, 'tags': {'addr:city': 'Beato', 'addr:housenumber': '29', 'addr:postcode': '1900-193 Beato', 'addr:street': 'Calçada de Dom Gastão', 'addr:unit': 'B', 'amenity': 'pharmacy', 'check_date:opening_hours': '2024-10-13', 'contact:email': 'farmacia.conceicao@grupo-holon.pt', 'contact:phone': '+351 218 626 060', 'contact:website': 'http://www.grupo-holon.pt', 'dispensing': 'yes', 'healthcare': 'pharmacy', 'name': 'Farmácia Conceição', 'official_name': 'Farmácia Conceição, Lda.', 'opening_hours:signed': 'no'}}"
"{'type': 'node', 'id': 1213221703, 'lat': 38.7611655, 'lon': -9.1649444, 'tags': {'addr:housenumber': 'Loja 5A 5B', 'addr:postcode': '1600-235 Lumiar', 'addr:street': 'Rua Professor Eduardo Araújo Coelho', 'amenity': 'pharmacy', 'contact:email': 'fcentraldetelheiras@sapo.pt', 'contact:phone': '+351 218 872 060', 'contact:website': 'https://www.facebook.com/Farmácia-Central-de-Telheiras-394479794031740', 'dispensing': 'yes', 'healthcare': 'pharmacy', 'name': 'Farmácia Central de Telheiras'}}"
"{'type': 'node', 'id': 1213221706, 'lat': 38.7083551, 'lon': -9.1531403, 'tags': {'addr:housenumber': '36-A', 'addr:postcode': '1200-719 Santos-o-Velho', 'addr:street': 'Calçada Marquês de Abrantes', 'amenity': 'pharmacy', 'contact:email': 'fcondebarao@gmail.com', 'contact:phone': '+351 213 964 238', 'contact:website': 'https://www.facebook.com/Farmácia-Conde-Barão-444644502265689', 'dispensing': 'yes', 'name': 'Farmácia Conde Barão'}}"
"{'type': 'node', 'id': 1213221721, 'lat': 38.7411658, 'lon': -9.1337497, 'tags': {'addr:city': 'Lisboa', 'addr:housenumber': '2A', 'addr:postcode': '1000-228 São João de Deus', 'addr:street': 'Avenida de Paris', 'amenity': 'pharmacy', 'amenity_1': 'healthcare', 'check_date': '2024-05-03', 'contact:email': 'conchaze@pt.com', 'contact:phone': '+351 218 480 820', 'dispensing': 'yes', 'healthcare': 'pharmacy', 'name': 'Farmácia Central do Areeiro', 'opening_hours': 'Mo-Fr 08:30-22:00; Sa-Su 09:00-22:00'}}"
"{'type': 'node', 'id': 1213221722, 'lat': 38.7285324, 'lon': -9.1628712, 'tags': {'addr:city': 'Lisboa', 'addr:housenumber': '17', 'addr:postcode': '1070-137', 'addr:street': 'Rua General Taborda', 'amenity': 'pharmacy', 'contact:email': 'farmacia.campolide@mail.telepac.pt', 'contact:phone': '+351 213 880 304', 'dispensing': 'no', 'name': 'Farmácia Central de Campolide', 'opening_hours': 'Mo-Fr 09:00-19:00; Sa 09:00-13:00', 'wheelchair': 'no'}}"
"{'type': 'node', 'id': 1213221725, 'lat': 38.7171598, 'lon': -9.238227, 'tags': {'addr:housename': 'CC Central Park', 'addr:housenumber': '4, Lj 1.31', 'addr:postcode': '2795-241 Linda-a-Velha', 'addr:street': 'Avenida 25 de Abril de 1974', 'amenity': 'pharmacy', 'dispensing': 'no', 'healthcare': 'pharmacy', 'name': 'Farmácia Central Park'}}"
"{'type': 'node', 'id': 1213221741, 'lat': 38.725015, 'lon': -9.1334455, 'tags': {'addr:city': 'Arroios', 'addr:housenumber': '27', 'addr:postcode': '1170-137 Anjos', 'addr:street': 'Rua Forno do Tijolo', 'addr:unit': 'D', 'amenity': 'pharmacy', 'contact:email': 'farmacia.colonial@grupo-holon.pt', 'contact:phone': '+351 218 141 122', 'contact:website': 'http://www.grupo-holon.pt/pt/public/farmacias', 'dispensing': 'yes', 'healthcare': 'pharmacy', 'name': 'Farmácia Colonial', 'phone': '+351 218 141 122', 'website': 'https://farmaciasdeservico.net/f/6998/Farmacia_Colonial/', 'wheelchair': 'yes'}}"
"{'type': 'node', 'id': 1213293446, 'lat': 38.7338911, 'lon': -9.2049139, 'tags': {'addr:housenumber': 'LJ 1-2', 'addr:postcode': '1500-534', 'addr:street': 'Rua Rainha D. Brites', 'amenity': 'pharmacy', 'dispensing': 'no', 'fixme': 'location may not be exact. please correct', 'name': 'Farmácia da Boavista'}}"
"{'type': 'node', 'id': 1213293468, 'lat': 38.734134, 'lon': -9.144159, 'tags': {'addr:city': 'São Jorge de Arroios', 'addr:housenumber': '14-15', 'addr:postcode': '1050-094', 'addr:street': 'Praça Duque de Saldanha', 'amenity': 'pharmacy', 'contact:email': 'encomendascruznunes@gmail.com', 'contact:phone': '+351 213 141 845', 'contact:website': 'http://farmaciacruznunes.com', 'dispensing': 'no', 'healthcare': 'pharmacy', 'name': 'Farmácia Cruz Nunes'}}"
"{'type': 'node', 'id': 1213293480, 'lat': 38.7253093, 'lon': -9.1348572, 'tags': {'addr:housenumber': '46-A C', 'addr:postcode': '1150-019 Anjos', 'addr:street': 'Avenida Almirante Reis', 'amenity': 'pharmacy', 'contact:email': 'geral@fconfianca.pt', 'contact:fax': '+351 218 166 839', 'contact:phone': '+351 218 121 653;+351 915 701 793', 'contact:website': 'www.fconfianca.pt', 'dispensing': 'yes', 'healthcare': 'pharmacy', 'name': 'Farmácia Confiança', 'opening_hours': 'Mo-Fr 09:00-20:00; Sa 09:00-19:00'}}"
"{'type': 'node', 'id': 1213293493, 'lat': 38.7390627, 'lon': -9.1624095, 'tags': {'addr:city': 'Lisboa', 'addr:country': 'PT', 'addr:housenumber': '15A', 'addr:postcode': '1070-166 São Domingos de Benfica', 'addr:street': 'Avenida Madame Curie', 'amenity': 'pharmacy', 'contact:email': 'farmacia.currie@gmail.com', 'contact:phone': '+351 217 270 194', 'dispensing': 'yes', 'email': 'farmacia.currie@gmail.com', 'healthcare': 'pharmacy', 'name': 'Farmácia Curie', 'phone': '+351 217 270 194'}}"
"{'type': 'node', 'id': 1213293499, 'lat': 38.7535871, 'lon': -9.1742845, 'tags': {'addr:housenumber': '124-A R/C', 'addr:postcode': '1600-162 São Domingos de Benfica', 'addr:street': 'Estrada da Luz', 'amenity': 'pharmacy', 'contact:phone': '+351 217 210 990', 'dispensing': 'yes', 'name': 'Farmácia da Luz'}}"
"{'type': 'node', 'id': 1213293505, 'lat': 38.7029113, 'lon': -9.1812026, 'tags': {'addr:city': 'Alcântara', 'addr:housenumber': '42-B', 'addr:postcode': '1300-360', 'addr:street': 'Rua Luís de Camões', 'amenity': 'pharmacy', 'contact:phone': '+351 213 638 625', 'dispensing': 'yes', 'healthcare': 'pharmacy', 'name': 'Farmácia Correia de Azevedo', 'note': 'Director Técnico - Maria Teresa Correia de Azevedo Soares.'}}"
"{'type': 'node', 'id': 1213293530, 'lat': 38.7356713, 'lon': -9.1323609, 'tags': {'addr:housenumber': '32-B-C', 'addr:postcode': '1900-069 São Jorge de Arroios', 'addr:street': 'Rua Angela Pinto', 'amenity': 'pharmacy', 'dispensing': 'no', 'name': 'Farmácia Corvo'}}"
"{'type': 'node', 'id': 1213369984, 'lat': 38.7321573, 'lon': -9.1514328, 'tags': {'addr:housenumber': '1-3', 'addr:postcode': '1050-205 São Sebastião da Pedreira', 'addr:street': 'Largo de São Sebastião da Pedreira', 'amenity': 'pharmacy', 'contact:email': 'farmacias.sebastiao@gmail.com', 'contact:phone': '+351 213 548 642', 'contact:website': 'https://www.facebook.com/farmaciadesaosebastiao', 'dispensing': 'yes', 'healthcare': 'pharmacy', 'name': 'Farmácia São Sebastião', 'wheelchair': 'limited'}}"
"{'type': 'node', 'id': 1213369986, 'lat': 38.7809522, 'lon': -9.1501085, 'tags': {'addr:housenumber': '17 B, LJ 2', 'addr:postcode': '1750-473 Charneca', 'addr:street': 'Avenida Sérgio Vieira de Mello', 'amenity': 'pharmacy', 'contact:phone': '+351 217 587 542', 'contact:website': 'https://www.facebook.com/farmacia.dolargo?fref=ts', 'dispensing': 'no', 'healthcare': 'pharmacy', 'name': 'Farmácia do Largo'}}"
"{'type': 'node', 'id': 1213370006, 'lat': 38.7418794, 'lon': -9.1085716, 'tags': {'addr:housenumber': 'LT 35-36', 'addr:postcode': '1950-363', 'addr:street': 'Rua Eduarda Lapa', 'addr:suburb': 'Bairro Marquês de Abrantes', 'amenity': 'pharmacy', 'contact:phone': '+351 218 314 283', 'contact:website': 'https://www.facebook.com/Farmácia-de-Marvila-1499210477073961', 'dispensing': 'no', 'healthcare': 'pharmacy', 'name': 'Farmácia de Marvila'}}"
"{'type': 'node', 'id': 1213370009, 'lat': 38.7274238, 'lon': -9.145769, 'tags': {'addr:housenumber': '61-65', 'addr:postcode': '1050-087 Coração de Jesus', 'addr:street': 'Avenida Duque de Loulé', 'amenity': 'pharmacy', 'contact:email': 'farmaciadomarques@gmail.com', 'contact:phone': '+351 210 465 865', 'contact:website': 'http://farmaciadomarques.com/pt', 'dispensing': 'yes', 'name': 'Farmácia do Marquês'}}"
"{'type': 'node', 'id': 1213370033, 'lat': 38.7051207, 'lon': -9.1771957, 'tags': {'addr:city': 'Alcântara', 'addr:housenumber': '2', 'addr:postcode': '1300-328', 'addr:street': 'Rua José Dias Coelho', 'amenity': 'pharmacy', 'contact:email': 'farmaciadocalvario@gmail.com', 'contact:phone': '+351 213 631 635', 'contact:website': 'www.farmaciacalvario.com', 'dispensing': 'yes', 'healthcare': 'pharmacy', 'name': 'Farmácia do Calvário', 'note': 'Responsável Farmacêutico - Iolanda Maria Gomes Soares', 'opening_hours': 'Mo-Fr 08:00-20:00; Sa 09:00-13:00'}}"
"{'type': 'node', 'id': 1213370040, 'lat': 38.728359, 'lon': -9.128726, 'tags': {'addr:housenumber': '31-A', 'addr:postcode': '1170-090 Penha de França', 'addr:street': 'Rua Cesário Verde', 'amenity': 'pharmacy', 'dispensing': 'yes', 'drive_through': 'no', 'healthcare': 'pharmacy', 'name': 'Farmácia Dimar', 'official_name': 'Farmácia Dimar, Lda.'}}"
"{'type': 'node', 'id': 1213370057, 'lat': 38.7350127, 'lon': -9.1459396, 'tags': {'addr:housenumber': '125', 'addr:postcode': '1050-081 São Sebastião da Pedreira', 'addr:street': 'Avenida Duque de Ávila', 'amenity': 'pharmacy', 'contact:email': 'farmacia.dalva@sapo.pt', 'contact:phone': '+351 213 539 865', 'contact:website': 'https://www.facebook.com/farmaciadalva', 'dispensing': 'yes', 'healthcare': 'pharmacy', 'name': 'Farmácia Dalva'}}"
"{'type': 'node', 'id': 1213370078, 'lat': 38.7111155, 'lon': -9.1480424, 'tags': {'addr:housenumber': '78-80-82', 'addr:postcode': '1200-115 Santa Catarina', 'addr:street': 'Calçada do Combro', 'amenity': 'pharmacy', 'dispensing': 'no', 'name': 'Farmácia do Combro', 'wheelchair': 'no'}}"
"{'type': 'node', 'id': 1213461372, 'lat': 38.7634754, 'lon': -9.1570385, 'tags': {'addr:housenumber': '93-A;93-B', 'addr:postcode': '1750-140 Lumiar', 'addr:street': 'Alameda das Linhas de Torres', 'amenity': 'pharmacy', 'contact:phone': '+351 217 541 092', 'contact:website': 'http://farmaciadouro.pt/pt', 'dispensing': 'no', 'healthcare': 'pharmacy', 'name': 'Farmácia Douro', 'official_name': 'Farmácia Douro Lda.'}}"
"{'type': 'node', 'id': 1213461376, 'lat': 38.7233737, 'lon': -9.1424652, 'tags': {'addr:housenumber': '2-A', 'addr:postcode': '1150-215 Coração de Jesus', 'addr:street': 'Rua Luciano Cordeiro', 'amenity': 'pharmacy', 'contact:phone': '+351 213 572 076', 'dispensing': 'yes', 'name': 'Farmácia dos Capuchos', 'wheelchair': 'yes'}}"
"{'type': 'node', 'id': 1213461384, 'lat': 38.6972539, 'lon': -9.2030676, 'tags': {'addr:city': 'Lisboa', 'addr:housenumber': '89', 'addr:postcode': '1300-083', 'addr:street': 'Rua de Belém', 'amenity': 'pharmacy', 'contact:email': 'farmaciadosjeronimos@gmail.com', 'contact:fax': '+351 213 030 298', 'contact:phone': '+351 213 011 454', 'contact:website': 'http://www.farmaciabarral.com/farmacia-dos-jeronimos', 'dispensing': 'yes', 'entrance:step_count': '0', 'entrance:width': '102cm', 'healthcare': 'pharmacy', 'name': 'Farmácia dos Jerónimos', 'note': 'Responsável Técnico - Pedro Daniel Morais Aragonez', 'opening_hours': 'Mo-Fr 08:00-21:00; Sa,Su 10:00-20:00'}}"
"{'type': 'node', 'id': 1213461391, 'lat': 38.738359, 'lon': -9.1329729, 'tags': {'addr:housenumber': '101-B', 'addr:postcode': '1900-119 Alto do Pina', 'addr:street': 'Rua Carlos Mardel', 'amenity': 'pharmacy', 'contact:email': 'geral@farmaesperanca.com', 'contact:phone': '+351 218 482 868', 'contact:website': 'https://www.facebook.com/FarmaciaEsperancaLisboa', 'dispensing': 'yes', 'name': 'Farmácia Esperança'}}"
"{'type': 'node', 'id': 1213461399, 'lat': 38.7281801, 'lon': -9.1221767, 'tags': {'amenity': 'pharmacy', 'dispensing': 'no', 'healthcare': 'pharmacy'}}"
"{'type': 'node', 'id': 1213461403, 'lat': 38.7687091, 'lon': -9.1085109, 'tags': {'addr:city': 'Lisboa', 'addr:housenumber': '19', 'addr:postcode': '1800-021 Santa Maria dos Olivais', 'addr:street': 'Rua Alves Gouveia', 'amenity': 'pharmacy', 'dispensing': 'no', 'healthcare': 'pharmacy', 'name': 'Farmácia dos Olivais'}}"
"{'type': 'node', 'id': 1213461413, 'lat': 38.7107704, 'lon': -9.141476, 'tags': {'addr:postcode': '1200-204 Sacramento', 'amenity': 'pharmacy', 'contact:phone': '+351 213 424 166', 'dispensing': 'yes', 'healthcare': 'pharmacy', 'name': 'Farmácia Sacoor do Chiado', 'old_name': 'Farmácia Durão', 'opening_hours': 'Mo-Sa 09:00-21:30; Su 11:00-20:00', 'wikidata': 'Q1396921', 'wikimedia_commons': 'Category:Edifício na Rua Garrett, n.º 90 / Farmácia Durão'}}"
"{'type': 'node', 'id': 1213461417, 'lat': 38.6984991, 'lon': -9.2184776, 'tags': {'addr:city': 'Belém', 'addr:housenumber': '11-C', 'addr:postcode': '1400-139', 'addr:street': 'Rua Duarte Pacheco Pereira', 'amenity': 'pharmacy', 'contact:phone': '+351 213 031 650', 'dispensing': 'yes', 'healthcare': 'pharmacy', 'name': 'Farmácia do Restelo', 'opening_hours': 'Mo-Sun 9-14 15-19'}}"
"{'type': 'node', 'id': 1213529434, 'lat': 38.7401196, 'lon': -9.1486947, 'tags': {'addr:housenumber': '147-A', 'addr:postcode': '1050-053 Nossa Senhora de Fátima', 'addr:street': 'Avenida 5 de Outubro', 'amenity': 'pharmacy', 'contact:email': 'farmacia.fatima.lisboa@gmail.com', 'contact:phone': '+351 217 963 107', 'contact:website': 'https://www.facebook.com/Farmácia-Fátima-169625066568753', 'dispensing': 'yes', 'healthcare': 'pharmacy', 'name': 'Farmácia Fátima'}}"
"{'type': 'node', 'id': 1213529439, 'lat': 38.7343153, 'lon': -9.1285575, 'tags': {'addr:housenumber': '104', 'addr:postcode': '1900-094 São João', 'addr:street': 'Rua Barão de Sabrosa', 'alt_name': 'Farmácia Holon Barão de Sabrosa', 'amenity': 'pharmacy', 'dispensing': 'yes', 'name': 'Farmácia Eusil'}}"
"{'type': 'node', 'id': 1213529453, 'lat': 38.7601443, 'lon': -9.0958562, 'tags': {'addr:city': 'Lisboa', 'addr:housenumber': '5A', 'addr:postcode': '1990-221', 'addr:street': 'Largo dos Arautos', 'addr:unit': '2.06.05', 'amenity': 'pharmacy', 'contact:email': 'encomendas.farmaciaexposul@gmail.com', 'contact:phone': '+351 218 967 033', 'contact:website': 'https://www.farmaciasportuguesas.pt/catalogo/ficha-farmacia?code=11266', 'dispensing': 'no', 'healthcare': 'pharmacy', 'name': 'Farmácia Exposul', 'opening_hours': 'Mo-Su 09:00-24:00', 'wheelchair': 'yes'}}"
"{'type': 'node', 'id': 1213529470, 'lat': 38.7249204, 'lon': -9.1286953, 'tags': {'addr:housenumber': '27-A', 'addr:postcode': '1170-156 Penha de França', 'addr:street': 'Avenida General Roçadas', 'amenity': 'pharmacy', 'contact:email': 'pcmb@netcabo.pt', 'contact:phone': '+351 218 143 880', 'contact:website': 'https://www.facebook.com/farmaciaeuropalisboa', 'dispensing': 'yes', 'healthcare': 'pharmacy', 'name': 'Farmácia Europa'}}"
"{'type': 'node', 'id': 1213529474, 'lat': 38.7154852, 'lon': -9.1355563, 'tags': {'addr:housenumber': '12', 'addr:postcode': '1100-364 Socorro', 'addr:street': 'Rua da Mouraria', 'amenity': 'pharmacy', 'contact:email': 'farmaciaferrao@sapo.pt', 'contact:phone': '+351 218 860 464', 'contact:website': 'https://www.facebook.com/Farmácia-Mouraria-ex-Ferrão-469532483244254', 'dispensing': 'yes', 'name': 'Farmácia Mouraria', 'official_name': 'Farmácia Ferrão, Lda.', 'old_name': 'Farmácia Ferrão'}}"
"{'type': 'node', 'id': 1213563553, 'lat': 38.7132285, 'lon': -9.1587354, 'tags': {'addr:city': 'Estrela', 'addr:housenumber': '130', 'addr:postcode': '1200-666', 'addr:street': 'Calçada da Estrela', 'amenity': 'pharmacy', 'contact:phone': '+351 213 960 339', 'dispensing': 'no', 'healthcare': 'pharmacy', 'name': 'Farmácia Gama'}}"
"{'type': 'node', 'id': 1213563554, 'lat': 38.7289678, 'lon': -9.1479943, 'tags': {'addr:city': 'Lisboa', 'addr:housenumber': '15-A;15-B', 'addr:postcode': '1050-115', 'addr:street': 'Avenida Fontes Pereira de Melo', 'amenity': 'pharmacy', 'contact:email': 'farmaciafontespereirademelo@gmail.com', 'contact:phone': '+351 213 139 290', 'contact:website': 'https://www.farmaciafontespereirademelo.com', 'name': 'Farmácia Fontes Pereira de Melo'}}"
"{'type': 'node', 'id': 1213563555, 'lat': 38.7430676, 'lon': -9.1338197, 'tags': {'addr:city': 'Lisboa', 'addr:housenumber': '5-A', 'addr:postcode': '1000-222 São João de Deus', 'addr:street': 'Avenida Padre Manuel da Nóbrega', 'amenity': 'pharmacy', 'contact:phone': '+351 218 460 080', 'contact:website': 'https://pt-pt.facebook.com/pages/Farm%C3%A1cia-Garantia/1502680699964158', 'dispensing': 'yes', 'healthcare': 'pharmacy', 'name': 'Farmácia Garantia', 'opening_hours': 'Mo-Fr 08:00-23:00; Sa-Su 09:00-20:00'}}"
"{'type': 'node', 'id': 1213563556, 'lat': 38.7682105, 'lon': -9.0987268, 'tags': {'addr:housenumber': 'LT 1.15.15, Loja G220', 'addr:postcode': '1990-233 Santa Maria dos Olivais', 'addr:street': 'Avenida Dom João II', 'amenity': 'pharmacy', 'dispensing': 'no', 'healthcare': 'pharmacy', 'name': 'Farmácia Gare do Oriente', 'wheelchair': 'limited'}}"
"{'type': 'node', 'id': 1213563557, 'lat': 38.7189819, 'lon': -9.1432583, 'tags': {'addr:city': 'Lisboa', 'addr:housenumber': '12-14', 'addr:postcode': '1150-271', 'addr:street': 'Rua das Pretas', 'amenity': 'pharmacy', 'contact:email': 'fgalenicalisboa@gmail.com', 'contact:phone': '+351 213 477 052', 'contact:website': 'facebook.com/Farmácia-Galénica-Lisboa-519482218252493', 'dispensing': 'yes', 'healthcare': 'pharmacy', 'name': 'Farmácia Galénica'}}"
"{'type': 'node', 'id': 1213563559, 'lat': 38.7363474, 'lon': -9.1502158, 'tags': {'addr:housenumber': '29-A', 'addr:postcode': '1050-066 Nossa Senhora de Fátima', 'addr:street': 'Avenida Conde Valbom', 'amenity': 'pharmacy', 'dispensing': 'no', 'healthcare': 'pharmacy', 'name': 'Farmácia Figueiras'}}"
"{'type': 'node', 'id': 1213563561, 'lat': 38.7459929, 'lon': -9.1015829, 'tags': {'addr:housenumber': '23-A', 'addr:postcode': '1950-278', 'addr:street': 'Rua do Vale Formoso', 'amenity': 'pharmacy', 'dispensing': 'no', 'healthcare': 'pharmacy', 'name': 'Farmácia Freitas'}}"
"{'type': 'node', 'id': 1213598914, 'lat': 38.7661986, 'lon': -9.1209421, 'tags': {'addr:housenumber': 'Lote 43, Loja A', 'addr:postcode': '1800-131 Santa Maria dos Olivais', 'addr:street': 'Rua Cidade de Vila Cabral', 'amenity': 'pharmacy', 'contact:email': 'farmacia.higiene.olivais@grupo-holon.pt', 'contact:phone': '+351 218 510 026', 'contact:website': 'http://www.grupo-holon.pt/', 'dispensing': 'yes', 'healthcare': 'pharmacy', 'name': 'Farmácia Higiene Olivais'}}"
"{'type': 'node', 'id': 1213598975, 'lat': 38.7226818, 'lon': -9.1345434, 'tags': {'addr:housenumber': '34', 'addr:postcode': '1170-016 Anjos', 'addr:street': 'Rua Andrade', 'amenity': 'pharmacy', 'contact:phone': '+351 218 110 028', 'dispensing': 'yes', 'name': 'Farmácia Guerra', 'official_name': 'Farmácia Guerra Suc.'}}"
"{'type': 'node', 'id': 1213598992, 'lat': 38.6975683, 'lon': -9.1959177, 'tags': {'addr:city': 'Santa Maria de Belém', 'addr:housenumber': '326;328', 'addr:postcode': '1300-340', 'addr:street': 'Rua da Junqueira', 'amenity': 'pharmacy', 'contact:email': 'farmaciagomes@sapo.pt', 'contact:phone': '+351 213 638 193', 'dispensing': 'yes', 'healthcare': 'pharmacy', 'name': 'Farmácia Gomes Sucessores', 'note': 'Director Técnico - Vítor Manuel Gomes David Silva.'}}"
"{'type': 'node', 'id': 1215485958, 'lat': 38.7376589, 'lon': -9.1277328, 'tags': {'addr:housenumber': '7 B', 'addr:postcode': '1900-090 Alto do Pina', 'addr:street': 'Rua Cristóvão Falcão', 'amenity': 'pharmacy', 'contact:email': 'iberiafarmacia@gmail.com', 'contact:phone': '+351 218 488 277', 'contact:website': 'https://www.facebook.com/farmaciaiberia', 'dispensing': 'yes', 'name': 'Farmácia Ibéria', 'opening_hours': 'PH,Mo-Su 08:00-24:00', 'wheelchair': 'yes'}}"
"{'type': 'node', 'id': 1215488058, 'lat': 38.7398058, 'lon': -9.1362684, 'tags': {'addr:housenumber': '30 B', 'addr:postcode': '1000-167', 'addr:street': 'Avenida Guerra Junqueiro', 'amenity': 'pharmacy', 'contact:email': 'farmaciaimperial.lx@gmail.com', 'contact:phone': '+351 218 486 860', 'contact:website': 'http://www.grupoprogressosaude.net/farmcia-imperial', 'dispensing': 'yes', 'name': 'Farmácia Imperial', 'opening_hours': 'Mo-Fr 08:30-20:30; Sa 09:00-19:30; Su,PH 10:00-19:30'}}"
"{'type': 'node', 'id': 1225504057, 'lat': 39.2375305, 'lon': -9.3097262, 'tags': {'amenity': 'pharmacy', 'dispensing': 'yes', 'healthcare': 'pharmacy', 'name': 'Farmácia Marteleirense'}}"
"{'type': 'node', 'id': 1225504060, 'lat': 39.2418537, 'lon': -9.3126189, 'tags': {'amenity': 'pharmacy', 'dispensing': 'yes', 'healthcare': 'pharmacy', 'name': 'Farmácia Quintans', 'opening_hours': 'Mo-Fr 08:30-19:30; Sa 09:00-13:00'}}"
"{'type': 'node', 'id': 1225504064, 'lat': 39.2422707, 'lon': -9.3122241, 'tags': {'amenity': 'pharmacy', 'dispensing': 'yes', 'healthcare': 'pharmacy', 'name': 'Farmácia Leal'}}"
"{'type': 'node', 'id': 1225695927, 'lat': 38.6809087, 'lon': -9.1558115, 'tags': {'addr:city': 'Almada', 'addr:housenumber': '11', 'addr:postcode': '2800-183', 'addr:street': 'Rua de Olivença', 'amenity': 'pharmacy', 'dispensing': 'yes', 'healthcare': 'pharmacy', 'name': 'Farmácia Central', 'opening_hours': '24/7'}}"
"{'type': 'node', 'id': 1225695978, 'lat': 38.6847846, 'lon': -9.147892, 'tags': {'addr:city': 'Almada', 'addr:housenumber': '9A', 'addr:postcode': '2800-300', 'addr:street': 'Avenida 25 de Abril de 1974', 'amenity': 'pharmacy', 'dispensing': 'yes', 'drive_through': 'no', 'healthcare': 'pharmacy', 'name': 'Silva Júnior', 'opening_hours': 'Mo-Fr 08:30-20:00', 'phone': '214045166', 'website': 'https://www.facebook.com/farmaciasilvajunior/'}}"
"{'type': 'node', 'id': 1225696031, 'lat': 38.6823323, 'lon': -9.1531379, 'tags': {'addr:housenumber': '1', 'addr:postcode': '2800-031', 'addr:street': 'Rua Bernardo Francisco da Costa', 'amenity': 'pharmacy', 'contact:phone': '+351 212 751 297', 'dispensing': 'yes', 'healthcare': 'pharmacy', 'name': 'Farmácia Macedo Henriques', 'opening_hours': 'Mo-Sa 09:00-20:00'}}"
"{'type': 'node', 'id': 1227815902, 'lat': 39.2872939, 'lon': -9.2145711, 'tags': {'addr:city': 'Reguwngo Grande', 'addr:housenumber': '7', 'addr:postcode': '2530-602', 'addr:street': 'Rua do Comércio', 'amenity': 'pharmacy', 'name': 'Liberal'}}"
"{'type': 'node', 'id': 1232550015, 'lat': 38.70503, 'lon': -9.1677894, 'tags': {'addr:city': 'Lisboa', 'addr:housenumber': '290', 'addr:postcode': '1200-745', 'addr:street': 'Rua do Olival', 'amenity': 'pharmacy', 'contact:phone': '+351 213 961 003', 'healthcare': 'pharmacy', 'name': 'Farmácia Infante Santo', 'note': 'Director Técnico - Maria de Lourdes Coelho Maia.'}}"
"{'type': 'node', 'id': 1232550036, 'lat': 38.7342628, 'lon': -9.1477557, 'tags': {'addr:housenumber': '10 A', 'addr:postcode': '1050-024 São Sebastião da Pedreira', 'addr:street': 'Rua António Enes', 'amenity': 'pharmacy', 'contact:phone': '+351 213 548 002', 'dispensing': 'yes', 'name': 'Farmácia Império', 'official_name': 'Farmácia Império, Lda'}}"
"{'type': 'node', 'id': 1233116555, 'lat': 38.68547, 'lon': -9.1496615, 'tags': {'addr:housenumber': '1', 'addr:postcode': '2800', 'addr:street': 'Rua Comandante António Feio', 'amenity': 'pharmacy', 'dispensing': 'yes', 'healthcare': 'pharmacy', 'name': 'Reis'}}"
"{'type': 'node', 'id': 1233123143, 'lat': 38.6800353, 'lon': -9.1601255, 'tags': {'addr:housenumber': '85', 'addr:postcode': '2800', 'addr:street': 'Rua Capitão Leitão', 'amenity': 'pharmacy', 'dispensing': 'yes', 'healthcare': 'pharmacy', 'name': 'Farmácia Galeno'}}"
"{'type': 'node', 'id': 1233134299, 'lat': 38.6742183, 'lon': -9.1690183, 'tags': {'addr:housenumber': '6', 'addr:postcode': '2800', 'addr:street': 'Rua Direita', 'amenity': 'pharmacy', 'check_date:opening_hours': '2022-03-18', 'dispensing': 'yes', 'healthcare': 'pharmacy', 'name': 'Pragal', 'opening_hours': 'Mo-Su,PH 09:00-24:00'}}"
"{'type': 'node', 'id': 1237566224, 'lat': 38.7384807, 'lon': -9.1424352, 'tags': {'addr:housenumber': '9-C', 'addr:postcode': '1000-134', 'addr:street': 'Nossa Senhora de Fátima', 'amenity': 'pharmacy', 'contact:phone': '+351 217 970 324', 'dispensing': 'no', 'name': 'Farmácia Leonel Pinheiro'}}"
"{'type': 'node', 'id': 1237566227, 'lat': 38.756614, 'lon': -9.177924, 'tags': {'addr:city': 'Lisboa', 'addr:housenumber': '199-A', 'addr:place': 'São Domingos de Benfica', 'addr:postcode': '1600-155', 'addr:street': 'Estrada da Luz', 'amenity': 'pharmacy', 'contact:email': 'farmaciajribeiro@gmail.com', 'contact:phone': '+351 217 223 523', 'contact:website': 'https://www.facebook.com/pg/farmaciajribeiro', 'dispensing': 'yes', 'name': 'Farmácia J Ribeiro'}}"
"{'type': 'node', 'id': 1237566232, 'lat': 38.7303193, 'lon': -9.1507741, 'tags': {'addr:city': 'Lisboa', 'addr:housenumber': '17', 'addr:postcode': '1050-012 São Sebastião da Pedreira', 'addr:street': 'Avenida António Augusto Aguiar', 'addr:unit': 'B', 'amenity': 'pharmacy', 'contact:phone': '+351 213 542 312', 'dispensing': 'yes', 'healthcare': 'pharmacy', 'name': 'Farmácia Latina'}}"
"{'type': 'node', 'id': 1237566234, 'lat': 38.7166488, 'lon': -9.1638289, 'tags': {'addr:city': 'Campo de Ourique', 'addr:housenumber': '42 a 48', 'addr:postcode': '1350-133', 'addr:street': 'Rua Ferreira Borges', 'amenity': 'pharmacy', 'dispensing': 'yes', 'healthcare': 'pharmacy', 'name': 'Farmácia Linaida', 'opening_hours': 'Mo-Su 08:30-20:00'}}"
"{'type': 'node', 'id': 1237566235, 'lat': 38.7425696, 'lon': -9.1366667, 'tags': {'addr:housenumber': '16-A', 'addr:postcode': '1000-302 São João de Deus', 'addr:street': 'Avenida João XXI', 'amenity': 'pharmacy', 'healthcare': 'pharmacy', 'name': 'Farmácia João XXI', 'opening_hours': 'Mo-Sa 09:00-20:00;Su 10:00-20:00'}}"
"{'type': 'node', 'id': 1237566239, 'lat': 38.7437061, 'lon': -9.1387268, 'tags': {'addr:housenumber': '18-A', 'addr:postcode': '1000-265 São João de Deus', 'addr:street': 'Avenida de Roma', 'amenity': 'pharmacy', 'contact:email': 'flusitana@gmail.com', 'contact:phone': '+351 218 485 443', 'contact:website': 'https://www.facebook.com/farmacialusitana.lisboa', 'dispensing': 'no', 'name': 'Farmácia Lusitana', 'opening_hours': 'Mo-Fr 09:00-20:00; Sa 09:00-19:00'}}"
"{'type': 'node', 'id': 1237566241, 'lat': 38.7184073, 'lon': -9.167912, 'tags': {'addr:housenumber': '98-B', 'addr:postcode': '1350-171', 'addr:street': 'Rua de Infantaria 16', 'amenity': 'pharmacy', 'contact:email': 'farmacialobel@gmail.com', 'contact:phone': '+351 213 888 807', 'contact:website': 'http://maisfarmacia.org/', 'dispensing': 'yes', 'healthcare': 'pharmacy', 'name': 'Farmácia Lobel', 'name:de': 'Apotheke Lobel', 'opening_hours': 'Mo-Fr 08:30-19:00; Sa 09:00-13:00'}}"
"{'type': 'node', 'id': 1237566250, 'lat': 38.7478904, 'lon': -9.206768, 'tags': {'addr:housenumber': '28-A', 'addr:postcode': '1500-264', 'addr:street': 'Rua Engenheiro Paulo de Barros', 'amenity': 'pharmacy', 'contact:email': 'farmacialavinha@sapo.pt', 'contact:phone': '+351 217 608 242', 'contact:website': 'https://www.facebook.com/farmacialavinha', 'dispensing': 'yes', 'name': 'Farmácia Lavinha'}}"
"{'type': 'node', 'id': 1237566251, 'lat': 38.7539477, 'lon': -9.1977153, 'tags': {'addr:housenumber': '69-C', 'addr:postcode': '1500-544', 'addr:street': 'Rua da República da Bolívia', 'alt_name': 'Farmácia Macedo', 'amenity': 'pharmacy', 'contact:email': 'farmacia.eusebio@gmail.com', 'contact:phone': '+351 217 110 410', 'contact:website': 'https://www.facebook.com/farmacia.eusebio/', 'dispensing': 'yes', 'name': 'Farmácia Eusébio'}}"
"{'type': 'node', 'id': 1237566255, 'lat': 38.7248926, 'lon': -9.1342734, 'tags': {'addr:housenumber': '8;10', 'addr:postcode': '1150-025 Anjos', 'addr:street': 'Rua Álvaro Coutinho', 'amenity': 'pharmacy', 'contact:email': 'farmacia.jmatos@gmail.com', 'contact:phone': '+351 218 121 671', 'contact:website': 'https://www.facebook.com/Farmácia-Jaime-de-Matos-639820092850868', 'dispensing': 'yes', 'healthcare': 'pharmacy', 'name': 'Farmácia Jaime de Matos'}}"
"{'type': 'node', 'id': 1237566257, 'lat': 38.7449471, 'lon': -9.2015022, 'tags': {'addr:housenumber': '37 A;37 B', 'addr:postcode': '1500-618', 'addr:street': 'Rua da Venezuela', 'amenity': 'pharmacy', 'contact:email': 'farmacialabor@hotmail.com', 'contact:phone': '+351 213 423 428', 'contact:website': 'https://www.facebook.com/farmacialabor', 'dispensing': 'yes', 'name': 'Farmácia Labor'}}"
"{'type': 'node', 'id': 1237566262, 'lat': 38.7358734, 'lon': -9.1341716, 'tags': {'addr:housenumber': '199-A;199-B', 'addr:postcode': '1000-048 São Jorge de Arroios', 'addr:street': 'Avenida Almirante Reis', 'amenity': 'pharmacy', 'contact:email': 'farmacialusa.lx@gmail.com', 'contact:phone': '+351 218 475 269', 'dispensing': 'yes', 'name': 'Farmácia Lusa', 'opening_hours': 'Mo-Fr 09:00-19:00; Sa 09:00-13:00'}}"
"{'type': 'node', 'id': 1237566264, 'lat': 38.7048548, 'lon': -9.1783623, 'tags': {'addr:city': 'Alcântara', 'addr:housenumber': '2-B', 'addr:postcode': '1300-352', 'addr:street': 'Rua Leão de Oliveira', 'amenity': 'pharmacy', 'contact:email': 'farmacia.lisbonense@hotmail.com', 'contact:phone': '+351 213 637 020', 'contact:website': 'https://www.facebook.com/Farmácia-Lisbonense-600141033397575', 'dispensing': 'yes', 'healthcare': 'pharmacy', 'name': 'Farmácia Lisbonense', 'note': 'Director Técnico - Ana Filipa Esteves Rainha Duarte.'}}"
"{'type': 'node', 'id': 1237566265, 'lat': 38.7308337, 'lon': -9.1098847, 'tags': {'addr:housenumber': '15-B', 'addr:postcode': '1900-325 Beato', 'addr:street': 'Rua da Margem', 'alt_name': 'Farmácia Madre de Deus', 'amenity': 'pharmacy', 'contact:email': 'farmaciamadredeus@gmail.com', 'contact:phone': '+351 218 619 344', 'dispensing': 'yes', 'healthcare': 'pharmacy', 'name': 'Farmácia Madre Deus'}}"
"{'type': 'node', 'id': 1237566267, 'lat': 38.722755, 'lon': -9.1602011, 'tags': {'addr:housenumber': '232-C', 'addr:postcode': '1250-259', 'addr:street': 'Santa Isabel', 'amenity': 'pharmacy', 'check_date': '2024-11-06', 'contact:phone': '+351 213 850 760', 'dispensing': 'no', 'healthcare': 'pharmacy', 'name': 'Farmácia Ivone'}}"
"{'type': 'node', 'id': 1239143774, 'lat': 38.750655, 'lon': -9.2008027, 'tags': {'addr:city': 'Lisboa', 'addr:housenumber': '648', 'addr:postcode': '1500-108', 'addr:street': 'Estrada de Benfica', 'amenity': 'pharmacy', 'contact:email': 'farmaciamarques648@gmail.com', 'contact:phone': '+351 217 600 096', 'dispensing': 'yes', 'healthcare': 'pharmacy', 'name': 'Farmácia Marques', 'website': 'https://www.farmaciasportuguesas.pt/farmacia-info/08230?utm_source=gmb&utm_medium=organic&utm_campaign=farma_08230'}}"
"{'type': 'node', 'id': 1239143785, 'lat': 38.7377113, 'lon': -9.1234946, 'tags': {'addr:housenumber': '140 A;140 B', 'addr:postcode': '1900-374 Beato', 'addr:street': 'Calçada da Picheleira', 'amenity': 'pharmacy', 'contact:email': 'isamarluz@@hotmail.com', 'contact:phone': '+351 218 437 550', 'dispensing': 'yes', 'healthcare': 'pharmacy', 'name': 'Farmácia Marluz', 'opening_hours': 'Mo-Th 09:00-19:00; Fr 09:00-20:00; Sa 09:00-13:00', 'wheelchair': 'limited'}}"
"{'type': 'node', 'id': 1239143786, 'lat': 38.7669138, 'lon': -9.1610774, 'tags': {'addr:housenumber': '34-B', 'addr:postcode': '1600-679 Lumiar', 'addr:street': 'Avenida Rainha Dona Amélia', 'amenity': 'pharmacy', 'contact:email': 'farmaciamatosviegas@gmail.com', 'contact:phone': '+ 351 217 574 476', 'contact:website': 'http://www.redebarral.com/', 'dispensing': 'no', 'healthcare': 'pharmacy', 'name': 'Farmácia Matos Viegas', 'opening_hours': 'Mo-Sa 09:00-20:00', 'wheelchair': 'no'}}"
"{'type': 'node', 'id': 1239143796, 'lat': 38.717079, 'lon': -9.1356868, 'tags': {'addr:housenumber': '194', 'addr:postcode': '1100-394 Santa Justa', 'addr:street': 'Rua da Palma', 'amenity': 'pharmacy', 'check_date': '2024-05-02', 'contact:email': 'martimmonizfarmacia@sapo.pt', 'contact:phone': '+351 218 863 350', 'contact:website': 'https://www.facebook.com/Farmácia-Martim-Moniz-174054509655210', 'dispensing': 'yes', 'name': 'Farmácia Martim Moniz'}}"
"{'type': 'node', 'id': 1239143801, 'lat': 38.7559998, 'lon': -9.1452927, 'tags': {'addr:housenumber': '104-A R/C', 'addr:postcode': '1700-346 São João de Brito', 'addr:street': 'Avenida de Roma', 'amenity': 'pharmacy', 'contact:email': 'farmaciamarbel@gmail.com', 'contact:phone': '+351 217 993 770', 'contact:website': 'https://pt-pt.facebook.com/farmaciamarbel/', 'dispensing': 'yes', 'healthcare': 'pharmacy', 'name': 'Farmácia Marbel', 'wheelchair': 'yes'}}"
"{'type': 'node', 'id': 1239143805, 'lat': 38.71274, 'lon': -9.158006, 'tags': {'addr:housenumber': '167', 'addr:postcode': '1200-662', 'addr:street': 'Calçada da Estrela', 'amenity': 'pharmacy', 'contact:email': 'geral@farmaciamartins.com', 'contact:phone': '+351 213 960 823', 'contact:website': 'http://www.farmaciamartins.com/', 'dispensing': 'yes', 'healthcare': 'pharmacy', 'name': 'Farmácia Martins', 'wheelchair': 'limited'}}"
"{'type': 'node', 'id': 1239143811, 'lat': 38.7133855, 'lon': -9.1635077, 'tags': {'addr:housenumber': '96', 'addr:postcode': '1350-294 Lapa', 'addr:street': 'Rua de Santo António à Estrela', 'amenity': 'pharmacy', 'contact:email': 'marques.freire.lsb@farmalink.pt', 'contact:phone': '+351 213 965 196', 'dispensing': 'no', 'name': 'Farmácia Marques Freire'}}"
"{'type': 'node', 'id': 1239241430, 'lat': 38.7524215, 'lon': -9.1494339, 'tags': {'addr:city': 'Lisboa', 'addr:country': 'PT', 'addr:housenumber': '152-A', 'addr:postcode': '1700-094', 'addr:street': 'Campo Grande', 'amenity': 'pharmacy', 'contact:email': 'farmacianeoterapia@gmail.com', 'contact:phone': '+351 217 974 682', 'contact:website': 'https://www.facebook.com/Farm%C3%A1cia-Campo-Grande-214358862096039/', 'dispensing': 'yes', 'name': 'Farmácia Campo Grande'}}"
"{'type': 'node', 'id': 1239241431, 'lat': 38.7021733, 'lon': -9.2016862, 'tags': {'addr:city': 'Ajuda', 'addr:housenumber': '45 B', 'addr:postcode': '1300-402', 'addr:street': 'Travessa da Memória', 'amenity': 'pharmacy', 'check_date:opening_hours': '2023-10-04', 'contact:email': 'geral@farmaciamoura.pt', 'contact:phone': '+351 213 630 944', 'contact:website': 'https://www.facebook.com/Farm%C3%A1cia-Moura-Ajuda-191566341005363/', 'dispensing': 'yes', 'healthcare': 'pharmacy', 'name': 'Farmácia Moura', 'note': 'Director Técnico - Joana Marques Monteiro Telhada.', 'opening_hours': 'Mo-Fr 08:30-20:00; Sa 08:30-13:00'}}"
"{'type': 'node', 'id': 1239241432, 'lat': 38.7195001, 'lon': -9.1459544, 'tags': {'addr:housenumber': '7', 'addr:postcode': '1250-198 São Mamede', 'addr:street': 'Rua do Salitre', 'amenity': 'pharmacy', 'check_date': '2024-05-05', 'contact:phone': '+351 213 546 858', 'dispensing': 'yes', 'healthcare': 'pharmacy', 'name': 'Farmácia Nacional'}}"
"{'type': 'node', 'id': 1239241434, 'lat': 38.7432182, 'lon': -9.1441654, 'tags': {'addr:housenumber': '36-B;36-C', 'addr:postcode': '1000-080 São João de Deus', 'addr:street': 'Largo do Campo Pequeno', 'amenity': 'pharmacy', 'contact:phone': '+351 217 970 776', 'contact:website': 'https://www.facebook.com/Farmacia-Miranda-117039851789632/', 'dispensing': 'yes', 'healthcare': 'pharmacy', 'name': 'Farmácia Miranda'}}"
"{'type': 'node', 'id': 1239241436, 'lat': 38.7812792, 'lon': -9.1640353, 'tags': {'addr:housenumber': 'Lote 4 - Loja Esquerda', 'addr:postcode': '1750-053 Ameixoeira', 'addr:street': 'Calçada de Carriche', 'amenity': 'pharmacy', 'contact:email': 'farmacia.nicolau@grupo-holon.pt', 'contact:phone': '+351 217 540 859', 'contact:website': 'http://www.grupo-holon.pt/', 'dispensing': 'yes', 'name': 'Farmácia Nicolau', 'wheelchair': 'limited'}}"
"{'type': 'node', 'id': 1239241437, 'lat': 38.7098096, 'lon': -9.1516036, 'tags': {'addr:housenumber': '115;117', 'addr:postcode': '1200-337 São Paulo', 'addr:street': 'Rua Poço dos Negros', 'amenity': 'pharmacy', 'contact:email': 'farmamozteixeira@gmail.com', 'contact:phone': '+351 213 900 670', 'contact:website': 'https://www.facebook.com/mozteixeira', 'dispensing': 'no', 'healthcare': 'pharmacy', 'name': 'Farmácia Moz Teixeira'}}"
"{'type': 'node', 'id': 1240465058, 'lat': 38.6962343, 'lon': -9.2195701, 'tags': {'addr:city': 'Santa Maria de Belém', 'addr:housenumber': '50;52', 'addr:postcode': '1400-290', 'addr:street': 'Rua de Pedrouços', 'amenity': 'pharmacy', 'contact:phone': '+351 213 010 280', 'contact:website': 'www.facebook.com/Farmácia-Sociedade-Higilux-1640964636184095', 'dispensing': 'yes', 'healthcare': 'pharmacy', 'name': 'Farmácia Sociedade Higilux', 'official_name': 'Farmácia Sociedade Higilux, Lda.'}}"
"{'type': 'node', 'id': 1240465059, 'lat': 38.717178, 'lon': -9.1665312, 'tags': {'addr:city': 'Campo de Ourique', 'addr:housenumber': '59-B', 'addr:postcode': '1350-139 Santo Condestável', 'addr:street': 'Rua Francisco Metrass', 'amenity': 'pharmacy', 'contact:email': 'farma.porfirio@gmail.com', 'contact:phone': '+351 213 963 349', 'contact:website': 'https://pt-pt.facebook.com/Farm%C3%A1cia-Porf%C3%ADrio-151876844877029/', 'dispensing': 'yes', 'healthcare': 'pharmacy', 'name': 'Farmácia Porfírio', 'opening_hours': 'Mo-Fr 09:00-20:00 Sat 09:00-19:00 Sun 10:00-19:00'}}"
"{'type': 'node', 'id': 1240465060, 'lat': 38.7314135, 'lon': -9.1708804, 'tags': {'addr:housenumber': '182', 'addr:postcode': '1070-146 Campolide', 'addr:street': 'Rua Inácio Pardelhas Sanchez', 'amenity': 'pharmacy', 'contact:email': 'fzenel@gmail.com', 'contact:phone': '+351 213 851 840', 'dispensing': 'yes', 'name': 'Farmácia Zenel'}}"
"{'type': 'node', 'id': 1240465061, 'lat': 38.7634721, 'lon': -9.120188, 'tags': {'addr:housename': 'Edifício Paris', 'addr:housenumber': 'Lote 534 A', 'addr:postcode': '1800-105 Santa Maria dos Olivais', 'addr:street': 'Rua Cidade Nampula', 'amenity': 'pharmacy', 'contact:email': 'reisoliveirafarma@gmail.com', 'contact:fax': '+351 218 550 681', 'contact:phone': '+351 218 550 680;+351 918 782 570', 'dispensing': 'yes', 'fax': '+351 218 550 681', 'healthcare': 'pharmacy', 'name': 'Farmácia Reis Oliveira', 'opening_hours': 'Mo-Fr 8:30-19:30, Sa 9:30-13:30, Su 9:30-13:30', 'phone': '+351 218 550 680;+351 918 782 570'}}"
"{'type': 'node', 'id': 1240465063, 'lat': 38.733653, 'lon': -9.1501683, 'tags': {'addr:housenumber': '69-71', 'addr:postcode': '1050-142 São Sebastião da Pedreira', 'addr:street': 'Avenida Luís Bivar', 'amenity': 'pharmacy', 'dispensing': 'no', 'name': 'Farmácia Sagres'}}"
"{'type': 'node', 'id': 1240465064, 'lat': 38.779281, 'lon': -9.1632158, 'tags': {'addr:housenumber': 'Lote 12-C', 'addr:postcode': '1750-079 Ameixoeira', 'addr:street': 'Estrada do Desvio', 'amenity': 'pharmacy', 'contact:phone': '+351 217 590 704', 'dispensing': 'yes', 'name': 'Farmácia São Tomé', 'opening_hours': 'Mo-Fr 09:00-20:00; Sa 09:00-13:00'}}"
"{'type': 'node', 'id': 1240465065, 'lat': 38.7159554, 'lon': -9.1474684, 'tags': {'addr:housenumber': '123-125', 'addr:postcode': '1250-093 Santa Catarina', 'addr:street': 'Rua Dom Pedro V', 'alt_name': 'Farmácia Jardim Real', 'amenity': 'pharmacy', 'check_date': '2024-05-05', 'contact:email': 'farmaciaprogresso.principereal@gmail.com', 'contact:phone': '+ 351 213 240 419', 'contact:website': 'http://www.grupoprogressosaude.net/farmcia-oliveira', 'dispensing': 'yes', 'healthcare': 'pharmacy', 'name': 'Farmácia Oliveira', 'opening_hours': 'Mo-Fr 08:30-20:00; Sa 10:00-19:00; Su 12:00-20:00'}}"
"{'type': 'node', 'id': 1240465066, 'lat': 38.754155, 'lon': -9.1402852, 'tags': {'addr:city': 'Lisboa', 'addr:housenumber': '9-D;9-E', 'addr:postcode': '1700-230 São João de Brito', 'addr:street': 'Avenida da Igreja', 'amenity': 'pharmacy', 'contact:email': 'zil.lisboa@gmail.com', 'contact:phone': '+351 218 491 780', 'dispensing': 'yes', 'healthcare': 'pharmacy', 'name': 'Farmácia Zil', 'opening_hours': 'Mo-Su 09:00-20:00', 'website': 'https://bairrodasaude.pt/', 'wheelchair': 'limited'}}"
"{'type': 'node', 'id': 1240465067, 'lat': 38.7290369, 'lon': -9.158804, 'tags': {'addr:housenumber': '103', 'addr:postcode': '1099-074 São Sebastião da Pedreira', 'addr:street': 'Rua Rodrigo da Fonseca', 'amenity': 'pharmacy', 'contact:email': 'farmaciaronil@gmail.com', 'contact:phone': '+ 351 213 883 438', 'contact:website': 'https://www.facebook.com/farmacia.ronil', 'dispensing': 'yes', 'healthcare': 'pharmacy', 'name': 'Farmácia Ronil', 'opening_hours': '24/7'}}"
"{'type': 'node', 'id': 1240465069, 'lat': 38.7486484, 'lon': -9.1474451, 'tags': {'addr:housenumber': '14-B2', 'addr:postcode': '1700-180 Campo Grande', 'addr:street': 'Avenida dos Estados Unidos da América', 'amenity': 'pharmacy', 'check_date': '2022-09-07', 'contact:email': 'farmacia.nova.iorque@grupo-holon.pt', 'contact:phone': '+351 217 960 658', 'contact:website': 'http://www.grupo-holon.pt/', 'dispensing': 'yes', 'healthcare': 'pharmacy', 'name': 'Farmácia Nova Iorque', 'wheelchair': 'no'}}"
"{'type': 'node', 'id': 1240465071, 'lat': 38.7218967, 'lon': -9.1458587, 'tags': {'addr:housenumber': '21 Loja A', 'addr:postcode': '1150-278 São José', 'addr:street': 'Rua Rodrigues de Sampaio', 'amenity': 'pharmacy', 'contact:email': 'farmacia.morais.sarmento@grupo-holon.pt', 'contact:phone': '+351 213 546 490', 'contact:website': 'http://www.grupo-holon.pt/', 'dispensing': 'yes', 'healthcare': 'pharmacy', 'name': 'Farmácia Morais Sarmento'}}"
