OSM_Data
"{'type': 'node', 'id': 2075173619, 'lat': -18.2954178, 'lon': -51.144521, 'tags': {'amenity': 'hospital', 'source': 'IBGE'}}"
"{'type': 'node', 'id': 2437697356, 'lat': -17.1479108, 'lon': -49.9899648, 'tags': {'addr:postcode': '75955-000', 'addr:street': 'Rua Simon Bolivar', 'addr:suburb': 'Alto Da Primavera', 'amenity': 'hospital', 'fax': '+55 64 547 1300', 'healthcare': 'hospital', 'name': 'Hospital Municipal de Indiara', 'operator:ref:vatin': 'BR00005959000110', 'phone': '+55 64 547 1300', 'ref:CNES': '2343185'}}"
"{'type': 'node', 'id': 2582670555, 'lat': -17.7943827, 'lon': -50.9173228, 'tags': {'addr:city': 'Rio Verde', 'addr:postcode': '75905-790', 'addr:street': 'Avenida Gerônimo Martins', 'amenity': 'hospital', 'emergency': 'no', 'healthcare': 'hospital', 'name': 'Hospital Municipal de Rio Verde', 'note': 'Local sem número', 'phone': '+55 64 3620-2124', 'wheelchair': 'yes'}}"
"{'type': 'node', 'id': 2953086415, 'lat': -17.7970666, 'lon': -50.9286181, 'tags': {'amenity': 'hospital', 'emergency': 'yes', 'healthcare': 'hospital', 'name': 'Hospital Evangélico de Rio Verde', 'wheelchair': 'limited'}}"
"{'type': 'node', 'id': 3627067962, 'lat': -17.7944491, 'lon': -50.9177333, 'tags': {'amenity': 'pharmacy', 'healthcare': 'pharmacy'}}"
"{'type': 'node', 'id': 3627067964, 'lat': -17.7946004, 'lon': -50.9179074, 'tags': {'amenity': 'pharmacy', 'healthcare': 'pharmacy'}}"
"{'type': 'node', 'id': 4183565276, 'lat': -18.1343844, 'lon': -50.6186176, 'tags': {'amenity': 'clinic', 'name': 'UBS Ouroana'}}"
"{'type': 'node', 'id': 4295033001, 'lat': -18.0896219, 'lon': -50.2148483, 'tags': {'amenity': 'clinic'}}"
"{'type': 'node', 'id': 4445868889, 'lat': -17.7987545, 'lon': -50.9335925, 'tags': {'amenity': 'dentist', 'healthcare': 'dentist'}}"
"{'type': 'node', 'id': 4983903828, 'lat': -18.4511889, 'lon': -50.449623, 'tags': {'amenity': 'pharmacy', 'healthcare': 'pharmacy', 'name': 'Drogaria Santa Maria', 'name:pt': 'Drogaria Santa Maria'}}"
"{'type': 'node', 'id': 4983904025, 'lat': -18.4505783, 'lon': -50.4477715, 'tags': {'amenity': 'pharmacy', 'healthcare': 'pharmacy'}}"
"{'type': 'node', 'id': 4983904029, 'lat': -18.4525632, 'lon': -50.4459185, 'tags': {'addr:city': 'Quirinópolis', 'addr:housenumber': '286', 'addr:postcode': '75860-000', 'addr:street': 'Avenida Rui Barbosa', 'addr:suburb': 'Centro', 'amenity': 'hospital', 'healthcare': 'hospital', 'name': 'Hospital Municipal Antônio Martins da Costa'}}"
"{'type': 'node', 'id': 4983946324, 'lat': -18.4508812, 'lon': -50.4378107, 'tags': {'amenity': 'pharmacy', 'healthcare': 'pharmacy', 'name': 'Drogaria saúde', 'name:pt': 'Drogaria saúde'}}"
"{'type': 'node', 'id': 4983946325, 'lat': -18.4462881, 'lon': -50.4539041, 'tags': {'amenity': 'pharmacy', 'name': 'Farmacia santo Antônio', 'name:pt': 'Farmacia santo Antônio'}}"
"{'type': 'node', 'id': 4983946326, 'lat': -18.4466961, 'lon': -50.4531994, 'tags': {'amenity': 'hospital', 'healthcare': 'hospital', 'name': ""Hospital Nossa Sra D'Abadia"", 'name:pt': ""Hospital Nossa Sra D'Abadia""}}"
"{'type': 'node', 'id': 4983960524, 'lat': -18.4519606, 'lon': -50.4580055, 'tags': {'amenity': 'pharmacy', 'healthcare': 'pharmacy', 'name': 'Drogaria Silva', 'name:pt': 'Drogaria Silva'}}"
"{'type': 'node', 'id': 4983960823, 'lat': -18.4455915, 'lon': -50.4527764, 'tags': {'amenity': 'hospital', 'name': 'Hospital Quirinópolis', 'name:pt': 'Hospital Quirinópolis'}}"
"{'type': 'node', 'id': 4983960824, 'lat': -18.445665, 'lon': -50.452579, 'tags': {'amenity': 'pharmacy', 'name': 'Drogaria Babel', 'name:pt': 'Drogaria Babel'}}"
"{'type': 'node', 'id': 4984013221, 'lat': -18.452623, 'lon': -50.4455099, 'tags': {'amenity': 'pharmacy', 'healthcare': 'pharmacy'}}"
"{'type': 'node', 'id': 4984013222, 'lat': -18.4524724, 'lon': -50.4454424, 'tags': {'amenity': 'pharmacy', 'healthcare': 'pharmacy'}}"
"{'type': 'node', 'id': 4984013223, 'lat': -18.4522406, 'lon': -50.4461179, 'tags': {'amenity': 'pharmacy', 'healthcare': 'pharmacy'}}"
"{'type': 'node', 'id': 4984013321, 'lat': -18.4524414, 'lon': -50.4455346, 'tags': {'amenity': 'pharmacy', 'healthcare': 'pharmacy', 'name': 'Farmacia Gava', 'name:pt': 'Farmacia Gava'}}"
"{'type': 'node', 'id': 4984013421, 'lat': -18.4462218, 'lon': -50.4573035, 'tags': {'addr:postcode': '75860-000', 'addr:street': 'Avenida Lázaro Xavier', 'addr:suburb': 'Centro', 'amenity': 'hospital', 'fax': '+55 62 651 2132', 'healthcare': 'hospital', 'name': 'São Francisco', 'name:pt': 'São Francisco', 'phone': '+55 62 651 1451', 'ref:CNES': '2340593', 'ref:vatin': 'BR37173123013708'}}"
"{'type': 'node', 'id': 4984746025, 'lat': -18.4604384, 'lon': -50.458944, 'tags': {'amenity': 'pharmacy', 'name': 'Posto de saúde', 'name:pt': 'Posto de saúde'}}"
"{'type': 'node', 'id': 4984759026, 'lat': -18.4423382, 'lon': -50.4486054, 'tags': {'amenity': 'pharmacy', 'name': 'Drogaria Vitória', 'name:pt': 'Drogaria Vitória'}}"
"{'type': 'node', 'id': 4984759124, 'lat': -18.4466708, 'lon': -50.4497656, 'tags': {'amenity': 'pharmacy', 'healthcare': 'pharmacy', 'name': 'Farmacia Goyana', 'name:pt': 'Farmacia Goyana'}}"
"{'type': 'node', 'id': 4984759321, 'lat': -18.4469715, 'lon': -50.4519475, 'tags': {'amenity': 'pharmacy', 'healthcare': 'pharmacy', 'name': 'Nacional Farma 24h', 'name:pt': 'Nacional Farma 24h'}}"
"{'type': 'node', 'id': 4984759322, 'lat': -18.4473421, 'lon': -50.4512978, 'tags': {'amenity': 'pharmacy', 'healthcare': 'pharmacy', 'name': 'Drogaria Quirinópolis', 'name:pt': 'Drogaria Quirinópolis'}}"
"{'type': 'node', 'id': 4984759323, 'lat': -18.4491418, 'lon': -50.45201, 'tags': {'amenity': 'pharmacy', 'healthcare': 'pharmacy', 'name': 'Drogaria Arco íris', 'name:pt': 'Drogaria Arco íris'}}"
"{'type': 'node', 'id': 4984760725, 'lat': -18.4647221, 'lon': -50.4572865, 'tags': {'amenity': 'pharmacy', 'name': 'Posto de saude', 'name:pt': 'Posto de saude'}}"
"{'type': 'node', 'id': 4984813921, 'lat': -18.4595807, 'lon': -50.4491845, 'tags': {'amenity': 'pharmacy', 'healthcare': 'pharmacy', 'name': 'Posto de saúde', 'name:pt': 'Posto de saúde'}}"
"{'type': 'node', 'id': 4984813925, 'lat': -18.4518367, 'lon': -50.4445158, 'tags': {'amenity': 'pharmacy', 'healthcare': 'pharmacy'}}"
"{'type': 'node', 'id': 4991018122, 'lat': -18.4402725, 'lon': -50.4461291, 'tags': {'amenity': 'pharmacy', 'name': 'Posto de saude', 'name:pt': 'Posto de saude'}}"
"{'type': 'node', 'id': 4991018221, 'lat': -18.4340436, 'lon': -50.4411, 'tags': {'amenity': 'pharmacy', 'name': 'Posto de saude Chico Preta', 'name:pt': 'Posto de saude Chico Preta'}}"
"{'type': 'node', 'id': 4991018521, 'lat': -18.4372381, 'lon': -50.4475749, 'tags': {'amenity': 'pharmacy', 'name': 'Posto de saude Athaides', 'name:pt': 'Posto de saude Athaides'}}"
"{'type': 'node', 'id': 5290092560, 'lat': -17.140697, 'lon': -49.9863993, 'tags': {'addr:city': 'Indiara', 'addr:postcode': '75955-000', 'addr:street': 'Rua Anabel Vieira dos Santos', 'amenity': 'clinic', 'healthcare': 'clinic', 'healthcare:speciality': 'general', 'name': 'P.S.F. Indiara', 'operator': 'Município'}}"
"{'type': 'node', 'id': 6189735604, 'lat': -17.8173192, 'lon': -50.6053716, 'tags': {'addr:postcode': '75920-000', 'addr:street': 'Avenida Joaquim José Azevedo', 'addr:suburb': 'Lucilene', 'amenity': 'hospital', 'healthcare': 'hospital', 'name': 'Hospital Municipal Santa Helena', 'operator:ref:vatin': 'BR02056711000103', 'phone': '+55 64 3641 8722', 'ref:CNES': '2383209'}}"
"{'type': 'node', 'id': 6846079885, 'lat': -17.8048993, 'lon': -50.5823278, 'tags': {'amenity': 'hospital', 'name': 'HURSO'}}"
"{'type': 'node', 'id': 7480597689, 'lat': -17.7928517, 'lon': -50.9281066, 'tags': {'addr:city': 'Rio Verde', 'addr:housenumber': '296', 'addr:postcode': '75901140', 'addr:street': 'Rua Avelino de Faria', 'addr:suburb': 'Centro', 'amenity': 'dentist', 'healthcare': 'dentist', 'healthcare:speciality': 'dentist', 'name': 'Dra Camilla Nascimento'}}"
"{'type': 'node', 'id': 9727060055, 'lat': -17.7993291, 'lon': -50.9415464, 'tags': {'addr:city': 'Rio Verde', 'addr:street': 'Avenida José Walter', 'addr:suburb': 'Jardim Presidente', 'amenity': 'hospital', 'healthcare': 'hospital', 'name': 'DrogaStore', 'operator': 'Farmácia'}}"
"{'type': 'node', 'id': 10212290937, 'lat': -17.8139663, 'lon': -50.9448426, 'tags': {'amenity': 'dentist', 'healthcare': 'dentist', 'name': 'Arquitetura do Sorriso'}}"
"{'type': 'node', 'id': 10212296648, 'lat': -17.7765126, 'lon': -50.9160468, 'tags': {'addr:city': 'Rio Verde', 'addr:housenumber': '435', 'addr:street': 'Rua 20', 'addr:suburb': 'Bairro Popular', 'amenity': 'dentist', 'healthcare': 'dentist', 'name': 'Sorriso Saúde', 'opening_hours': 'Mo-Fr 08:00-18:00', 'operator': 'Dra Camilla Nascimento'}}"
"{'type': 'node', 'id': 10307366080, 'lat': -17.76409, 'lon': -50.9136681, 'tags': {'amenity': 'clinic', 'name': 'Academia da Saúde'}}"
"{'type': 'node', 'id': 10307371815, 'lat': -17.7641563, 'lon': -50.9140447, 'tags': {'amenity': 'clinic'}}"
"{'type': 'node', 'id': 10310833306, 'lat': -17.7998387, 'lon': -50.9261174, 'tags': {'amenity': 'clinic', 'name': 'Núcleo Saúde e Diagnóstico'}}"
"{'type': 'node', 'id': 10310837399, 'lat': -17.7995501, 'lon': -50.9257389, 'tags': {'amenity': 'clinic', 'name': 'Clínica do Pulmão RespirAr'}}"
"{'type': 'node', 'id': 10310838848, 'lat': -17.7995843, 'lon': -50.9258153, 'tags': {'amenity': 'pharmacy', 'name': 'Drogaria São Sebastião'}}"
"{'type': 'node', 'id': 10310857634, 'lat': -17.7973803, 'lon': -50.9286144, 'tags': {'amenity': 'pharmacy', 'name': 'Rede SanMar'}}"
"{'type': 'node', 'id': 10310860219, 'lat': -17.7969445, 'lon': -50.9279252, 'tags': {'amenity': 'clinic', 'name': 'Atual Ortopedia'}}"
"{'type': 'node', 'id': 10759587064, 'lat': -17.8017744, 'lon': -50.9292904, 'tags': {'addr:city': 'Rio Verde', 'addr:housenumber': '1600', 'addr:postcode': '75906-485', 'addr:street': 'Avenida Eurico Veloso do Carmo', 'addr:suburb': 'Centro', 'amenity': 'hospital', 'healthcare': 'hospital', 'healthcare:speciality': 'ophthalmology', 'name': 'Hospital de Olhos Rio Verde', 'ref:CNES': '7779917', 'ref:vatin': 'BR21497657000186'}}"
