OSM_Data
"{'type': 'node', 'id': 761130089, 'lat': 39.5475064, 'lon': 19.8538231, 'tags': {'addr:city': 'Agios Gordios', 'addr:postcode': '49084', 'amenity': 'doctors', 'email': 'gal722@hotmail.com', 'fax': '(+30) 26610 59023', 'healthcare': 'doctor', 'name': 'Dr S Galanis - 24hr surgery', 'opening_hours': '24/7', 'phone': '(+30) 26610 59001'}}"
"{'type': 'node', 'id': 843338068, 'lat': 39.2850555, 'lon': 20.401032, 'tags': {'amenity': 'doctors', 'healthcare': 'doctor'}}"
"{'type': 'node', 'id': 843338142, 'lat': 39.2846095, 'lon': 20.4022871, 'tags': {'amenity': 'doctors', 'healthcare': 'doctor'}}"
"{'type': 'node', 'id': 843338363, 'lat': 39.2863855, 'lon': 20.398657, 'tags': {'amenity': 'doctors', 'healthcare': 'doctor'}}"
"{'type': 'node', 'id': 1092651219, 'lat': 39.6238173, 'lon': 19.9212518, 'tags': {'amenity': 'pharmacy', 'healthcare': 'pharmacy'}}"
"{'type': 'node', 'id': 1401213217, 'lat': 39.6527892, 'lon': 19.8433304, 'tags': {'amenity': 'doctors', 'healthcare': 'doctor', 'name': 'Dr. Andreas Kalampalikis', 'phone': '+306932532360'}}"
"{'type': 'node', 'id': 1424566094, 'lat': 39.442987, 'lon': 19.9548869, 'tags': {'amenity': 'pharmacy'}}"
"{'type': 'node', 'id': 1433984831, 'lat': 39.5987213, 'lon': 20.3147365, 'tags': {'addr:city': 'Φιλιάτες', 'addr:housenumber': '10', 'addr:postcode': '46300', 'addr:street': 'Πέτρου Μπέπη', 'amenity': 'hospital', 'healthcare': 'hospital', 'name': 'Κέντρο Υγειας Φιλιατών', 'phone': '+302664360222', 'website': 'http://www.gnfiliaton.gr/', 'wikidata': 'Q50036613'}}"
"{'type': 'node', 'id': 1856361209, 'lat': 39.2362238, 'lon': 20.5310535, 'tags': {'amenity': 'pharmacy', 'healthcare': 'pharmacy'}}"
"{'type': 'node', 'id': 1860730555, 'lat': 39.2345446, 'lon': 20.6000542, 'tags': {'amenity': 'pharmacy', 'healthcare': 'pharmacy'}}"
"{'type': 'node', 'id': 1860730568, 'lat': 39.2322614, 'lon': 20.6023877, 'tags': {'amenity': 'dentist', 'healthcare': 'dentist'}}"
"{'type': 'node', 'id': 1860738299, 'lat': 39.2327475, 'lon': 20.6009581, 'tags': {'amenity': 'pharmacy', 'healthcare': 'pharmacy'}}"
"{'type': 'node', 'id': 1860743735, 'lat': 39.2351907, 'lon': 20.599558, 'tags': {'amenity': 'pharmacy', 'healthcare': 'pharmacy'}}"
"{'type': 'node', 'id': 1860743736, 'lat': 39.2353736, 'lon': 20.5992844, 'tags': {'amenity': 'pharmacy', 'healthcare': 'pharmacy'}}"
"{'type': 'node', 'id': 1980644167, 'lat': 39.6777738, 'lon': 19.8387248, 'tags': {'amenity': 'pharmacy', 'check_date': '2024-06-18', 'healthcare': 'pharmacy', 'opening_hours': 'Mo-Fr 09:00-21:00; Sa 09:00-20:00; Su off'}}"
"{'type': 'node', 'id': 1983913624, 'lat': 39.6971877, 'lon': 19.8380717, 'tags': {'check_date': '2024-06-25', 'dispensing': 'no', 'disused:amenity': 'pharmacy', 'healthcare': 'pharmacy'}}"
"{'type': 'node', 'id': 1983913628, 'lat': 39.7055965, 'lon': 19.8429925, 'tags': {'amenity': 'doctors', 'healthcare': 'doctor'}}"
"{'type': 'node', 'id': 2013930822, 'lat': 39.4213447, 'lon': 20.0575878, 'tags': {'amenity': 'pharmacy', 'healthcare': 'pharmacy', 'name': 'Φαρμακείο Κάντας Δημήτριος', 'name:el': 'Φαρμακείο Κάντας Δημήτριος', 'name:en': 'Pharmacy Kantas Dimitrios', 'operator': 'Δημήτριος Κάντας', 'phone': '+302662024714', 'ref:vatin': 'GR044361571'}}"
"{'type': 'node', 'id': 2014441709, 'lat': 39.4226117, 'lon': 20.0621279, 'tags': {'amenity': 'pharmacy', 'healthcare': 'pharmacy', 'name': 'Φαρμακείο Σταματάκος Αλέξανδρος', 'name:el': 'Φαρμακείο Σταματάκος Αλέξανδρος', 'name:en': 'Stamatakos Alexandros Pharmacy', 'phone': '+30 26620 22649', 'ref:vatin': 'GR079563746'}}"
"{'type': 'node', 'id': 2014441770, 'lat': 39.4231795, 'lon': 20.072185, 'tags': {'amenity': 'pharmacy', 'name': 'Κουρής Νικόλαος', 'name:el': 'Κουρής Νικόλαος', 'name:en': 'Kouris Nikolaos', 'phone': '+302662022540'}}"
"{'type': 'node', 'id': 2081390504, 'lat': 39.4210536, 'lon': 20.0475586, 'tags': {'amenity': 'pharmacy', 'name': 'Φαρμακείο Βασίλειος Βάρελης', 'name:el': 'Φαρμακείο Βασίλειος Βάρελης', 'name:en': 'Pharmacy Vasilios Varelis', 'operator': 'Βασίλειος Δημήτριος Βάρελης', 'phone': '+30 26620 24143', 'ref:vatin': 'GR153536929'}}"
"{'type': 'node', 'id': 2178497310, 'lat': 39.4077548, 'lon': 20.2420588, 'tags': {'amenity': 'pharmacy', 'healthcare': 'pharmacy'}}"
"{'type': 'node', 'id': 2292347136, 'lat': 39.5475291, 'lon': 19.9122716, 'tags': {'amenity': 'pharmacy', 'healthcare': 'pharmacy', 'name': 'Pharmacy'}}"
"{'type': 'node', 'id': 2405791969, 'lat': 40.5014775, 'lon': 20.2281256, 'tags': {'amenity': 'hospital', 'check_date': '2024-08-16', 'emergency': 'yes', 'healthcare': 'hospital', 'internet_access': 'no', 'name': 'Spitali i Çorovodës', 'operator:type': 'public', 'payment:cards': 'no', 'payment:cash': 'yes', 'payment:credit_cards': 'no', 'payment:debit_cards': 'no', 'source': 'local knowledge', 'wheelchair': 'limited'}}"
"{'type': 'node', 'id': 2405792111, 'lat': 40.5047642, 'lon': 20.2234837, 'tags': {'amenity': 'pharmacy'}}"
"{'type': 'node', 'id': 2423106431, 'lat': 40.2324798, 'lon': 20.3521487, 'tags': {'amenity': 'pharmacy', 'healthcare': 'pharmacy', 'name': 'Farmaci Bujqesore'}}"
"{'type': 'node', 'id': 2423106576, 'lat': 40.2332353, 'lon': 20.3525657, 'tags': {'amenity': 'pharmacy', 'healthcare': 'pharmacy', 'name': 'Randi', 'opening_hours': 'Mo-Su 10:00-00:00'}}"
"{'type': 'node', 'id': 2423106586, 'lat': 40.2334139, 'lon': 20.3522674, 'tags': {'amenity': 'pharmacy', 'healthcare': 'pharmacy'}}"
"{'type': 'node', 'id': 2423185876, 'lat': 40.2317269, 'lon': 20.3543202, 'tags': {'amenity': 'dentist', 'healthcare': 'dentist', 'name': 'Dentist Piro Dede'}}"
"{'type': 'node', 'id': 2483839478, 'lat': 39.7601059, 'lon': 19.9340544, 'tags': {'amenity': 'pharmacy'}}"
"{'type': 'node', 'id': 2914522612, 'lat': 39.479432, 'lon': 19.9266314, 'tags': {'amenity': 'doctors', 'check_date:opening_hours': '2023-08-27', 'healthcare': 'doctor', 'name': 'Dr. med. Balis. N.S.', 'name:en': 'Dr. med. Balis. N.S.', 'opening_hours:signed': 'no', 'wheelchair': 'yes'}}"
"{'type': 'node', 'id': 2914522622, 'lat': 39.4793842, 'lon': 19.9259941, 'tags': {'amenity': 'clinic', 'healthcare': 'clinic', 'name': 'Primary Health Care', 'phone': '+30-26610-76900'}}"
"{'type': 'node', 'id': 2914523237, 'lat': 39.4800303, 'lon': 19.9251939, 'tags': {'amenity': 'pharmacy', 'healthcare': 'pharmacy'}}"
"{'type': 'node', 'id': 2917643373, 'lat': 39.4745416, 'lon': 19.9121459, 'tags': {'amenity': 'doctors', 'healthcare': 'doctor'}}"
"{'type': 'node', 'id': 2919047844, 'lat': 39.7921925, 'lon': 19.8160055, 'tags': {'amenity': 'doctors', 'healthcare': 'doctor'}}"
"{'type': 'node', 'id': 2919084272, 'lat': 39.7914402, 'lon': 19.8147919, 'tags': {'amenity': 'doctors', 'healthcare': 'doctor'}}"
"{'type': 'node', 'id': 2919084274, 'lat': 39.7914803, 'lon': 19.8157197, 'tags': {'amenity': 'pharmacy', 'healthcare': 'pharmacy'}}"
"{'type': 'node', 'id': 2919535040, 'lat': 39.7905121, 'lon': 19.8128778, 'tags': {'amenity': 'doctors', 'healthcare': 'doctor', 'name': 'Corfumedica', 'opening_hours': '24/7'}}"
"{'type': 'node', 'id': 2919535119, 'lat': 39.788531, 'lon': 19.8053106, 'tags': {'amenity': 'doctors', 'healthcare': 'doctor'}}"
"{'type': 'node', 'id': 3106693751, 'lat': 39.6799376, 'lon': 19.8382292, 'tags': {'amenity': 'doctors', 'healthcare': 'doctor', 'name': 'British Surgery'}}"
"{'type': 'node', 'id': 3140544765, 'lat': 39.6828942, 'lon': 19.7388508, 'tags': {'amenity': 'pharmacy', 'dispensing': 'no', 'name': 'Natasa Kourtelesi'}}"
"{'type': 'node', 'id': 3140544768, 'lat': 39.6834092, 'lon': 19.7467488, 'tags': {'amenity': 'pharmacy', 'dispensing': 'no'}}"
"{'type': 'node', 'id': 4226448491, 'lat': 39.7586373, 'lon': 19.6961113, 'tags': {'addr:street': 'Kounavades', 'amenity': 'clinic', 'description': 'by appointment only', 'email': 'cgrassnick@gmail.com', 'healthcare': 'clinic', 'internet_access': 'wlan', 'name': 'Corfu Naturopathy', 'opening_hours': 'Mo-Sa 10:00-13:00, 15:00-18:00', 'phone': '+306931091551', 'website': 'https://www.greencorfu.com/naturopathy-corfu-colleen-grassnik/'}}"
"{'type': 'node', 'id': 4311384979, 'lat': 39.7911864, 'lon': 19.7080641, 'tags': {'amenity': 'pharmacy', 'healthcare': 'pharmacy'}}"
"{'type': 'node', 'id': 4311410414, 'lat': 39.7828145, 'lon': 19.7449188, 'tags': {'amenity': 'pharmacy', 'healthcare': 'pharmacy'}}"
"{'type': 'node', 'id': 4321403292, 'lat': 40.4523051, 'lon': 19.4975627, 'tags': {'amenity': 'hospital', 'name': 'Spitali Psikiatrik Ali Mihali'}}"
"{'type': 'node', 'id': 4333581393, 'lat': 39.722871, 'lon': 19.7188686, 'tags': {'addr:place': 'Σκριπερό', 'addr:postcode': '49083', 'amenity': 'clinic', 'healthcare': 'clinic', 'name': 'Κεντρο Υγείας Αγίου Αθανασίου - Αγρού', 'name:en': 'Agios Athanasios - Agros Health Center', 'phone': '+302663360300'}}"
"{'type': 'node', 'id': 4347535790, 'lat': 40.0741539, 'lon': 20.1380751, 'tags': {'amenity': 'pharmacy', 'name': 'Bujar Shehu'}}"
"{'type': 'node', 'id': 4348239599, 'lat': 39.792733, 'lon': 19.81689, 'tags': {'amenity': 'doctors', 'healthcare': 'doctor'}}"
"{'type': 'node', 'id': 4349445291, 'lat': 40.0800104, 'lon': 20.1381077, 'tags': {'amenity': 'pharmacy', 'healthcare': 'pharmacy', 'name': 'Sopoti'}}"
"{'type': 'node', 'id': 4360395789, 'lat': 39.753343, 'lon': 20.6488363, 'tags': {'amenity': 'pharmacy', 'healthcare': 'pharmacy', 'name': 'Μπακατσούλας Κων/νος', 'phone': '+30 2658 023444'}}"
"{'type': 'node', 'id': 4375165330, 'lat': 39.7683843, 'lon': 20.0030662, 'tags': {'amenity': 'dentist', 'healthcare': 'dentist'}}"
"{'type': 'node', 'id': 4375407772, 'lat': 39.874496, 'lon': 20.000612, 'tags': {'amenity': 'hospital', 'emergency': 'yes', 'healthcare': 'hospital', 'name': 'Urgjencë', 'name:en': 'Emergency Room'}}"
"{'type': 'node', 'id': 4574706590, 'lat': 39.5921862, 'lon': 19.8206258, 'tags': {'addr:postcode': '49100', 'addr:street': 'Κοκκίνι - Πέλεκας', 'amenity': 'doctors', 'email': 'gmiliosgr@yahoo.com', 'healthcare': 'doctor', 'internet_access': 'wlan', 'name': 'Ιατρείο Γενικής Ιατρικής', 'name:en': 'G.P. Surgery', 'opening_hours': '24/7', 'phone': '+306932161618', 'website': 'http://www.med-gp.com'}}"
"{'type': 'node', 'id': 4792090516, 'lat': 40.1017877, 'lon': 19.7441504, 'tags': {'amenity': 'pharmacy', 'healthcare': 'pharmacy', 'name': 'Farmaci'}}"
"{'type': 'node', 'id': 4804577658, 'lat': 39.5949825, 'lon': 19.8926076, 'tags': {'amenity': 'pharmacy', 'healthcare': 'pharmacy', 'name': 'Dimitris Rizos pharmacy'}}"
"{'type': 'node', 'id': 4811627821, 'lat': 40.3245618, 'lon': 19.4725094, 'tags': {'amenity': 'clinic', 'healthcare': 'clinic', 'name': 'Orikum Clinic', 'name:en': 'Orikum Clinic'}}"
"{'type': 'node', 'id': 5027807322, 'lat': 39.4262181, 'lon': 19.9457041, 'tags': {'amenity': 'doctors', 'healthcare': 'doctor', 'name:en': 'Christos A. Pandis', 'phone': '+302662052900'}}"
"{'type': 'node', 'id': 5045490316, 'lat': 39.7911195, 'lon': 19.7081711, 'tags': {'amenity': 'doctors', 'healthcare': 'doctor', 'healthcare:speciality': 'surgery', 'name': 'Surgery medical service'}}"
"{'type': 'node', 'id': 5045515436, 'lat': 39.7885386, 'lon': 19.9195755, 'tags': {'amenity': 'doctors', 'healthcare': 'doctor'}}"
"{'type': 'node', 'id': 5045515438, 'lat': 39.7886716, 'lon': 19.9201561, 'tags': {'amenity': 'pharmacy', 'healthcare': 'pharmacy'}}"
"{'type': 'node', 'id': 5067021670, 'lat': 39.3702233, 'lon': 20.3006533, 'tags': {'amenity': 'pharmacy', 'healthcare': 'pharmacy'}}"
"{'type': 'node', 'id': 5105952424, 'lat': 40.4761013, 'lon': 19.484421, 'tags': {'amenity': 'pharmacy'}}"
"{'type': 'node', 'id': 5130590524, 'lat': 39.7866826, 'lon': 19.7896376, 'tags': {'amenity': 'pharmacy', 'healthcare': 'pharmacy', 'name': 'Koustas Marios Pharmacy Roda'}}"
"{'type': 'node', 'id': 5130645921, 'lat': 39.7866291, 'lon': 19.7944483, 'tags': {'amenity': 'pharmacy', 'healthcare': 'pharmacy'}}"
"{'type': 'node', 'id': 5163804836, 'lat': 39.5126713, 'lon': 20.2589166, 'tags': {'amenity': 'pharmacy', 'healthcare': 'pharmacy', 'operator': 'Μπαλότσης Γεώργιος'}}"
"{'type': 'node', 'id': 5163804842, 'lat': 39.5000161, 'lon': 20.264112, 'tags': {'amenity': 'pharmacy', 'healthcare': 'pharmacy', 'operator': 'Μπέκιου Σπυριδούλα'}}"
"{'type': 'node', 'id': 5163804847, 'lat': 39.5024659, 'lon': 20.2640108, 'tags': {'amenity': 'pharmacy', 'healthcare': 'pharmacy', 'operator': 'Παππάς Προκόπης'}}"
"{'type': 'node', 'id': 5163804852, 'lat': 39.5079484, 'lon': 20.2631936, 'tags': {'amenity': 'pharmacy', 'healthcare': 'pharmacy', 'operator': 'Κοτίνας Πέτρος'}}"
"{'type': 'node', 'id': 5164082500, 'lat': 39.5051145, 'lon': 20.2642201, 'tags': {'amenity': 'pharmacy', 'healthcare': 'pharmacy', 'operator': 'Κοντός Ιωάννης'}}"
"{'type': 'node', 'id': 5164082511, 'lat': 39.5011268, 'lon': 20.2639511, 'tags': {'amenity': 'pharmacy', 'healthcare': 'pharmacy', 'operator': 'Μάστορας Ξενοφώντας'}}"
"{'type': 'node', 'id': 5166110286, 'lat': 39.5035514, 'lon': 20.2644467, 'tags': {'amenity': 'pharmacy', 'healthcare': 'pharmacy', 'operator': 'Κατσιος Νικολαος'}}"
"{'type': 'node', 'id': 5166110291, 'lat': 39.5038686, 'lon': 20.2646241, 'tags': {'amenity': 'pharmacy', 'healthcare': 'pharmacy', 'operator': 'Μακρίδη Σπυριδούλα'}}"
"{'type': 'node', 'id': 5166110300, 'lat': 39.5016817, 'lon': 20.2647275, 'tags': {'amenity': 'pharmacy', 'healthcare': 'pharmacy', 'operator': 'Κουρή Θεοδώρα'}}"
"{'type': 'node', 'id': 5167819325, 'lat': 39.5030492, 'lon': 20.2641855, 'tags': {'amenity': 'pharmacy', 'healthcare': 'pharmacy', 'operator': 'Ασπιώτης Γεώργιος'}}"
"{'type': 'node', 'id': 5168466754, 'lat': 39.4947499, 'lon': 20.2622775, 'tags': {'amenity': 'pharmacy', 'healthcare': 'pharmacy', 'operator': 'Χαρίση Πανωραία'}}"
"{'type': 'node', 'id': 5168643475, 'lat': 39.5022111, 'lon': 20.2646283, 'tags': {'amenity': 'pharmacy', 'healthcare': 'pharmacy', 'operator': 'Κουφάλας Σπυρίδων'}}"
"{'type': 'node', 'id': 5168643483, 'lat': 39.5018264, 'lon': 20.2641286, 'tags': {'amenity': 'pharmacy', 'healthcare': 'pharmacy', 'operator': 'Λιάκου Έφη'}}"
"{'type': 'node', 'id': 5168643496, 'lat': 39.5028464, 'lon': 20.2648171, 'tags': {'amenity': 'pharmacy', 'healthcare': 'pharmacy', 'operator': 'Νταής Ανδρέας'}}"
"{'type': 'node', 'id': 5221253945, 'lat': 39.8886943, 'lon': 20.6242038, 'tags': {'amenity': 'pharmacy', 'healthcare': 'pharmacy'}}"
"{'type': 'node', 'id': 5264661721, 'lat': 40.2331314, 'lon': 20.3510592, 'tags': {'addr:housenumber': '13', 'addr:postcode': '6400', 'addr:street': 'Rruga Shurkaleci, Lagjia Partizani', 'amenity': 'dentist', 'email': 'redi_xhillari@yahoo.com', 'healthcare': 'dentist', 'internet_access': 'wlan', 'name': 'Klinikë Dentare, Dr Redi Xhillari', 'name:en': 'Dental Clinic, Dr Redi Xhillari', 'opening_hours': 'Mo-Sa 09:00-15:00, 17:00-20:00', 'phone': '+355692164207'}}"
"{'type': 'node', 'id': 5300463481, 'lat': 39.5030373, 'lon': 20.2660124, 'tags': {'amenity': 'doctors', 'healthcare': 'doctor', 'name': 'X-ray διάγνωσις', 'operator': 'Παπαχαραλάμπους Κωνσταντίνος'}}"
"{'type': 'node', 'id': 5300520432, 'lat': 39.5033295, 'lon': 20.2632542, 'tags': {'amenity': 'pharmacy', 'healthcare': 'pharmacy', 'name': 'Παππας Δημητρης'}}"
"{'type': 'node', 'id': 5303724211, 'lat': 39.5020397, 'lon': 20.2660623, 'tags': {'addr:country': 'GR', 'amenity': 'clinic', 'healthcare': 'clinic', 'name': 'ΚΕΠ Υγείας'}}"
"{'type': 'node', 'id': 5310202129, 'lat': 39.4898417, 'lon': 20.261162, 'tags': {'healthcare': 'psychotherapist', 'name': 'Κέντρο ψυχικής υγείας Ηγουμενίτσας'}}"
"{'type': 'node', 'id': 5310408393, 'lat': 39.2344217, 'lon': 20.1366337, 'tags': {'amenity': 'pharmacy', 'healthcare': 'pharmacy'}}"
"{'type': 'node', 'id': 5578002796, 'lat': 39.790742, 'lon': 19.8155635, 'tags': {'amenity': 'hospital', 'healthcare': 'hospital', 'name': 'Ιατρείο Αχαράβης', 'name:el': 'Ιατρείο Αχαράβης', 'phone': '+ 30 26630 64444'}}"
"{'type': 'node', 'id': 5591740635, 'lat': 39.6259999, 'lon': 19.9198891, 'tags': {'addr:city': 'Κέρκυρα', 'addr:housenumber': '7', 'addr:postcode': '49100', 'addr:street': 'Κων. Ζαβιτσιάνου', 'amenity': 'pharmacy', 'healthcare': 'pharmacy', 'name': 'ΚΟΥΡΗ ΜΑΡΙΝΑ', 'opening_hours': 'May 01-Sep 15: Mo-Tu 08:30-14:00,18:00-21:00; We 08:30-14:00; Th-Fr 08:30-14:00,18:00-21:00; Sep 16-Apr 30: Mo-Tu 08:30-14:00,17:30-20:30; We 08:30-14:00; Th-Fr 08:30-14:00,17:30-20:30', 'phone': '+302661 045306'}}"
"{'type': 'node', 'id': 5591907425, 'lat': 40.0848785, 'lon': 20.143571, 'tags': {'amenity': 'pharmacy'}}"
"{'type': 'node', 'id': 5591938821, 'lat': 39.6253325, 'lon': 19.9194865, 'tags': {'addr:city': 'Κέρκυρα', 'addr:housenumber': '2', 'addr:postcode': '49100', 'addr:street': 'Διονυσίου Σολωμού', 'amenity': 'pharmacy', 'healthcare': 'pharmacy', 'name': 'ΧΡΙΣΤΙΝΑ ΠΑΝΔΗ ΚΑΙ ΣΙΑ ΟΕ', 'opening_hours': 'May 01-Sep 15: Mo-Tu 08:30-14:00,18:00-21:00; We 08:30-14:00; Th-Fr 08:30-14:00,18:00-21:00; Sep 16-Apr 30: Mo-Tu 08:30-14:00,17:30-20:30; We 08:30-14:00; Th-Fr 08:30-14:00,17:30-20:30', 'phone': '+302661 039281'}}"
"{'type': 'node', 'id': 5591958991, 'lat': 39.625313, 'lon': 19.9098835, 'tags': {'addr:city': 'Κέρκυρα', 'addr:postcode': '49132', 'addr:street': 'Εθνικής Αντιστάσεως', 'amenity': 'pharmacy', 'healthcare': 'pharmacy', 'name': 'ΠΑΠΙΡΗ ΑΙΚΑΤΕΡΙΝΗ Α.', 'opening_hours': 'May 01-Sep 15: Mo-Tu 08:30-14:00,18:00-21:00; We 08:30-14:00; Th-Fr 08:30-14:00,18:00-21:00; Sep 16-Apr 30: Mo-Tu 08:30-14:00,17:30-20:30; We 08:30-14:00; Th-Fr 08:30-14:00,17:30-20:30', 'phone': '+302661 034603'}}"
"{'type': 'node', 'id': 5591973636, 'lat': 39.6238615, 'lon': 19.9144547, 'tags': {'addr:city': 'Κέρκυρα', 'addr:housenumber': '86', 'addr:postcode': '49100', 'addr:street': 'Ιωάννου Θεοτόκη', 'amenity': 'pharmacy', 'healthcare': 'pharmacy', 'name': 'Γερασιμος Λασκαρης', 'opening_hours': 'May 01-Sep 15: Mo-Tu 08:30-14:00,18:00-21:00; We 08:30-14:00; Th-Fr 08:30-14:00,18:00-21:00; Sep 16-Apr 30: Mo-Tu 08:30-14:00,17:30-20:30; We 08:30-14:00; Th-Fr 08:30-14:00,17:30-20:30', 'phone': '+302661 046686'}}"
"{'type': 'node', 'id': 5591973637, 'lat': 39.6237086, 'lon': 19.9147024, 'tags': {'addr:housenumber': '70', 'addr:street': 'Ιωάννου Θεοτόκη', 'amenity': 'pharmacy', 'healthcare': 'pharmacy', 'name': 'Ειρ.Μ.Αρμενιακου', 'opening_hours': 'May 01-Sep 15: Mo-Tu 08:30-14:00,18:00-21:00; We 08:30-14:00; Th-Fr 08:30-14:00,18:00-21:00; Sep 16-Apr 30: Mo-Tu 08:30-14:00,17:30-20:30; We 08:30-14:00; Th-Fr 08:30-14:00,17:30-20:30', 'phone': '+302661 035177'}}"
"{'type': 'node', 'id': 5591973638, 'lat': 39.6233182, 'lon': 19.9155866, 'tags': {'addr:street': 'Ιωάννου Θεοτόκη', 'amenity': 'pharmacy', 'healthcare': 'pharmacy', 'opening_hours': 'May 01-Sep 15: Mo-Tu 08:30-14:00,18:00-21:00; May 01-Sep 15: We 08:30-14:00; May 01-Sep 15: Th-Fr 08:30-14:00,18:00-21:00; Sep 16-Apr 30: Mo-Tu 08:30-14:00,17:30-20:30; Sep 16-Apr 30: We 08:30-14:00; Sep 16-Apr 30: Th-Fr 08:30-14:00,17:30-20:30'}}"
"{'type': 'node', 'id': 5591986018, 'lat': 39.6226728, 'lon': 19.9165392, 'tags': {'addr:city': 'Κέρκυρα', 'addr:housenumber': '9', 'addr:postcode': '49100', 'addr:street': 'Ιωάννου Θεοτόκη', 'amenity': 'pharmacy', 'healthcare': 'pharmacy', 'name': 'Χρ.Βρεττού-Χρ.Τσιριγγάκη', 'opening_hours': 'May 01-Sep 15: Mo-Tu 08:30-14:00,18:00-21:00; May 01-Sep 15: We 08:30-14:00; May 01-Sep 15: Th-Fr 08:30-14:00,18:00-21:00; Sep 16-Apr 30: Mo-Tu 08:30-14:00,17:30-20:30; Sep 16-Apr 30: We 08:30-14:00; Sep 16-Apr 30: Th-Fr 08:30-14:00,17:30-20:30', 'phone': '+302661 044720'}}"
"{'type': 'node', 'id': 5592122722, 'lat': 39.8744946, 'lon': 20.0091542, 'tags': {'amenity': 'pharmacy'}}"
"{'type': 'node', 'id': 5593796821, 'lat': 39.8759701, 'lon': 20.0039231, 'tags': {'amenity': 'pharmacy', 'name': 'Optik'}}"
"{'type': 'node', 'id': 5766306654, 'lat': 39.5474298, 'lon': 19.9122453, 'tags': {'amenity': 'pharmacy', 'healthcare': 'pharmacy', 'name': 'Μαρία Κοντοστανου', 'name:en': 'Maria Kontostanou'}}"
"{'type': 'node', 'id': 5775611854, 'lat': 39.6236304, 'lon': 19.921058, 'tags': {'amenity': 'pharmacy', 'healthcare': 'pharmacy'}}"
"{'type': 'node', 'id': 5775612757, 'lat': 39.6224752, 'lon': 19.9198405, 'tags': {'amenity': 'pharmacy', 'healthcare': 'pharmacy', 'name': 'Κοσκινά'}}"
"{'type': 'node', 'id': 5775651254, 'lat': 39.6250713, 'lon': 19.921999, 'tags': {'amenity': 'pharmacy', 'healthcare': 'pharmacy'}}"
"{'type': 'node', 'id': 5785928254, 'lat': 39.7892519, 'lon': 19.7879436, 'tags': {'addr:city': 'Ρόδα', 'amenity': 'clinic', 'contact:facebook': 'mastorasmedicalservices', 'email': 'info@mastorasmedicalservices.gr', 'healthcare': 'clinic', 'name': 'Mastoras Medical Services', 'name:el': 'Μάστορας Ιατρικές Υπηρεσίες', 'opening_hours': '24/7', 'phone': '(+30) 26630 63388;(+30) 6946 064581', 'website': 'https://mastorasmedicalservices.gr/'}}"
"{'type': 'node', 'id': 5877983485, 'lat': 40.4420525, 'lon': 19.495349, 'tags': {'amenity': 'pharmacy', 'name': 'Farmaci Farma Vlora 3'}}"
"{'type': 'node', 'id': 5902766056, 'lat': 39.791317, 'lon': 19.8154414, 'tags': {'amenity': 'pharmacy', 'healthcare': 'pharmacy', 'name': 'Pharmacy Κatsora', 'name:el': 'Φαρμεκείο Κατσώρα', 'source': 'survey'}}"
"{'type': 'node', 'id': 5902766064, 'lat': 39.791283, 'lon': 19.8153831, 'tags': {'amenity': 'pharmacy', 'healthcare': 'pharmacy', 'name': 'Pharmacy Kontou', 'name:el': 'Φαρμακείο Κοντού', 'phone': '+30 2663063561', 'source': 'survey'}}"
"{'type': 'node', 'id': 5936869482, 'lat': 39.6559988, 'lon': 19.8404583, 'tags': {'amenity': 'pharmacy', 'healthcare': 'pharmacy'}}"
"{'type': 'node', 'id': 5936922844, 'lat': 39.654768, 'lon': 19.8422521, 'tags': {'amenity': 'doctors', 'healthcare': 'doctor'}}"
"{'type': 'node', 'id': 5982872893, 'lat': 39.6212813, 'lon': 19.9180135, 'tags': {'amenity': 'pharmacy', 'healthcare': 'pharmacy'}}"
"{'type': 'node', 'id': 5993767688, 'lat': 39.5853876, 'lon': 19.9066843, 'tags': {'amenity': 'pharmacy', 'healthcare': 'pharmacy'}}"
"{'type': 'node', 'id': 5993808090, 'lat': 39.5906259, 'lon': 19.8930531, 'tags': {'amenity': 'dentist', 'healthcare': 'dentist'}}"
"{'type': 'node', 'id': 6207520581, 'lat': 39.6215397, 'lon': 19.9168211, 'tags': {'amenity': 'pharmacy', 'dispensing': 'yes', 'healthcare': 'pharmacy', 'name': 'ΠΟΛΕΝΤΑ', 'wheelchair': 'limited'}}"
"{'type': 'node', 'id': 6207525392, 'lat': 39.6217658, 'lon': 19.9173701, 'tags': {'amenity': 'pharmacy', 'dispensing': 'yes', 'healthcare': 'pharmacy'}}"
"{'type': 'node', 'id': 6207525399, 'lat': 39.6216122, 'lon': 19.9176625, 'tags': {'amenity': 'pharmacy', 'dispensing': 'yes', 'healthcare': 'pharmacy'}}"
"{'type': 'node', 'id': 6207722020, 'lat': 39.6219948, 'lon': 19.9184522, 'tags': {'amenity': 'pharmacy', 'dispensing': 'yes', 'healthcare': 'pharmacy', 'name': 'Τσιριγγάκης', 'wheelchair': 'limited'}}"
"{'type': 'node', 'id': 6207722027, 'lat': 39.6221878, 'lon': 19.9178887, 'tags': {'amenity': 'pharmacy', 'dispensing': 'yes', 'healthcare': 'pharmacy', 'name': 'ΓΡΙΜΜΑ-ΜΥΡΙΛΛΑ', 'wheelchair': 'yes'}}"
"{'type': 'node', 'id': 6289129516, 'lat': 39.4660775, 'lon': 20.5101061, 'tags': {'healthcare': 'clinic', 'name': 'Κέντρο Υγείας Παραμυθιάς'}}"
"{'type': 'node', 'id': 6528681185, 'lat': 40.1017791, 'lon': 19.7459387, 'tags': {'amenity': 'pharmacy', 'name': 'Kontrate me'}}"
"{'type': 'node', 'id': 6553860887, 'lat': 39.8745873, 'lon': 20.0022825, 'tags': {'amenity': 'pharmacy', 'name': 'Farmacia Elona Cano', 'name:en': 'Pharmacy Elona Cano', 'name:ru': 'Аптека Elona Cano'}}"
"{'type': 'node', 'id': 6656178318, 'lat': 39.6236342, 'lon': 19.9219288, 'tags': {'amenity': 'pharmacy', 'healthcare': 'pharmacy'}}"
"{'type': 'node', 'id': 6838850516, 'lat': 40.4735774, 'lon': 19.4928205, 'tags': {'addr:street': 'Rruga Perlat Rexhepi', 'amenity': 'pharmacy', 'name': 'Farmaci Evi'}}"
"{'type': 'node', 'id': 6838917693, 'lat': 40.4729354, 'lon': 19.4921011, 'tags': {'addr:street': 'Rruga Perlat Rexhepi', 'amenity': 'pharmacy', 'name': 'Farmaci Valbona'}}"
"{'type': 'node', 'id': 6845368758, 'lat': 40.4565256, 'lon': 19.4870733, 'tags': {'addr:street': 'Rruga Pavarësia', 'amenity': 'dentist', 'healthcare': 'dentist', 'name': 'Eurodent'}}"
"{'type': 'node', 'id': 6845643714, 'lat': 40.467517, 'lon': 19.4911985, 'tags': {'addr:street': 'Rruga Reshat Osmani', 'amenity': 'clinic', 'healthcare': 'clinic', 'name': 'Primus Medical Center'}}"
"{'type': 'node', 'id': 6845643716, 'lat': 40.4659243, 'lon': 19.4908337, 'tags': {'addr:street': 'Rruga Reshat Osmani', 'amenity': 'pharmacy', 'healthcare': 'pharmacy', 'name': 'Farmaci Rita'}}"
"{'type': 'node', 'id': 6845643723, 'lat': 40.4642204, 'lon': 19.489964, 'tags': {'addr:street': 'Rruga Pavarësia', 'amenity': 'dentist', 'healthcare': 'dentist', 'name': 'Grafi Dentare'}}"
"{'type': 'node', 'id': 6845643729, 'lat': 40.4608134, 'lon': 19.4889508, 'tags': {'addr:street': 'Rruga Pavarësia', 'amenity': 'pharmacy', 'healthcare': 'pharmacy', 'name': 'Farmaci'}}"
"{'type': 'node', 'id': 6845643736, 'lat': 40.4576706, 'lon': 19.4879021, 'tags': {'addr:street': 'Rruga Pavarësia', 'amenity': 'pharmacy', 'healthcare': 'pharmacy', 'name': 'Farmaci 8'}}"
"{'type': 'node', 'id': 6848830568, 'lat': 40.45829, 'lon': 19.4826141, 'tags': {'addr:street': 'Rruga Transbalkanika', 'amenity': 'dentist', 'healthcare': 'dentist'}}"
"{'type': 'node', 'id': 6848842889, 'lat': 40.455245, 'lon': 19.4866133, 'tags': {'addr:street': 'Rruga Pavarësia', 'amenity': 'pharmacy', 'healthcare': 'pharmacy'}}"
"{'type': 'node', 'id': 6848890544, 'lat': 40.4744596, 'lon': 19.4952312, 'tags': {'amenity': 'pharmacy', 'name': 'Second hand', 'shop': 'variety_store'}}"
"{'type': 'node', 'id': 6848890550, 'lat': 40.4739107, 'lon': 19.4941248, 'tags': {'addr:street': 'Rruga Ali Demi', 'amenity': 'pharmacy'}}"
"{'type': 'node', 'id': 6860174186, 'lat': 40.4552767, 'lon': 19.4828658, 'tags': {'amenity': 'pharmacy', 'healthcare': 'pharmacy', 'name': 'Arjana'}}"
"{'type': 'node', 'id': 6860174201, 'lat': 40.4581552, 'lon': 19.483074, 'tags': {'amenity': 'dentist', 'healthcare': 'dentist', 'name': 'Media dent'}}"
"{'type': 'node', 'id': 6860174291, 'lat': 40.4566972, 'lon': 19.481873, 'tags': {'amenity': 'dentist', 'healthcare': 'dentist', 'name': 'Klinik Dentare'}}"
"{'type': 'node', 'id': 6860174388, 'lat': 40.457239, 'lon': 19.4872503, 'tags': {'amenity': 'pharmacy', 'healthcare': 'pharmacy', 'name': 'Bora'}}"
"{'type': 'node', 'id': 6860718085, 'lat': 40.4598806, 'lon': 19.482274, 'tags': {'amenity': 'pharmacy', 'healthcare': 'pharmacy'}}"
"{'type': 'node', 'id': 6861399589, 'lat': 40.4666542, 'lon': 19.4911433, 'tags': {'amenity': 'pharmacy', 'healthcare': 'pharmacy'}}"
"{'type': 'node', 'id': 6861399590, 'lat': 40.4669025, 'lon': 19.4904715, 'tags': {'amenity': 'pharmacy', 'healthcare': 'pharmacy'}}"
"{'type': 'node', 'id': 6861407189, 'lat': 40.4541927, 'lon': 19.488267, 'tags': {'amenity': 'pharmacy', 'name': 'Nr. 2'}}"
"{'type': 'node', 'id': 6861407289, 'lat': 40.465094, 'lon': 19.4848861, 'tags': {'amenity': 'dentist', 'healthcare': 'dentist', 'name': 'Green'}}"
"{'type': 'node', 'id': 6861409586, 'lat': 40.467622, 'lon': 19.4913865, 'tags': {'amenity': 'clinic', 'healthcare': 'clinic', 'name': 'Primus Medical Center'}}"
"{'type': 'node', 'id': 6861409685, 'lat': 40.4643264, 'lon': 19.4892021, 'tags': {'amenity': 'pharmacy', 'healthcare': 'pharmacy'}}"
"{'type': 'node', 'id': 6861409885, 'lat': 40.4660542, 'lon': 19.4910553, 'tags': {'amenity': 'pharmacy', 'healthcare': 'pharmacy'}}"
"{'type': 'node', 'id': 6861410285, 'lat': 40.4685368, 'lon': 19.4904632, 'tags': {'amenity': 'pharmacy', 'healthcare': 'pharmacy'}}"
"{'type': 'node', 'id': 6861410288, 'lat': 40.4632973, 'lon': 19.4893502, 'tags': {'amenity': 'pharmacy', 'healthcare': 'pharmacy'}}"
"{'type': 'node', 'id': 6861410290, 'lat': 40.4623131, 'lon': 19.4890448, 'tags': {'amenity': 'pharmacy', 'healthcare': 'pharmacy', 'name': 'Luna'}}"
"{'type': 'node', 'id': 6861410586, 'lat': 40.4653791, 'lon': 19.4900715, 'tags': {'amenity': 'pharmacy', 'healthcare': 'pharmacy', 'name': 'Lule'}}"
"{'type': 'node', 'id': 6861428189, 'lat': 40.4614956, 'lon': 19.4841591, 'tags': {'amenity': 'pharmacy', 'healthcare': 'pharmacy'}}"
"{'type': 'node', 'id': 6861428286, 'lat': 40.4610762, 'lon': 19.4863293, 'tags': {'amenity': 'dentist', 'healthcare': 'dentist'}}"
"{'type': 'node', 'id': 6863514885, 'lat': 40.4668912, 'lon': 19.4859821, 'tags': {'amenity': 'pharmacy', 'healthcare': 'pharmacy'}}"
"{'type': 'node', 'id': 6863519885, 'lat': 40.4674353, 'lon': 19.4882331, 'tags': {'amenity': 'pharmacy', 'healthcare': 'pharmacy'}}"
"{'type': 'node', 'id': 6863519895, 'lat': 40.4711766, 'lon': 19.4883161, 'tags': {'amenity': 'pharmacy', 'healthcare': 'pharmacy', 'name': '11'}}"
"{'type': 'node', 'id': 6863520288, 'lat': 40.4735555, 'lon': 19.4936387, 'tags': {'amenity': 'pharmacy'}}"
"{'type': 'node', 'id': 6863520289, 'lat': 40.4735492, 'lon': 19.4937849, 'tags': {'amenity': 'pharmacy'}}"
"{'type': 'node', 'id': 6863520296, 'lat': 40.4746654, 'lon': 19.4929568, 'tags': {'amenity': 'clinic', 'name': 'Klinika Medic Alb'}}"
"{'type': 'node', 'id': 6863520301, 'lat': 40.4599729, 'lon': 19.4881443, 'tags': {'amenity': 'pharmacy', 'healthcare': 'pharmacy'}}"
"{'type': 'node', 'id': 6863520302, 'lat': 40.457873, 'lon': 19.4876756, 'tags': {'amenity': 'pharmacy', 'healthcare': 'pharmacy'}}"
"{'type': 'node', 'id': 6863520303, 'lat': 40.4578085, 'lon': 19.4878634, 'tags': {'amenity': 'pharmacy', 'healthcare': 'pharmacy'}}"
"{'type': 'node', 'id': 6863520986, 'lat': 40.4739234, 'lon': 19.4941016, 'tags': {'amenity': 'pharmacy'}}"
"{'type': 'node', 'id': 6864756487, 'lat': 40.4607409, 'lon': 19.4804804, 'tags': {'amenity': 'pharmacy', 'healthcare': 'pharmacy'}}"
"{'type': 'node', 'id': 6866329087, 'lat': 40.4648712, 'lon': 19.4820763, 'tags': {'amenity': 'pharmacy', 'healthcare': 'pharmacy'}}"
"{'type': 'node', 'id': 6870927291, 'lat': 39.8746436, 'lon': 20.0016112, 'tags': {'amenity': 'pharmacy', 'healthcare': 'pharmacy'}}"
"{'type': 'node', 'id': 6870927293, 'lat': 39.8742389, 'lon': 20.001496, 'tags': {'amenity': 'pharmacy'}}"
"{'type': 'node', 'id': 6870927294, 'lat': 39.8734646, 'lon': 20.0005938, 'tags': {'amenity': 'pharmacy'}}"
"{'type': 'node', 'id': 6870927387, 'lat': 39.8741298, 'lon': 20.0014934, 'tags': {'amenity': 'pharmacy'}}"
"{'type': 'node', 'id': 6870927388, 'lat': 39.8739752, 'lon': 20.0012798, 'tags': {'amenity': 'clinic', 'name': 'Laborator'}}"
"{'type': 'node', 'id': 6870927587, 'lat': 39.8740443, 'lon': 20.0014111, 'tags': {'amenity': 'pharmacy'}}"
"{'type': 'node', 'id': 6870927588, 'lat': 39.873791, 'lon': 20.0008938, 'tags': {'amenity': 'pharmacy'}}"
"{'type': 'node', 'id': 6870927688, 'lat': 39.8737636, 'lon': 20.0007263, 'tags': {'amenity': 'pharmacy'}}"
"{'type': 'node', 'id': 6870927788, 'lat': 39.8741623, 'lon': 20.0093531, 'tags': {'amenity': 'pharmacy'}}"
"{'type': 'node', 'id': 6872145285, 'lat': 39.8759212, 'lon': 20.0071999, 'tags': {'amenity': 'pharmacy'}}"
"{'type': 'node', 'id': 6872683185, 'lat': 39.8748716, 'lon': 20.0058681, 'tags': {'amenity': 'pharmacy'}}"
"{'type': 'node', 'id': 6872683385, 'lat': 39.8748031, 'lon': 20.0041162, 'tags': {'amenity': 'pharmacy'}}"
"{'type': 'node', 'id': 6873531808, 'lat': 39.8739636, 'lon': 20.0038733, 'tags': {'amenity': 'pharmacy'}}"
"{'type': 'node', 'id': 6873603886, 'lat': 39.8747194, 'lon': 20.0036646, 'tags': {'amenity': 'pharmacy', 'name': 'Elpe'}}"
"{'type': 'node', 'id': 6875038191, 'lat': 40.0828591, 'lon': 20.1431493, 'tags': {'amenity': 'pharmacy'}}"
"{'type': 'node', 'id': 6877456185, 'lat': 40.0803419, 'lon': 20.1445428, 'tags': {'amenity': 'clinic', 'healthcare': 'clinic'}}"
"{'type': 'node', 'id': 6877456187, 'lat': 40.0822797, 'lon': 20.1418372, 'tags': {'amenity': 'pharmacy', 'healthcare': 'pharmacy', 'name': 'Çabeli', 'wheelchair': 'limited'}}"
"{'type': 'node', 'id': 6877457186, 'lat': 40.081375, 'lon': 20.1403202, 'tags': {'amenity': 'pharmacy', 'healthcare': 'pharmacy'}}"
"{'type': 'node', 'id': 6881507720, 'lat': 40.0784751, 'lon': 20.1478358, 'tags': {'amenity': 'dentist', 'healthcare': 'dentist'}}"
"{'type': 'node', 'id': 6881553294, 'lat': 40.0852273, 'lon': 20.1429064, 'tags': {'amenity': 'clinic', 'healthcare': 'clinic', 'name': 'Klinikë mjekësore'}}"
"{'type': 'node', 'id': 6882311786, 'lat': 40.0809854, 'lon': 20.1420817, 'tags': {'amenity': 'dentist', 'healthcare': 'dentist', 'name': 'Dr. Jani. N. Laro'}}"
"{'type': 'node', 'id': 6882312087, 'lat': 40.081059, 'lon': 20.1424714, 'tags': {'amenity': 'pharmacy', 'healthcare': 'pharmacy'}}"
"{'type': 'node', 'id': 7572976787, 'lat': 39.8745989, 'lon': 20.0006499, 'tags': {'amenity': 'hospital', 'healthcare': 'hospital', 'name:en': 'Maternity Center'}}"
"{'type': 'node', 'id': 7729028385, 'lat': 39.8674937, 'lon': 20.0157588, 'tags': {'amenity': 'pharmacy', 'opening_hours': '24/7'}}"
"{'type': 'node', 'id': 7900540485, 'lat': 40.3262437, 'lon': 19.4728534, 'tags': {'amenity': 'pharmacy', 'healthcare': 'pharmacy'}}"
"{'type': 'node', 'id': 7900540586, 'lat': 40.3278496, 'lon': 19.4732207, 'tags': {'amenity': 'dentist', 'healthcare': 'dentist'}}"
"{'type': 'node', 'id': 7900540686, 'lat': 40.3280322, 'lon': 19.4749941, 'tags': {'amenity': 'dentist', 'healthcare': 'dentist'}}"
"{'type': 'node', 'id': 7900540687, 'lat': 40.3277648, 'lon': 19.4727962, 'tags': {'amenity': 'pharmacy', 'healthcare': 'pharmacy'}}"
"{'type': 'node', 'id': 7949054782, 'lat': 40.1014438, 'lon': 19.7444551, 'tags': {'amenity': 'pharmacy'}}"
"{'type': 'node', 'id': 8026487009, 'lat': 40.4531358, 'lon': 19.4871113, 'tags': {'amenity': 'pharmacy'}}"
"{'type': 'node', 'id': 8738234527, 'lat': 40.4605591, 'lon': 19.4696279, 'tags': {'amenity': 'doctors', 'healthcare': 'doctor'}}"
"{'type': 'node', 'id': 8892314246, 'lat': 40.0831332, 'lon': 20.1424064, 'tags': {'amenity': 'pharmacy', 'healthcare': 'pharmacy', 'name': 'Iren'}}"
"{'type': 'node', 'id': 8892320515, 'lat': 40.0830319, 'lon': 20.1413416, 'tags': {'healthcare': 'laboratory'}}"
"{'type': 'node', 'id': 8892353775, 'lat': 40.0834462, 'lon': 20.142258, 'tags': {'healthcare': 'laboratory', 'name': 'Dr. Altini Goxharaj', 'opening_hours': 'Mo-Su 08:00-14:00,17:00-20:00'}}"
"{'type': 'node', 'id': 8892354833, 'lat': 40.0830576, 'lon': 20.1404627, 'tags': {'addr:city': 'Gjirokastër', 'addr:postcode': '6001', 'addr:street': 'Rruga Zeman Haska', 'amenity': 'hospital', 'healthcare': 'hospital', 'name': 'Spitali Amerikan Gjirokastër', 'name:en': 'Amercian Hospital Gjirokastër', 'operator': 'Spitali Amerikan', 'operator:type': 'private', 'phone': '084820400'}}"
"{'type': 'node', 'id': 8892367572, 'lat': 40.0831622, 'lon': 20.1423479, 'tags': {'healthcare': 'laboratory'}}"
"{'type': 'node', 'id': 8892368037, 'lat': 40.0832498, 'lon': 20.1424368, 'tags': {'amenity': 'pharmacy', 'healthcare': 'pharmacy', 'name': 'Shehu'}}"
"{'type': 'node', 'id': 8894160600, 'lat': 39.7549117, 'lon': 19.6461133, 'tags': {'amenity': 'clinic', 'healthcare': 'clinic', 'name': 'St. Stefanos Surgery', 'phone': '+30 956199213'}}"
"{'type': 'node', 'id': 9153931196, 'lat': 40.4551477, 'lon': 19.4838, 'tags': {'amenity': 'pharmacy', 'healthcare': 'pharmacy'}}"
"{'type': 'node', 'id': 9153931209, 'lat': 40.4583207, 'lon': 19.4841182, 'tags': {'amenity': 'dentist', 'healthcare': 'dentist', 'name': 'Erand'}}"
"{'type': 'node', 'id': 9153938231, 'lat': 40.4628873, 'lon': 19.4889823, 'tags': {'amenity': 'pharmacy', 'healthcare': 'pharmacy'}}"
"{'type': 'node', 'id': 9153938451, 'lat': 40.4688469, 'lon': 19.4913744, 'tags': {'amenity': 'dentist', 'healthcare': 'dentist'}}"
"{'type': 'node', 'id': 9153938455, 'lat': 40.4563341, 'lon': 19.4867912, 'tags': {'amenity': 'pharmacy', 'healthcare': 'pharmacy'}}"
"{'type': 'node', 'id': 9153938467, 'lat': 40.4730213, 'lon': 19.492279, 'tags': {'amenity': 'pharmacy'}}"
"{'type': 'node', 'id': 9153939467, 'lat': 40.4664401, 'lon': 19.4904644, 'tags': {'amenity': 'pharmacy', 'healthcare': 'pharmacy'}}"
"{'type': 'node', 'id': 9153942920, 'lat': 40.4675369, 'lon': 19.489849, 'tags': {'amenity': 'pharmacy', 'healthcare': 'pharmacy'}}"
"{'type': 'node', 'id': 9153942929, 'lat': 40.4616533, 'lon': 19.483217, 'tags': {'amenity': 'pharmacy', 'healthcare': 'pharmacy'}}"
"{'type': 'node', 'id': 9153948019, 'lat': 40.4613555, 'lon': 19.4909392, 'tags': {'amenity': 'dentist', 'healthcare': 'dentist'}}"
"{'type': 'node', 'id': 9153948022, 'lat': 40.4607732, 'lon': 19.4927877, 'tags': {'amenity': 'pharmacy'}}"
"{'type': 'node', 'id': 9153948038, 'lat': 40.4760465, 'lon': 19.4982524, 'tags': {'amenity': 'pharmacy'}}"
"{'type': 'node', 'id': 9153949020, 'lat': 40.4630418, 'lon': 19.4858556, 'tags': {'amenity': 'pharmacy', 'healthcare': 'pharmacy'}}"
"{'type': 'node', 'id': 9193330971, 'lat': 40.0323698, 'lon': 20.1768746, 'tags': {'amenity': 'pharmacy', 'healthcare': 'pharmacy'}}"
"{'type': 'node', 'id': 9263206107, 'lat': 39.565909, 'lon': 19.848073, 'tags': {'amenity': 'pharmacy', 'healthcare': 'pharmacy', 'name:signed': 'no'}}"
"{'type': 'node', 'id': 9669925318, 'lat': 39.6250087, 'lon': 19.9211022, 'tags': {'amenity': 'pharmacy', 'healthcare': 'pharmacy'}}"
"{'type': 'node', 'id': 9670076817, 'lat': 39.586955, 'lon': 19.8924033, 'tags': {'amenity': 'pharmacy', 'healthcare': 'pharmacy'}}"
"{'type': 'node', 'id': 9670084318, 'lat': 39.5652715, 'lon': 19.8847711, 'tags': {'amenity': 'pharmacy', 'healthcare': 'pharmacy'}}"
"{'type': 'node', 'id': 9671655817, 'lat': 39.4997317, 'lon': 19.8740749, 'tags': {'amenity': 'doctors', 'healthcare': 'doctor'}}"
"{'type': 'node', 'id': 9671815418, 'lat': 39.4436135, 'lon': 19.9418921, 'tags': {'amenity': 'pharmacy'}}"
"{'type': 'node', 'id': 9671838318, 'lat': 39.4153777, 'lon': 20.0193034, 'tags': {'amenity': 'pharmacy'}}"
"{'type': 'node', 'id': 9671850617, 'lat': 39.3788637, 'lon': 20.1145569, 'tags': {'amenity': 'doctors', 'healthcare': 'doctor', 'name:en': 'Corfu Medical Service'}}"
"{'type': 'node', 'id': 9671850817, 'lat': 39.3819516, 'lon': 20.116076, 'tags': {'amenity': 'doctors', 'healthcare': 'doctor', 'name': 'Surgery', 'opening_hours': 'PH,Mo-Su 06:00-18:00'}}"
"{'type': 'node', 'id': 9671876517, 'lat': 39.3847487, 'lon': 20.1130281, 'tags': {'amenity': 'doctors', 'healthcare': 'doctor'}}"
"{'type': 'node', 'id': 9671877117, 'lat': 39.3895961, 'lon': 20.1074986, 'tags': {'amenity': 'doctors', 'healthcare': 'doctor'}}"
"{'type': 'node', 'id': 9671936919, 'lat': 39.4216222, 'lon': 20.0574373, 'tags': {'amenity': 'doctors', 'healthcare': 'doctor', 'healthcare:speciality': 'surgery', 'name': 'Νικόλαος Πολίτης', 'name:en': 'Nikolaos Politis', 'phone': '+302662024904'}}"
"{'type': 'node', 'id': 9671959617, 'lat': 39.4223494, 'lon': 20.0419782, 'tags': {'amenity': 'doctors', 'healthcare': 'doctor', 'healthcare:speciality': 'cardiology', 'name': 'Καρδιολογικό Ιατρείο'}}"
"{'type': 'node', 'id': 9672072717, 'lat': 39.485593, 'lon': 19.9248073, 'tags': {'amenity': 'pharmacy', 'healthcare': 'pharmacy', 'name:signed': 'no', 'opening_hours': 'Mo-Sa 08:30-21:30'}}"
"{'type': 'node', 'id': 9673792420, 'lat': 39.6612705, 'lon': 19.8383122, 'tags': {'amenity': 'pharmacy', 'healthcare': 'pharmacy'}}"
"{'type': 'node', 'id': 9674318021, 'lat': 39.7267546, 'lon': 19.9049301, 'tags': {'amenity': 'doctors', 'healthcare': 'doctor'}}"
"{'type': 'node', 'id': 9674318418, 'lat': 39.7878468, 'lon': 19.9206665, 'tags': {'amenity': 'doctors', 'healthcare': 'doctor'}}"
"{'type': 'node', 'id': 9674320317, 'lat': 39.7874845, 'lon': 19.9196678, 'tags': {'amenity': 'doctors', 'healthcare': 'doctor'}}"
"{'type': 'node', 'id': 9674321124, 'lat': 39.644859, 'lon': 19.8557029, 'tags': {'amenity': 'pharmacy', 'healthcare': 'pharmacy', 'name': 'Αλεξάκη Αναστασία'}}"
"{'type': 'node', 'id': 9674321222, 'lat': 39.644081, 'lon': 19.8528638, 'tags': {'amenity': 'pharmacy', 'healthcare': 'pharmacy'}}"
"{'type': 'node', 'id': 9674890519, 'lat': 39.6098619, 'lon': 19.8995232, 'tags': {'amenity': 'pharmacy', 'healthcare': 'pharmacy'}}"
"{'type': 'node', 'id': 9674890717, 'lat': 39.6107745, 'lon': 19.9031218, 'tags': {'amenity': 'pharmacy', 'healthcare': 'pharmacy'}}"
"{'type': 'node', 'id': 9676871118, 'lat': 39.6734189, 'lon': 19.7175244, 'tags': {'amenity': 'doctors', 'healthcare': 'doctor', 'name': 'British GP', 'name:en': 'British GP'}}"
"{'type': 'node', 'id': 9677741017, 'lat': 39.7902104, 'lon': 19.7092388, 'tags': {'amenity': 'doctors', 'healthcare': 'doctor'}}"
"{'type': 'node', 'id': 9677741217, 'lat': 39.7841863, 'lon': 19.7081435, 'tags': {'amenity': 'pharmacy', 'healthcare': 'pharmacy'}}"
"{'type': 'node', 'id': 9677741219, 'lat': 39.724405, 'lon': 19.7213277, 'tags': {'amenity': 'pharmacy'}}"
"{'type': 'node', 'id': 9677741419, 'lat': 39.71978, 'lon': 19.7253576, 'tags': {'amenity': 'pharmacy'}}"
"{'type': 'node', 'id': 9679575117, 'lat': 39.5905656, 'lon': 19.8935141, 'tags': {'amenity': 'pharmacy', 'healthcare': 'pharmacy'}}"
"{'type': 'node', 'id': 9679575417, 'lat': 39.5934401, 'lon': 19.8925249, 'tags': {'amenity': 'pharmacy', 'healthcare': 'pharmacy'}}"
"{'type': 'node', 'id': 9682088217, 'lat': 39.6171998, 'lon': 19.8194901, 'tags': {'amenity': 'pharmacy', 'healthcare': 'pharmacy'}}"
"{'type': 'node', 'id': 9682269517, 'lat': 39.7210546, 'lon': 19.7451443, 'tags': {'amenity': 'pharmacy'}}"
"{'type': 'node', 'id': 9687251917, 'lat': 39.6070586, 'lon': 19.8951091, 'tags': {'amenity': 'pharmacy', 'healthcare': 'pharmacy'}}"
"{'type': 'node', 'id': 9802563884, 'lat': 40.0617961, 'lon': 19.857204, 'tags': {'amenity': 'pharmacy', 'check_date': '2024-09-02', 'name': ""Ema's Pharmacy"", 'payment:cash': 'yes', 'payment:mastercard': 'yes', 'payment:visa_debit': 'yes'}}"
"{'type': 'node', 'id': 9814088858, 'lat': 40.0141192, 'lon': 20.5595363, 'tags': {'amenity': 'pharmacy', 'healthcare': 'pharmacy'}}"
"{'type': 'node', 'id': 9817519835, 'lat': 40.1520977, 'lon': 20.598586, 'tags': {'amenity': 'pharmacy', 'healthcare': 'pharmacy'}}"
"{'type': 'node', 'id': 9841435667, 'lat': 39.6227692, 'lon': 20.1927728, 'tags': {'amenity': 'pharmacy', 'healthcare': 'pharmacy'}}"
"{'type': 'node', 'id': 9841446262, 'lat': 39.6148783, 'lon': 20.2221233, 'tags': {'amenity': 'pharmacy', 'healthcare': 'pharmacy'}}"
"{'type': 'node', 'id': 9925597147, 'lat': 39.2348934, 'lon': 20.5319234, 'tags': {'amenity': 'pharmacy', 'healthcare': 'pharmacy'}}"
"{'type': 'node', 'id': 9939545920, 'lat': 39.7676723, 'lon': 19.99934, 'tags': {'description': 'Open in summer only (July until 15 September)', 'healthcare': 'nurse', 'name': 'Qëndra shëndetesore verore', 'opening_hours': '24/7', 'operator:type': 'public', 'phone': '+355688066417', 'seasonal': 'yes', 'website': 'https://www.shendetesia.gov.al/'}}"
"{'type': 'node', 'id': 9939829727, 'lat': 39.8607514, 'lon': 20.5675001, 'tags': {'amenity': 'pharmacy', 'healthcare': 'pharmacy'}}"
"{'type': 'node', 'id': 9944902088, 'lat': 40.0817142, 'lon': 20.1411983, 'tags': {'amenity': 'pharmacy', 'healthcare': 'pharmacy', 'phone': '084268408'}}"
"{'type': 'node', 'id': 9944902093, 'lat': 40.0826071, 'lon': 20.1425184, 'tags': {'healthcare': 'laboratory', 'name': 'Exetasis', 'phone': '084269669', 'website': 'https://www.exetasis.com/'}}"
"{'type': 'node', 'id': 9945148783, 'lat': 40.0799619, 'lon': 20.1381573, 'tags': {'amenity': 'pharmacy', 'healthcare': 'pharmacy', 'name': 'G.S.V'}}"
"{'type': 'node', 'id': 9945653714, 'lat': 40.0810721, 'lon': 20.1472188, 'tags': {'healthcare': 'speech_therapist', 'name': 'Luka Telo Todhri', 'phone': '+355 69 394 0291'}}"
"{'type': 'node', 'id': 9947265272, 'lat': 40.0795996, 'lon': 20.1375191, 'tags': {'amenity': 'clinic', 'healthcare': 'clinic', 'name': 'Qendra Shëndetësore Gjirokastër'}}"
"{'type': 'node', 'id': 9947842306, 'lat': 40.0832578, 'lon': 20.1422301, 'tags': {'healthcare': 'laboratory', 'name': 'Odisea'}}"
"{'type': 'node', 'id': 9949597335, 'lat': 40.0815324, 'lon': 20.1406722, 'tags': {'amenity': 'dentist', 'healthcare': 'dentist', 'name': 'Xhuvani'}}"
"{'type': 'node', 'id': 9949597337, 'lat': 40.0804604, 'lon': 20.1390232, 'tags': {'amenity': 'dentist', 'healthcare': 'dentist', 'name': 'P. Dhima'}}"
"{'type': 'node', 'id': 9954734760, 'lat': 39.8750127, 'lon': 20.0085832, 'tags': {'amenity': 'dentist', 'healthcare': 'dentist', 'name': 'Dr. Eda Jorgi', 'phone': '+355 69 224 9820'}}"
"{'type': 'node', 'id': 9954734766, 'lat': 39.8751176, 'lon': 20.0077627, 'tags': {'amenity': 'dentist', 'healthcare': 'dentist'}}"
"{'type': 'node', 'id': 9956381301, 'lat': 39.8741064, 'lon': 20.0112461, 'tags': {'amenity': 'doctors', 'healthcare': 'doctor', 'healthcare:speciality': 'gynaecology', 'name': 'Aleks Pando'}}"
"{'type': 'node', 'id': 9956425342, 'lat': 39.6218627, 'lon': 19.9113505, 'tags': {'amenity': 'pharmacy', 'healthcare': 'pharmacy'}}"
"{'type': 'node', 'id': 9956892720, 'lat': 39.6526315, 'lon': 19.8427491, 'tags': {'amenity': 'doctors', 'healthcare': 'doctor', 'healthcare:speciality': 'general', 'name': 'British Surgery', 'phone': '+30 2661 097811'}}"
"{'type': 'node', 'id': 9956936756, 'lat': 39.644076, 'lon': 19.8532069, 'tags': {'amenity': 'pharmacy', 'healthcare': 'pharmacy'}}"
"{'type': 'node', 'id': 9957025818, 'lat': 39.6448558, 'lon': 19.8539839, 'tags': {'amenity': 'doctors', 'healthcare': 'doctor', 'name': 'Med Hall', 'phone': '+302661770265', 'website': 'https://www.medhallcorfu.gr/'}}"
"{'type': 'node', 'id': 9959121310, 'lat': 39.6214364, 'lon': 19.9137018, 'tags': {'amenity': 'pharmacy', 'healthcare': 'pharmacy', 'wheelchair': 'no'}}"
"{'type': 'node', 'id': 9959194229, 'lat': 39.6226272, 'lon': 19.9102798, 'tags': {'amenity': 'pharmacy', 'healthcare': 'pharmacy'}}"
"{'type': 'node', 'id': 10035625686, 'lat': 40.0801788, 'lon': 20.1396334, 'tags': {'amenity': 'dentist', 'healthcare': 'dentist', 'name': 'Dr. Spiro Hashoti'}}"
"{'type': 'node', 'id': 10066778320, 'lat': 39.7920601, 'lon': 19.7015718, 'tags': {'amenity': 'clinic'}}"
"{'type': 'node', 'id': 10066778321, 'lat': 39.7920816, 'lon': 19.7016633, 'tags': {'amenity': 'pharmacy'}}"
"{'type': 'node', 'id': 10067565066, 'lat': 39.4368907, 'lon': 19.976061, 'tags': {'amenity': 'pharmacy', 'dispensing': 'yes', 'healthcare': 'pharmacy'}}"
"{'type': 'node', 'id': 10068597417, 'lat': 39.6236439, 'lon': 19.9214148, 'tags': {'amenity': 'pharmacy', 'healthcare': 'pharmacy'}}"
"{'type': 'node', 'id': 10200922634, 'lat': 40.1016033, 'lon': 19.7465636, 'tags': {'addr:city': 'Himare', 'addr:street': 'Rruga Jorgji Bollano', 'healthcare': 'dentist', 'phone': '+355696705798'}}"
"{'type': 'node', 'id': 11352535884, 'lat': 40.4607638, 'lon': 19.4874239, 'tags': {'amenity': 'dentist', 'contact:instagram': 'https://www.instagram.com/firenze_dental_vlore/', 'healthcare': 'dentist', 'name': 'Firenze Dental', 'opening_hours': 'Mo-Sa 09:00-19:00', 'phone': '+355 69 87 14 569', 'website': 'https://firenzedental.al'}}"
"{'type': 'node', 'id': 11396005217, 'lat': 39.4960975, 'lon': 20.2739896, 'tags': {'amenity': 'pharmacy', 'name': 'Pharmacy'}}"
"{'type': 'node', 'id': 11500647280, 'lat': 39.4216399, 'lon': 20.0574786, 'tags': {'healthcare': 'laboratory', 'name': 'Μικροβιολογικό Εργαστήριο Μαγκανάρη Μαρία', 'phone': '+302662025325'}}"
"{'type': 'node', 'id': 11533748043, 'lat': 39.4229856, 'lon': 20.0719517, 'tags': {'healthcare': 'physiotherapist', 'name': 'Φωτεινή Δοκανάρι', 'name:en': 'Fotini Dokanari', 'phone': '+302662024515'}}"
"{'type': 'node', 'id': 11534643573, 'lat': 39.4200816, 'lon': 20.0487587, 'tags': {'contact:instagram': 'changeat_nutritioncenter', 'healthcare': 'nutrition_counselling', 'name': 'ChangEat', 'name:en': 'ChangEat', 'phone': '+306978015201'}}"
"{'type': 'node', 'id': 12117224493, 'lat': 40.0529226, 'lon': 19.8263262, 'tags': {'healthcare': 'yes', 'name': 'Qendra Shëndetësore Verore Qeparo', 'name:en': 'Summer Healthe Care Center', 'name:fr': 'Centre de Soins de Santé Estival de Qeparo', 'phone': '+355 68 806 6415', 'website': 'https://oshksh.gov.al/'}}"
"{'type': 'node', 'id': 12122829482, 'lat': 39.4216683, 'lon': 20.0575402, 'tags': {'amenity': 'doctors', 'healthcare': 'doctor', 'healthcare:speciality': 'otolaryngology', 'mobile': '+306936311925', 'name': 'Ευδοξία Χαλιδιά', 'name:el': 'Ευδοξία Χαλιδιά', 'name:en': 'Evdoxia Chalidia'}}"
"{'type': 'node', 'id': 12122829483, 'lat': 39.4216854, 'lon': 20.0575805, 'tags': {'amenity': 'doctors', 'healthcare': 'doctor', 'healthcare:speciality': 'pulmonology', 'mobile': '+306977441348', 'name': 'Αλέξανδρος Καββαδίας', 'name:el': 'Αλέξανδρος Καββαδίας', 'name:en': 'Alexandros Kavvadias', 'phone': '+302662022030'}}"
"{'type': 'node', 'id': 12201165585, 'lat': 39.2853559, 'lon': 20.4012206, 'tags': {'amenity': 'pharmacy'}}"
"{'type': 'node', 'id': 12201165600, 'lat': 39.2995858, 'lon': 20.373835, 'tags': {'amenity': 'pharmacy'}}"
"{'type': 'node', 'id': 12231215465, 'lat': 39.2853086, 'lon': 20.4012351, 'tags': {'addr:housenumber': '6', 'addr:street': 'Livada Spirou', 'amenity': 'pharmacy', 'name': 'Φαρμακείο', 'phone': '+30 268403 1195'}}"
"{'type': 'node', 'id': 12246810572, 'lat': 39.4232487, 'lon': 20.0650477, 'tags': {'contact:phone': '+306970219383', 'healthcare': 'physiotherapist', 'int_name': 'Menelaos M. Chrysikopoulos', 'name': 'Μενέλαος Μ. Χρυσικόπουλος', 'name:el': 'Μενέλαος Μ. Χρυσικόπουλος'}}"
"{'type': 'node', 'id': 12251226015, 'lat': 39.4217367, 'lon': 20.0609634, 'tags': {'amenity': 'doctors', 'healthcare': 'doctor', 'healthcare:speciality': 'pathology', 'int_name': 'Chrysoula I. Kanta', 'mobile': '+306932300965', 'name': 'Χρυσούλα Ι. Κάντα', 'name:el': 'Χρυσούλα Ι. Κάντα', 'phone': '+302662022209'}}"
