OSM_Data
"{'type': 'node', 'id': 492635628, 'lat': -21.1856911, 'lon': -47.8084557, 'tags': {'amenity': 'hospital', 'healthcare': 'hospital', 'name': 'Hospital das Clinicas UE'}}"
"{'type': 'node', 'id': 1375397086, 'lat': -20.5325092, 'lon': -47.396341, 'tags': {'amenity': 'pharmacy', 'brand': 'Drogaria São Paulo', 'brand:wikidata': 'Q5308184', 'healthcare': 'pharmacy', 'name': 'Drogaria São Paulo'}}"
"{'type': 'node', 'id': 1661231947, 'lat': -21.7973048, 'lon': -48.1732352, 'tags': {'amenity': 'pharmacy', 'healthcare': 'pharmacy', 'name': 'DrogaVen', 'opening_hours': 'Mo-Su 07:30-23:00'}}"
"{'type': 'node', 'id': 1680866339, 'lat': -21.1697054, 'lon': -47.8049574, 'tags': {'amenity': 'hospital', 'healthcare': 'hospital', 'name': 'SUS Ambulatório de Geriatria', 'operator': 'Sistema Único de Saúde', 'operator:short': 'SUS', 'operator:wikidata': 'Q7531056'}}"
"{'type': 'node', 'id': 1835919794, 'lat': -21.4047389, 'lon': -48.5043263, 'tags': {'amenity': 'hospital', 'emergency': 'yes', 'healthcare': 'hospital', 'name': 'Santa Casa de Misericórdia de Taquaritinga'}}"
"{'type': 'node', 'id': 1835919814, 'lat': -21.4050086, 'lon': -48.5046053, 'tags': {'amenity': 'hospital', 'emergency': 'yes', 'healthcare': 'hospital', 'name': 'Pronto Atendimento Santa Casa/UNIMED'}}"
"{'type': 'node', 'id': 1836081788, 'lat': -21.4023588, 'lon': -48.4973144, 'tags': {'amenity': 'hospital', 'emergency': 'yes', 'healthcare': 'hospital', 'name': 'Unidade Pronto Atendimento Municipal'}}"
"{'type': 'node', 'id': 1836083587, 'lat': -21.4091911, 'lon': -48.5023676, 'tags': {'amenity': 'pharmacy', 'healthcare': 'pharmacy'}}"
"{'type': 'node', 'id': 1836083588, 'lat': -21.4085519, 'lon': -48.5096525, 'tags': {'amenity': 'pharmacy', 'healthcare': 'pharmacy'}}"
"{'type': 'node', 'id': 1836083595, 'lat': -21.408896, 'lon': -48.5028075, 'tags': {'amenity': 'pharmacy', 'healthcare': 'pharmacy'}}"
"{'type': 'node', 'id': 1836083597, 'lat': -21.4088168, 'lon': -48.503687, 'tags': {'amenity': 'pharmacy', 'healthcare': 'pharmacy'}}"
"{'type': 'node', 'id': 1836083599, 'lat': -21.409336, 'lon': -48.4997391, 'tags': {'amenity': 'pharmacy', 'healthcare': 'pharmacy'}}"
"{'type': 'node', 'id': 2199809755, 'lat': -21.6056713, 'lon': -48.368319, 'tags': {'amenity': 'hospital', 'healthcare': 'hospital', 'name': 'Hospital Carlos Fernando Malzoni'}}"
"{'type': 'node', 'id': 2199815722, 'lat': -21.6013032, 'lon': -48.3642326, 'tags': {'amenity': 'pharmacy', 'healthcare': 'pharmacy'}}"
"{'type': 'node', 'id': 2199852995, 'lat': -21.6024519, 'lon': -48.3650999, 'tags': {'addr:housenumber': '949', 'addr:street': 'Avenida 15 de Novembro', 'amenity': 'pharmacy', 'brand': 'Droga Raia', 'brand:wikidata': 'Q10357101', 'healthcare': 'pharmacy', 'name': 'Droga Raia', 'website': 'https://www.drogaraia.com.br/'}}"
"{'type': 'node', 'id': 2284285986, 'lat': -20.7299718, 'lon': -47.7510897, 'tags': {'amenity': 'pharmacy', 'name': 'Farmacia Santa Rita'}}"
"{'type': 'node', 'id': 2284285990, 'lat': -20.7304163, 'lon': -47.7517985, 'tags': {'amenity': 'pharmacy'}}"
"{'type': 'node', 'id': 2284285994, 'lat': -20.7305743, 'lon': -47.7521177, 'tags': {'amenity': 'pharmacy'}}"
"{'type': 'node', 'id': 2406378814, 'lat': -21.2117037, 'lon': -47.8114454, 'tags': {'addr:city': 'Ribeirão Preto', 'addr:housenumber': '1685', 'addr:postcode': '14020-620', 'addr:street': 'Rua Galileu Galilei', 'addr:suburb': 'Jardim Canada', 'amenity': 'dentist', 'healthcare': 'dentist', 'healthcare:speciality': 'dental_oral_maxillo_facial_surgery;orthodontics', 'name': 'Clínica Vicentini'}}"
"{'type': 'node', 'id': 2429432928, 'lat': -21.1814379, 'lon': -47.8060177, 'tags': {'addr:housenumber': '1112', 'addr:street': 'Rua Florêncio de Abreu', 'amenity': 'pharmacy', 'healthcare': 'pharmacy', 'name': 'Farmácia Homeocenter', 'phone': '+55 16 2101-5497', 'website': 'https://homeocenter.com.br/'}}"
"{'type': 'node', 'id': 2443797859, 'lat': -21.789679, 'lon': -48.1764203, 'tags': {'amenity': 'pharmacy', 'dispensing': 'no', 'healthcare': 'pharmacy', 'name': 'Drograria Extra'}}"
"{'type': 'node', 'id': 2494933609, 'lat': -20.732601, 'lon': -47.7522596, 'tags': {'amenity': 'hospital'}}"
"{'type': 'node', 'id': 2894323221, 'lat': -21.7291129, 'lon': -48.103613, 'tags': {'amenity': 'pharmacy', 'name': 'Droga Ven'}}"
"{'type': 'node', 'id': 2965178997, 'lat': -20.5267606, 'lon': -47.3822579, 'tags': {'amenity': 'pharmacy'}}"
"{'type': 'node', 'id': 2965414030, 'lat': -20.5395478, 'lon': -47.389181, 'tags': {'amenity': 'pharmacy', 'dispensing': 'yes', 'healthcare': 'pharmacy'}}"
"{'type': 'node', 'id': 2967696601, 'lat': -20.5384591, 'lon': -47.3994968, 'tags': {'amenity': 'pharmacy'}}"
"{'type': 'node', 'id': 2967696736, 'lat': -20.5381969, 'lon': -47.3999919, 'tags': {'amenity': 'pharmacy', 'healthcare': 'pharmacy'}}"
"{'type': 'node', 'id': 2967696750, 'lat': -20.5464166, 'lon': -47.4000256, 'tags': {'amenity': 'pharmacy'}}"
"{'type': 'node', 'id': 3023103024, 'lat': -20.5428807, 'lon': -47.4228189, 'tags': {'amenity': 'pharmacy', 'healthcare': 'pharmacy', 'name': 'Drogafarma'}}"
"{'type': 'node', 'id': 3023103025, 'lat': -20.540991, 'lon': -47.423435, 'tags': {'amenity': 'pharmacy'}}"
"{'type': 'node', 'id': 3024791343, 'lat': -20.5425089, 'lon': -47.3876561, 'tags': {'amenity': 'pharmacy'}}"
"{'type': 'node', 'id': 3039537735, 'lat': -21.1139224, 'lon': -47.794838, 'tags': {'amenity': 'clinic', 'name': 'Unidade Básica de Saúde', 'short_name': 'UBS'}}"
"{'type': 'node', 'id': 3045885437, 'lat': -20.5360015, 'lon': -47.3645244, 'tags': {'amenity': 'pharmacy'}}"
"{'type': 'node', 'id': 3045885463, 'lat': -20.5301637, 'lon': -47.367833, 'tags': {'amenity': 'pharmacy'}}"
"{'type': 'node', 'id': 3045885496, 'lat': -20.5255461, 'lon': -47.3692985, 'tags': {'amenity': 'pharmacy'}}"
"{'type': 'node', 'id': 3045885498, 'lat': -20.5270719, 'lon': -47.3690462, 'tags': {'amenity': 'pharmacy'}}"
"{'type': 'node', 'id': 3045885511, 'lat': -20.5256735, 'lon': -47.3710385, 'tags': {'amenity': 'pharmacy'}}"
"{'type': 'node', 'id': 3045885551, 'lat': -20.5173495, 'lon': -47.3722582, 'tags': {'amenity': 'pharmacy'}}"
"{'type': 'node', 'id': 3048013825, 'lat': -20.5372313, 'lon': -47.3998103, 'tags': {'amenity': 'pharmacy', 'healthcare': 'pharmacy'}}"
"{'type': 'node', 'id': 3048013842, 'lat': -20.5365442, 'lon': -47.3964952, 'tags': {'amenity': 'pharmacy', 'healthcare': 'pharmacy'}}"
"{'type': 'node', 'id': 3048013843, 'lat': -20.5381772, 'lon': -47.4003008, 'tags': {'amenity': 'pharmacy', 'healthcare': 'pharmacy'}}"
"{'type': 'node', 'id': 3048013844, 'lat': -20.5387639, 'lon': -47.39722, 'tags': {'amenity': 'pharmacy', 'healthcare': 'pharmacy'}}"
"{'type': 'node', 'id': 3048293141, 'lat': -20.5262961, 'lon': -47.380074, 'tags': {'amenity': 'pharmacy'}}"
"{'type': 'node', 'id': 3048293142, 'lat': -20.5264834, 'lon': -47.3782938, 'tags': {'amenity': 'pharmacy'}}"
"{'type': 'node', 'id': 3048376175, 'lat': -20.5382721, 'lon': -47.4007208, 'tags': {'addr:housenumber': '1760', 'addr:postcode': '14400-760', 'addr:street': 'Rua Major Claudiano', 'amenity': 'pharmacy', 'brand': 'Droga Raia', 'brand:wikidata': 'Q10357101', 'brand:wikipedia': 'pt:RaiaDrogasil', 'healthcare': 'pharmacy', 'name': 'Droga Raia', 'name:en': 'Droga Raia Pharmacy', 'name:pt': 'Droga Raia', 'opening_hours': 'Mo-Su 07:00-23:00', 'phone': '1637223432', 'website': 'https://www.raia.com.br/'}}"
"{'type': 'node', 'id': 3050920117, 'lat': -20.5324641, 'lon': -47.3983556, 'tags': {'amenity': 'pharmacy'}}"
"{'type': 'node', 'id': 3050929567, 'lat': -21.176138, 'lon': -47.7911808, 'tags': {'amenity': 'clinic', 'emergency': 'yes', 'healthcare': 'clinic', 'name': 'Unidade de Pronto Atendimento', 'short_name': 'UPA'}}"
"{'type': 'node', 'id': 3071265142, 'lat': -20.5285476, 'lon': -47.3922481, 'tags': {'amenity': 'pharmacy'}}"
"{'type': 'node', 'id': 3072708772, 'lat': -20.5440199, 'lon': -47.3755599, 'tags': {'amenity': 'pharmacy'}}"
"{'type': 'node', 'id': 3072708800, 'lat': -20.5437829, 'lon': -47.382917, 'tags': {'amenity': 'pharmacy'}}"
"{'type': 'node', 'id': 3072708801, 'lat': -20.543768, 'lon': -47.3835734, 'tags': {'amenity': 'pharmacy'}}"
"{'type': 'node', 'id': 3072708818, 'lat': -20.5428637, 'lon': -47.3749116, 'tags': {'amenity': 'pharmacy'}}"
"{'type': 'node', 'id': 3075439800, 'lat': -20.5262105, 'lon': -47.3899634, 'tags': {'addr:city': 'Franca', 'addr:housenumber': '208', 'addr:postcode': '14401-229', 'addr:street': 'Rua Minas Gerais', 'addr:suburb': 'Vila Aparecida', 'amenity': 'pharmacy', 'name': 'Farmácia São Francisco'}}"
"{'type': 'node', 'id': 3075442542, 'lat': -20.544784, 'lon': -47.4115747, 'tags': {'addr:city': 'Franca', 'addr:housenumber': '913', 'addr:postcode': '14405-018', 'addr:street': 'Avenida Paulino Pucci', 'addr:suburb': 'Jardim Francano', 'amenity': 'pharmacy', 'healthcare': 'pharmacy', 'name': 'Farmácia Francano'}}"
"{'type': 'node', 'id': 3075442549, 'lat': -20.5478396, 'lon': -47.4097059, 'tags': {'addr:city': 'Franca', 'addr:housenumber': '1327', 'addr:postcode': '14405-018', 'addr:street': 'Avenida Paulino Pucci', 'addr:suburb': 'Jardim Francano', 'amenity': 'pharmacy', 'healthcare': 'pharmacy', 'name': 'Brasão de Claraval'}}"
"{'type': 'node', 'id': 3075442602, 'lat': -20.5474576, 'lon': -47.4044796, 'tags': {'addr:city': 'Franca', 'addr:housenumber': '644', 'addr:postcode': '14400-150', 'addr:street': 'Rua Frederico Ozanan', 'addr:suburb': 'Jd. Consolação', 'amenity': 'pharmacy', 'name': 'Drogaria Consolação'}}"
"{'type': 'node', 'id': 3075442619, 'lat': -20.5412007, 'lon': -47.3955296, 'tags': {'amenity': 'pharmacy', 'healthcare': 'pharmacy'}}"
"{'type': 'node', 'id': 3080792916, 'lat': -20.5365077, 'lon': -47.3929264, 'tags': {'addr:city': 'Franca', 'addr:housenumber': '2267', 'addr:postcode': '14400-520', 'addr:street': 'Rua General Osório', 'addr:suburb': 'Centro', 'amenity': 'dentist', 'healthcare': 'dentist', 'name': 'Erivelton F. Pasti'}}"
"{'type': 'node', 'id': 3083092792, 'lat': -21.4134511, 'lon': -48.4971287, 'tags': {'amenity': 'clinic', 'healthcare': 'clinic', 'name': 'Ambulatório Médico de Especialidades', 'short_name': 'AME'}}"
"{'type': 'node', 'id': 3089173771, 'lat': -21.4100842, 'lon': -48.5033781, 'tags': {'amenity': 'pharmacy', 'healthcare': 'pharmacy', 'name': 'Farmanova'}}"
"{'type': 'node', 'id': 3089712739, 'lat': -20.5297663, 'lon': -47.3934472, 'tags': {'amenity': 'pharmacy'}}"
"{'type': 'node', 'id': 3091900497, 'lat': -20.5514168, 'lon': -47.3719474, 'tags': {'amenity': 'pharmacy'}}"
"{'type': 'node', 'id': 3162812268, 'lat': -21.0211207, 'lon': -47.765963, 'tags': {'amenity': 'pharmacy', 'name': 'Farmácia Farmasete'}}"
"{'type': 'node', 'id': 3200393027, 'lat': -21.172655, 'lon': -47.8136536, 'tags': {'addr:housenumber': '466', 'addr:street': 'Avenida Jerônimo Gonçalves', 'amenity': 'clinic', 'emergency': 'yes', 'healthcare': 'clinic', 'loc_name': 'UBDS Central', 'name': 'Unidade Básica Distrital de Saúde Doutor João Baptista Quartin', 'opening_hours': '24/7', 'phone': '+55 16 3605-5000;+55 16 3605-5025', 'short_name': 'UBDS ""Dr João Baptista Quartin""', 'website': 'https://www.ribeiraopreto.sp.gov.br/ssaude/rede/central/i16central.php'}}"
"{'type': 'node', 'id': 3311010262, 'lat': -21.1915512, 'lon': -47.7820913, 'tags': {'amenity': 'pharmacy'}}"
"{'type': 'node', 'id': 3320015711, 'lat': -21.6069529, 'lon': -48.3708078, 'tags': {'addr:city': 'Matão', 'addr:suburb': 'Centro', 'amenity': 'pharmacy', 'healthcare': 'pharmacy', 'name': 'Drogaria Paulista'}}"
"{'type': 'node', 'id': 3320016095, 'lat': -21.6079673, 'lon': -48.3680245, 'tags': {'addr:city': 'Matão', 'addr:suburb': 'Centro', 'amenity': 'pharmacy', 'healthcare': 'pharmacy', 'name': 'Raizes'}}"
"{'type': 'node', 'id': 3332936452, 'lat': -21.6055173, 'lon': -48.3702396, 'tags': {'amenity': 'clinic', 'healthcare': 'clinic', 'name': 'Laboratório de Bioanálise São Camilo'}}"
"{'type': 'node', 'id': 3332936454, 'lat': -21.6050986, 'lon': -48.3681137, 'tags': {'amenity': 'hospital', 'healthcare': 'hospital', 'name': 'UTI Hospital de Caridade'}}"
"{'type': 'node', 'id': 3332936455, 'lat': -21.6056352, 'lon': -48.3677694, 'tags': {'amenity': 'pharmacy', 'healthcare': 'pharmacy', 'name': 'Drogaria Carvalho'}}"
"{'type': 'node', 'id': 3347008269, 'lat': -21.6038029, 'lon': -48.3670102, 'tags': {'amenity': 'pharmacy', 'healthcare': 'pharmacy', 'name': 'Comelli Droga II'}}"
"{'type': 'node', 'id': 3347029095, 'lat': -21.6021758, 'lon': -48.3778304, 'tags': {'amenity': 'pharmacy', 'healthcare': 'pharmacy', 'name': 'Drogaria Raio de Sol'}}"
"{'type': 'node', 'id': 3347032404, 'lat': -21.606286, 'lon': -48.3659486, 'tags': {'amenity': 'clinic', 'healthcare': 'clinic', 'name': 'Unidade Básica de Saúde Doutor Salvador Toledo Galrão'}}"
"{'type': 'node', 'id': 3347037869, 'lat': -21.6069618, 'lon': -48.3686667, 'tags': {'amenity': 'clinic', 'healthcare': 'clinic'}}"
"{'type': 'node', 'id': 3347050156, 'lat': -21.6158806, 'lon': -48.3691673, 'tags': {'addr:city': 'Matão', 'addr:housenumber': '285', 'addr:street': 'Avenida Antônio Tanaka', 'addr:suburb': 'Residencial Villa di Capri', 'amenity': 'clinic', 'healthcare': 'clinic', 'name': 'Centro de Saúde Mental Infantil Doutora Maria Paula Gatti', 'opening_hours': 'Mo-Fr 07:00-17:00', 'phone': '+55 (16) 3384-7340'}}"
"{'type': 'node', 'id': 3347053697, 'lat': -21.6166216, 'lon': -48.3695737, 'tags': {'amenity': 'clinic', 'name': 'CAPS Centro de Atenção Psicossocial'}}"
"{'type': 'node', 'id': 3350498334, 'lat': -21.586753, 'lon': -48.3498545, 'tags': {'addr:city': 'Matão', 'addr:housenumber': '1500', 'addr:street': 'Avenida Brasil', 'addr:suburb': 'Vila Cardim', 'amenity': 'clinic', 'name': 'Unidade Básica de Saúde Alcides Vezzani'}}"
"{'type': 'node', 'id': 3350569623, 'lat': -21.6400736, 'lon': -48.2945168, 'tags': {'amenity': 'clinic', 'name': 'Unidade Básica de Saúde Matilde Bocchi Baldan'}}"
"{'type': 'node', 'id': 3443052209, 'lat': -21.1804663, 'lon': -47.8141445, 'tags': {'addr:housenumber': '1172', 'addr:street': 'Rua Tibiriça', 'amenity': 'hospital', 'healthcare': 'hospital', 'name': 'Hospital da Sociedade Portuguesa de Beneficência', 'official_name': 'Hospital Imaculada Conceição', 'phone': '+55 16 3977-5500', 'ref:CNES': '2080400', 'ref:vatin': 'BR55990451000105', 'website': 'https://www.beneribeiraopreto.com/'}}"
"{'type': 'node', 'id': 3517817606, 'lat': -20.8879961, 'lon': -47.5981439, 'tags': {'amenity': 'pharmacy', 'name': 'Drogaria Batatais', 'phone': '16-3761-2929'}}"
"{'type': 'node', 'id': 3716215122, 'lat': -21.138891, 'lon': -47.9936601, 'tags': {'addr:housenumber': '890', 'addr:postcode': '14160-010', 'addr:street': 'Rua Geremias Lunardeli', 'amenity': 'pharmacy', 'emergency': 'no', 'healthcare': 'pharmacy', 'name': 'IROS Instituto Radiológico de Sertãozinho', 'ref:CNES': '7226349', 'ref:vatin': 'BR05665751000140'}}"
"{'type': 'node', 'id': 3717704844, 'lat': -21.1300442, 'lon': -47.9834984, 'tags': {'amenity': 'clinic', 'healthcare': 'clinic', 'healthcare:speciality': 'general', 'name': 'Unidade Básica de Saúde Jardim Alvorada', 'short_name': 'UBS Jardim Alvorada'}}"
"{'type': 'node', 'id': 3717704846, 'lat': -21.125901, 'lon': -47.9780911, 'tags': {'amenity': 'clinic', 'healthcare': 'clinic', 'healthcare:speciality': 'general', 'name': 'Unidade Básica de Saúde Jardim Helena', 'short_name': 'UBS Jardim Helena'}}"
"{'type': 'node', 'id': 3717717786, 'lat': -21.1108286, 'lon': -47.9841958, 'tags': {'amenity': 'clinic', 'healthcare': 'clinic', 'healthcare:speciality': 'general', 'name': 'Unidade Básica de Saúde Jardim Santa Rosa', 'short_name': 'UBS Jardim Santa Rosa'}}"
"{'type': 'node', 'id': 3717720413, 'lat': -21.1169538, 'lon': -47.9942487, 'tags': {'amenity': 'clinic', 'healthcare': 'clinic', 'healthcare:speciality': 'general;vaccination', 'name': 'Unidade Básica de Saúde Jardim Jamaica', 'short_name': 'UBS Jardim Jamaica'}}"
"{'type': 'node', 'id': 3719237203, 'lat': -21.142425, 'lon': -47.9878416, 'tags': {'amenity': 'clinic', 'emergency': 'yes', 'healthcare': 'clinic', 'name': 'Unimed Sertãozinho'}}"
"{'type': 'node', 'id': 3719369257, 'lat': -21.1347539, 'lon': -47.9917958, 'tags': {'addr:housenumber': '1741', 'addr:postcode': '14160-180', 'addr:street': 'Rua Epitácio Pessoa', 'amenity': 'hospital', 'healthcare': 'hospital', 'name': 'Santa Casa', 'ref:CNES': '2084171', 'ref:vatin': 'BR71326292000103'}}"
"{'type': 'node', 'id': 3719369608, 'lat': -21.1357483, 'lon': -47.9921324, 'tags': {'addr:housenumber': '1625', 'addr:postcode': '14160-180', 'addr:street': 'Rua Epitácio Pessoa', 'amenity': 'clinic', 'emergency': 'yes', 'healthcare': 'clinic', 'name': 'Sermed Pronto Atendimento', 'ref:CNES': '9790713', 'ref:vatin': 'BR64924095000708'}}"
"{'type': 'node', 'id': 3719369671, 'lat': -21.1366858, 'lon': -47.9884022, 'tags': {'addr:housenumber': '785', 'addr:postcode': '14160-620', 'addr:street': 'Rua Elpídio Gomes', 'amenity': 'hospital', 'emergency': 'yes', 'healthcare': 'hospital', 'healthcare:speciality': 'general', 'name': 'Hospital Neto Campello', 'ref:CNES': '2078961', 'ref:vatin': 'BR37173123001378'}}"
"{'type': 'node', 'id': 3719404249, 'lat': -21.14266, 'lon': -47.9770217, 'tags': {'amenity': 'pharmacy', 'dispensing': 'yes', 'healthcare': 'pharmacy', 'name': 'Drogaria Droga Mais'}}"
"{'type': 'node', 'id': 3719404250, 'lat': -21.1397428, 'lon': -47.9791299, 'tags': {'amenity': 'clinic', 'healthcare': 'clinic', 'healthcare:speciality': 'general', 'name': 'Unidade Básica de Saúde Alto do Ginásio', 'short_name': 'UBS Alto do Ginásio'}}"
"{'type': 'node', 'id': 3719408275, 'lat': -21.1423848, 'lon': -47.9838345, 'tags': {'amenity': 'pharmacy', 'dispensing': 'yes', 'healthcare': 'pharmacy', 'name': 'Droga Certa'}}"
"{'type': 'node', 'id': 3719417667, 'lat': -21.1319835, 'lon': -48.0154457, 'tags': {'amenity': 'clinic', 'healthcare': 'clinic', 'name': 'Unidade Básica de Saúde Cohab 3', 'short_name': 'UBS Cohab 3'}}"
"{'type': 'node', 'id': 3719421402, 'lat': -21.1424799, 'lon': -48.002614, 'tags': {'amenity': 'pharmacy', 'healthcare': 'pharmacy', 'name': 'Drogaria do Paulo'}}"
"{'type': 'node', 'id': 3719421403, 'lat': -21.1393172, 'lon': -48.0053713, 'tags': {'amenity': 'pharmacy', 'brand': 'Farma Conde', 'brand:wikidata': 'Q100492677', 'dispensing': 'yes', 'healthcare': 'pharmacy', 'name': 'Farma Conde'}}"
"{'type': 'node', 'id': 3719421404, 'lat': -21.1400277, 'lon': -48.0050494, 'tags': {'amenity': 'pharmacy', 'healthcare': 'pharmacy', 'name': 'Drogal'}}"
"{'type': 'node', 'id': 3719434571, 'lat': -21.1207649, 'lon': -48.0220439, 'tags': {'amenity': 'clinic', 'healthcare': 'clinic', 'name': 'Unidade Básica de Saúde Cohab 8', 'short_name': 'UBS Cohab 8'}}"
"{'type': 'node', 'id': 3719446444, 'lat': -21.1374164, 'lon': -48.0006613, 'tags': {'amenity': 'clinic', 'healthcare': 'clinic', 'healthcare:speciality': 'general'}}"
"{'type': 'node', 'id': 3719455432, 'lat': -21.1267491, 'lon': -47.9975822, 'tags': {'amenity': 'clinic', 'healthcare': 'clinic', 'healthcare:speciality': 'general', 'name': 'Unidade Básica de Saúde Shangrilá', 'short_name': 'UBS Shangrilá'}}"
"{'type': 'node', 'id': 3722178155, 'lat': -21.140188, 'lon': -47.9918979, 'tags': {'addr:housenumber': '1134', 'addr:postcode': '14160-510', 'addr:street': 'Rua Geremias Lunardeli', 'amenity': 'clinic', 'healthcare': 'clinic', 'healthcare:speciality': 'biology', 'name': 'Laboratório Municipal', 'ref:CNES': '2024640'}}"
"{'type': 'node', 'id': 3722198983, 'lat': -21.1403876, 'lon': -47.9916618, 'tags': {'addr:housenumber': '1158', 'addr:postcode': '14160-510', 'addr:street': 'Rua Geremias Lunardeli', 'amenity': 'clinic', 'healthcare': 'clinic', 'healthcare:speciality': 'general', 'name': 'Unidade Básica de Saúde Central', 'operator:ref:vatin': 'BR45371820000128', 'phone': '+55 16 3947 3228', 'ref:CNES': '2031035', 'short_name': 'UBS Central'}}"
"{'type': 'node', 'id': 3747878500, 'lat': -20.5300252, 'lon': -47.3938678, 'tags': {'amenity': 'pharmacy', 'healthcare': 'pharmacy'}}"
"{'type': 'node', 'id': 3948047870, 'lat': -21.7907515, 'lon': -48.1746919, 'tags': {'amenity': 'pharmacy', 'healthcare': 'pharmacy', 'level': '1', 'name': 'Drogaven', 'phone': '+55 16 3397-3252'}}"
"{'type': 'node', 'id': 3962476744, 'lat': -21.2127887, 'lon': -47.8168335, 'tags': {'amenity': 'pharmacy', 'email': 'aureapharma@gmail.com', 'healthcare': 'pharmacy', 'name': 'Aurea Pharma', 'phone': '+55 16 3902-1292'}}"
"{'type': 'node', 'id': 3962477608, 'lat': -21.2113009, 'lon': -47.8140248, 'tags': {'amenity': 'pharmacy', 'brand': 'Drogasil', 'brand:wikidata': 'Q5308185', 'brand:wikipedia': 'pt:Drogasil', 'email': 'lia.zanetti@hotmail.com', 'healthcare': 'pharmacy', 'name': 'Drogasil', 'phone': '+55 16 3902-1220', 'website': 'https://www.drogasil.com.br/', 'wheelchair': 'yes'}}"
"{'type': 'node', 'id': 3962477609, 'lat': -21.2125181, 'lon': -47.8168458, 'tags': {'amenity': 'pharmacy', 'email': 'filial87@drogaosuper.com.br', 'healthcare': 'pharmacy', 'name': 'Drogão Super', 'phone': '+55 16 3623-3219'}}"
"{'type': 'node', 'id': 4234293915, 'lat': -21.1765336, 'lon': -47.8090762, 'tags': {'addr:city': 'Ribeirão Preto', 'addr:housenumber': '641', 'addr:postcode': '14015-040', 'addr:street': 'Rua São Sebastião', 'addr:suburb': 'Centro', 'amenity': 'pharmacy', 'brand': 'Droga Raia', 'brand:wikidata': 'Q10357101', 'brand:wikipedia': 'pt:RaiaDrogasil', 'healthcare': 'pharmacy', 'name': 'Droga Raia', 'opening_hours': 'Mo-Su 07:00-23:00', 'phone': '+55 16 3635-7931', 'wheelchair': 'yes'}}"
"{'type': 'node', 'id': 4242714918, 'lat': -20.5396155, 'lon': -47.3999365, 'tags': {'addr:housenumber': '1703', 'addr:postcode': '14400-410', 'addr:street': 'Rua Saldanha Marinho', 'healthcare': 'laboratory', 'internet_access': 'wlan', 'name': 'Laboratório Bioanalise', 'opening_hours': 'Mo-Fr 07:00-17:00; Sa 07:00-11:00', 'phone': '37229005'}}"
"{'type': 'node', 'id': 4456342331, 'lat': -21.202456, 'lon': -47.7972327, 'tags': {'amenity': 'pharmacy', 'name': 'Drogaria Portugal'}}"
"{'type': 'node', 'id': 4550703705, 'lat': -21.1937009, 'lon': -47.8006946, 'tags': {'amenity': 'pharmacy', 'healthcare': 'pharmacy'}}"
"{'type': 'node', 'id': 4554354089, 'lat': -21.3113369, 'lon': -47.5643777, 'tags': {'addr:street': 'Rua Coronel Luiz Venâncio', 'amenity': 'pharmacy', 'name': 'Drogaria Nova Saúde', 'name:en': 'Drogaria Nova Saúde', 'name:pt': 'Drogaria Nova Saúde'}}"
"{'type': 'node', 'id': 4739241347, 'lat': -21.7737811, 'lon': -48.2072602, 'tags': {'amenity': 'clinic', 'name': 'Estratégia de Saúde da Família Doutor Euclides Crocci', 'short_name': 'ESF Dr. Euclides Crocci'}}"
"{'type': 'node', 'id': 4739241727, 'lat': -21.7884802, 'lon': -48.198867, 'tags': {'amenity': 'clinic', 'healthcare': 'clinic', 'name': 'Estratégia de Saúde da Família João Francisco Alves', 'short_name': 'ESF João Francisco Alves'}}"
"{'type': 'node', 'id': 4788394182, 'lat': -20.5301205, 'lon': -48.5571336, 'tags': {'amenity': 'clinic', 'name': 'Postinho do Barretos 2'}}"
"{'type': 'node', 'id': 4923125619, 'lat': -21.7894868, 'lon': -48.1825676, 'tags': {'addr:city': 'Araraquara', 'addr:housenumber': '2097', 'addr:postcode': '14801-360', 'addr:street': 'Rua Expedicionários do Brasil', 'addr:suburb': 'Centro', 'amenity': 'doctors', 'emergency': 'yes', 'healthcare': 'doctor', 'name': 'Consultório Pirani | Osteopatia Acupuntura', 'opening_hours': 'Mo-Fr 08:00-20:00; Sa 08:00-16:00', 'phone': '+55 16 4042-0244', 'website': 'https://fb.me/consultoriopirani', 'wheelchair': 'yes'}}"
"{'type': 'node', 'id': 5265924278, 'lat': -21.0731254, 'lon': -48.4117885, 'tags': {'amenity': 'hospital', 'healthcare': 'hospital', 'name': 'Hospital Municipal'}}"
"{'type': 'node', 'id': 5266419015, 'lat': -20.9443798, 'lon': -48.4839079, 'tags': {'amenity': 'hospital', 'healthcare': 'hospital', 'name': 'Santa Casa de Saúde', 'operator': 'Unimed'}}"
"{'type': 'node', 'id': 5321369723, 'lat': -20.50967, 'lon': -47.4010942, 'tags': {'addr:street': 'Avenida José Silva', 'amenity': 'clinic', 'name': 'centro de diagnóstico por imagem'}}"
"{'type': 'node', 'id': 5321959923, 'lat': -20.5192905, 'lon': -47.3957259, 'tags': {'addr:street': 'Rua Aluízio Pacheco Ferreira', 'amenity': 'clinic', 'name': 'NGA'}}"
"{'type': 'node', 'id': 5336844221, 'lat': -20.5351327, 'lon': -47.4007054, 'tags': {'amenity': 'dentist', 'healthcare': 'dentist', 'name': 'GOU'}}"
"{'type': 'node', 'id': 5377993277, 'lat': -21.2009565, 'lon': -47.780015, 'tags': {'amenity': 'hospital', 'healthcare': 'hospital', 'name': 'Hospital Electro Bonini'}}"
"{'type': 'node', 'id': 5430227765, 'lat': -21.3578201, 'lon': -48.0834064, 'tags': {'amenity': 'clinic', 'healthcare': 'clinic', 'name': 'UBS Jardim Bela Vista'}}"
"{'type': 'node', 'id': 5511483620, 'lat': -21.7863706, 'lon': -48.1689573, 'tags': {'addr:street': 'Avenida Padre Antônio Cezarino', 'healthcare': 'yes', 'name': 'Ortopédica Mais', 'phone': '+55 16 3461-3896', 'shop': 'yes', 'website': 'https://www.ortopedicamais.com.br/'}}"
"{'type': 'node', 'id': 5570952360, 'lat': -21.0819289, 'lon': -48.6573562, 'tags': {'amenity': 'clinic', 'healthcare': 'clinic'}}"
"{'type': 'node', 'id': 5571037564, 'lat': -21.0950446, 'lon': -48.6629463, 'tags': {'amenity': 'clinic', 'healthcare': 'clinic'}}"
"{'type': 'node', 'id': 5764023997, 'lat': -21.1593151, 'lon': -47.7921099, 'tags': {'amenity': 'hospital', 'healthcare': 'hospital', 'name': 'Sinhá'}}"
"{'type': 'node', 'id': 5852346763, 'lat': -21.258115, 'lon': -48.4982883, 'tags': {'addr:city': 'Monte Alto', 'addr:postcode': '15910000', 'addr:street': 'Rua Duque de Caxias', 'addr:suburb': 'Vila Municipal', 'amenity': 'clinic', 'healthcare': 'clinic', 'name': 'UBS Unidade Saúde da Família ""Ezídio Pelloso""', 'operator': 'Prefeitura Municipal de Monte Alto'}}"
"{'type': 'node', 'id': 5864275141, 'lat': -21.2619498, 'lon': -48.4886166, 'tags': {'addr:housenumber': '747', 'addr:street': 'Rua Jeremias de Paula Eduardo', 'amenity': 'pharmacy', 'healthcare': 'pharmacy', 'name': 'Farmativa Farmácia de Manipulação e Drogaria', 'opening_hours': 'Mo-Fr 07:30-18:00; Sa 08:00-12:00', 'phone': '01632413241', 'website': 'https://www.facebook.com/farmativamontealto'}}"
"{'type': 'node', 'id': 6003955266, 'lat': -20.7157782, 'lon': -48.5435669, 'tags': {'amenity': 'clinic', 'healthcare': 'clinic', 'name': 'Centro de Saúde'}}"
"{'type': 'node', 'id': 6083875869, 'lat': -21.798256, 'lon': -48.1773582, 'tags': {'healthcare': 'physiotherapist', 'name': 'Fisioterapia Edwirges', 'phone': '+55 16 3332-2550'}}"
"{'type': 'node', 'id': 6083878165, 'lat': -21.7953745, 'lon': -48.1725061, 'tags': {'amenity': 'dentist', 'healthcare': 'dentist', 'name': 'Odontologia Vallerini', 'phone': '+55 16 3322-5244'}}"
"{'type': 'node', 'id': 6083878176, 'lat': -21.7981265, 'lon': -48.1797266, 'tags': {'amenity': 'clinic', 'healthcare': 'clinic'}}"
"{'type': 'node', 'id': 6083878387, 'lat': -21.7989707, 'lon': -48.1829345, 'tags': {'amenity': 'dentist', 'healthcare': 'dentist'}}"
"{'type': 'node', 'id': 6083878410, 'lat': -21.7994015, 'lon': -48.1837821, 'tags': {'healthcare': 'psychotherapist', 'name': 'Self Psicologia', 'phone': '+55 16 3472-3102'}}"
"{'type': 'node', 'id': 6247845188, 'lat': -21.810066, 'lon': -48.1437854, 'tags': {'amenity': 'clinic', 'healthcare': 'clinic', 'name': 'USF Farmacêutico Cristovão Colombo'}}"
"{'type': 'node', 'id': 6389476030, 'lat': -20.9454969, 'lon': -48.4614204, 'tags': {'amenity': 'pharmacy', 'building': 'commercial', 'dispensing': 'yes', 'healthcare': 'pharmacy', 'name': 'Drogaria Marina'}}"
"{'type': 'node', 'id': 6520224954, 'lat': -21.7685957, 'lon': -48.1652901, 'tags': {'amenity': 'pharmacy', 'brand': 'Drogaria São Paulo', 'brand:wikidata': 'Q5308184', 'brand:wikipedia': 'en:Grupo DPSP', 'dispensing': 'yes', 'healthcare': 'pharmacy', 'name': 'Drogaria São Paulo'}}"
"{'type': 'node', 'id': 6715869678, 'lat': -21.8053908, 'lon': -48.1919682, 'tags': {'addr:housenumber': '132', 'addr:street': 'Rua Hugo Negrini', 'healthcare': 'physiotherapist', 'healthcare:speciality': 'massage_therapy;osteopathy', 'name': 'Thalita Frais Fisioterapia', 'opening_hours': 'Mo-Fr 07:00-21:00; Sa 07:00-12:00', 'phone': '+55 16 997000-9998'}}"
"{'type': 'node', 'id': 6734003652, 'lat': -21.7671123, 'lon': -48.1930371, 'tags': {'amenity': 'clinic', 'healthcare': 'clinic', 'name': 'Programa de Saúde da Família Doutor José Ricardo de Carvalho Angelieri', 'short_name': 'PSF Dr. José Ricardo de Carvalho Angelieri'}}"
"{'type': 'node', 'id': 6734051118, 'lat': -21.7688834, 'lon': -48.2023846, 'tags': {'amenity': 'pharmacy', 'name': 'Drogaven'}}"
"{'type': 'node', 'id': 6734051137, 'lat': -21.7703954, 'lon': -48.2035835, 'tags': {'amenity': 'pharmacy'}}"
"{'type': 'node', 'id': 6805568112, 'lat': -21.7698038, 'lon': -47.7935475, 'tags': {'amenity': 'pharmacy', 'healthcare': 'pharmacy', 'name': 'Farmácia São Sebastião'}}"
"{'type': 'node', 'id': 7065253658, 'lat': -21.1750173, 'lon': -48.6304798, 'tags': {'amenity': 'hospital', 'healthcare': 'hospital'}}"
"{'type': 'node', 'id': 7093582986, 'lat': -21.1675783, 'lon': -48.6304838, 'tags': {'addr:city': 'vista alegre do alto', 'addr:housenumber': '2-64', 'addr:postcode': '15920-000', 'addr:street': 'Rua Roma', 'amenity': 'hospital', 'healthcare': 'hospital', 'healthcare:speciality': 'dentist', 'name': 'Centro Odontologico Municipal', 'operator:ref:vatin': 'BR52854775000128', 'ref:CNES': '9288600'}}"
"{'type': 'node', 'id': 7094802711, 'lat': -21.1668844, 'lon': -48.6307958, 'tags': {'addr:city': 'vista alegre do alto', 'addr:postcode': '15920000', 'addr:street': 'Rua Roma', 'building': 'yes', 'dispensing': 'yes', 'healthcare': 'pharmacy', 'name': 'Multidrogas', 'shop': 'chemist'}}"
"{'type': 'node', 'id': 7206566272, 'lat': -21.7782955, 'lon': -48.1588497, 'tags': {'amenity': 'pharmacy', 'dispensing': 'yes', 'healthcare': 'pharmacy', 'name': 'Droga Ven'}}"
"{'type': 'node', 'id': 7969585212, 'lat': -20.9312373, 'lon': -48.4954709, 'tags': {'amenity': 'clinic', 'name': 'Ubs Doutor José Deocleciano Ribeiro Filho'}}"
"{'type': 'node', 'id': 8439547214, 'lat': -21.0213971, 'lon': -47.7701865, 'tags': {'amenity': 'clinic', 'healthcare': 'clinic', 'name': 'Posto de Saúde', 'operator': 'SUS', 'operator:type': 'public'}}"
"{'type': 'node', 'id': 8462791565, 'lat': -21.5872808, 'lon': -48.0727811, 'tags': {'healthcare': 'yes', 'name': 'Pronto Socorro Municipal'}}"
"{'type': 'node', 'id': 8821763519, 'lat': -20.5371679, 'lon': -47.3986304, 'tags': {'addr:city': 'Franca', 'addr:housenumber': '1906', 'addr:postcode': '14400-730', 'addr:street': 'Rua Doutor Júlio Cardoso', 'addr:suburb': 'Centro', 'amenity': 'hospital', 'healthcare': 'hospital', 'healthcare:speciality': 'general', 'name': 'Benevida Saúde', 'ref:CNES': '7544820', 'ref:vatin': 'BR18363082000102'}}"
"{'type': 'node', 'id': 8944617916, 'lat': -21.6132564, 'lon': -48.3529359, 'tags': {'addr:city': 'Matão', 'addr:housenumber': '00000', 'addr:postcode': '15990-545', 'addr:street': 'Avenida Trolesi', 'addr:suburb': 'buscarde', 'healthcare': 'physiotherapist', 'name': 'Aline Paula Fisioterapia'}}"
"{'type': 'node', 'id': 9216460945, 'lat': -21.195565, 'lon': -47.8135635, 'tags': {'addr:housenumber': '2125', 'amenity': 'clinic', 'name': 'Dimen'}}"
"{'type': 'node', 'id': 9453502959, 'lat': -21.2153559, 'lon': -47.7657755, 'tags': {'amenity': 'pharmacy', 'dispensing': 'yes', 'healthcare': 'pharmacy', 'name': 'Drogaria Mais Farma'}}"
"{'type': 'node', 'id': 9946569931, 'lat': -20.5373229, 'lon': -47.3932797, 'tags': {'addr:city': 'Franca', 'addr:housenumber': '2268', 'addr:postcode': '14400-500', 'addr:street': 'Rua General Carneiro', 'addr:suburb': 'Centro', 'amenity': 'clinic', 'healthcare': 'clinic', 'healthcare:speciality': 'cardiology;general;osteopathy', 'name': 'Instituto CorPrime', 'opening_hours': 'Mo-Su 08:00-21:00', 'operator': 'Dr Ari Silvio F. dos Santos Filho e Dr Fauzer Cury', 'operator:type': 'private', 'phone': '+55 16999860111'}}"
"{'type': 'node', 'id': 10894222618, 'lat': -20.582688, 'lon': -48.5689412, 'tags': {'amenity': 'doctors', 'healthcare': 'doctor', 'healthcare:speciality': 'oncology', 'name': 'Pavilhão Jorge e Mateus'}}"
"{'type': 'node', 'id': 10894222619, 'lat': -20.5827106, 'lon': -48.568897, 'tags': {'amenity': 'doctors', 'healthcare': 'doctor', 'healthcare:speciality': 'oncology', 'name': 'Pavilhão Ivete Sangalo'}}"
"{'type': 'node', 'id': 11062974136, 'lat': -21.2588105, 'lon': -48.3125527, 'tags': {'amenity': 'pharmacy', 'brand': 'Droga Raia', 'brand:wikidata': 'Q10357101', 'healthcare': 'pharmacy', 'name': 'Droga Raia'}}"
"{'type': 'node', 'id': 11062974141, 'lat': -21.2622237, 'lon': -48.3045131, 'tags': {'healthcare': 'yes', 'name': 'Hapvida'}}"
"{'type': 'node', 'id': 11062974142, 'lat': -21.2609747, 'lon': -48.3051929, 'tags': {'amenity': 'hospital', 'healthcare': 'hospital', 'name': 'Hospital São Marcos'}}"
"{'type': 'node', 'id': 11156218414, 'lat': -21.2631693, 'lon': -48.3141353, 'tags': {'amenity': 'pharmacy', 'dispensing': 'yes', 'drive_through': 'no', 'healthcare': 'pharmacy', 'name': 'Dermoflora'}}"
"{'type': 'node', 'id': 11329231674, 'lat': -21.1888194, 'lon': -47.8103846, 'tags': {'addr:city': 'Ribeirão Preto', 'addr:housenumber': '1486', 'addr:postcode': '14025-386', 'addr:street': 'Rua Marechal Deodoro', 'addr:suburb': 'Alto da Boa Vista', 'amenity': 'pharmacy', 'drive_through': 'yes', 'healthcare': 'pharmacy', 'name': 'Spazio Vitta', 'opening_hours': 'Mo-Fr 09:00-18:00', 'phone': '16992027346', 'wheelchair': 'yes'}}"
"{'type': 'node', 'id': 11415210310, 'lat': -21.7618228, 'lon': -48.2117293, 'tags': {'amenity': 'clinic', 'healthcare': 'clinic', 'name': 'PSF Selma Rita Canelas Ferrari Nogueira'}}"
"{'type': 'node', 'id': 11506226346, 'lat': -21.3232555, 'lon': -48.6336593, 'tags': {'amenity': 'clinic', 'healthcare': 'clinic'}}"
"{'type': 'node', 'id': 11519569107, 'lat': -20.5396472, 'lon': -47.3964001, 'tags': {'addr:city': 'Franca', 'addr:housenumber': '1710', 'addr:postcode': '14400-760', 'addr:street': 'Rua Floriano Peixoto', 'addr:suburb': 'Centro', 'healthcare': 'laboratory', 'healthcare:speciality': 'exames_laboratoriais;exames_de_imagem;consultas_médicas', 'name': 'Laboratório Labcenter - Floriano Peixoto', 'phone': '0800 721 3444', 'website': 'https://labcenterfranca.com.br/'}}"
"{'type': 'node', 'id': 11519569108, 'lat': -20.5399915, 'lon': -47.4037719, 'tags': {'addr:city': 'Franca', 'addr:housenumber': '1501', 'addr:postcode': '14400-630', 'addr:street': 'Rua Ouvidor Freire', 'addr:suburb': 'Centro', 'healthcare': 'laboratory', 'healthcare:speciality': 'exames_laboratoriais;exames_de_imagem;consultas_médicas', 'name': 'Laboratório Labcenter - Ouvidor Freire', 'phone': '0800 721 3444', 'website': 'https://labcenterfranca.com.br/'}}"
"{'type': 'node', 'id': 11544813575, 'lat': -21.7885629, 'lon': -48.1734773, 'tags': {'amenity': 'dentist', 'healthcare': 'dentist', 'name': 'Clínica Reabilitação Orofacial Araraquara'}}"
"{'type': 'node', 'id': 11614979139, 'lat': -21.8037793, 'lon': -48.1607295, 'tags': {'amenity': 'pharmacy', 'healthcare': 'pharmacy', 'name': 'Multidrogas'}}"
"{'type': 'node', 'id': 11835156693, 'lat': -21.7422071, 'lon': -48.1237532, 'tags': {'healthcare': 'rehabilitation', 'name': 'Comunidade Terapêutica Recanto Tabor'}}"
"{'type': 'node', 'id': 11905262521, 'lat': -21.2623713, 'lon': -48.4958761, 'tags': {'addr:housenumber': '1473', 'addr:street': 'Rua Nhonhô Livramento', 'amenity': 'pharmacy', 'healthcare': 'pharmacy', 'name': 'Drogaria Droga Serve', 'opening_hours': 'Mo-Sa 07:30-19:00', 'phone': '01632422088'}}"
"{'type': 'node', 'id': 11925109511, 'lat': -21.26712, 'lon': -48.5072115, 'tags': {'addr:city': 'Monta Alto', 'addr:housenumber': '1104', 'addr:postcode': '15910000', 'addr:street': 'Avenida Marechal Deodoro da Fonseca', 'addr:suburb': 'Jardim Pizarro', 'amenity': 'clinic', 'healthcare': 'clinic', 'healthcare:speciality': 'general;ophthalmology;emergency;physiatry', 'name': 'Clínica Pró Saúde', 'opening_hours': 'Mo-Fr 07:00-18:00', 'phone': '01632423063'}}"
"{'type': 'node', 'id': 11931463405, 'lat': -21.2628102, 'lon': -48.4963596, 'tags': {'addr:city': 'Monte Alto', 'addr:housenumber': '478', 'addr:street': 'Avenida José Cupertino Boto', 'healthcare': 'alternative', 'name': 'Empório Gaia', 'phone': '1632424275', 'website': 'https://www.facebook.com/emporiogaia.montealto'}}"
"{'type': 'node', 'id': 11963479862, 'lat': -21.2637253, 'lon': -48.4986924, 'tags': {'addr:housenumber': '1916', 'addr:street': 'Rua Jeremias de Paula Eduardo', 'amenity': 'pharmacy', 'description': 'Farmácia especializada em manipulação de Fórmulas, Homeopatia e Florais', 'dispensing': 'yes', 'healthcare': 'pharmacy', 'name': 'Farmácia Homeovida', 'opening_hours': 'Mo-Fr 08:00-18:00; Sa 08:00-12:00', 'phone': '01632423030', 'website': 'facebook.com/Farmaciahomeovida'}}"
"{'type': 'node', 'id': 11998615987, 'lat': -21.2641321, 'lon': -48.500317, 'tags': {'addr:housenumber': '2071', 'addr:street': 'Rua Jeremias de Paula Eduardo', 'addr:suburb': 'Centro', 'amenity': 'hospital', 'emergency': 'yes', 'healthcare': 'hospital', 'name': 'Pronto Atendimento Hospital Unimed', 'opening_hours': 'Mo-Su 00:00-24:00', 'phone': '01632443030', 'wheelchair': 'yes'}}"
"{'type': 'node', 'id': 12153607001, 'lat': -21.1698137, 'lon': -47.8184988, 'tags': {'amenity': 'pharmacy', 'name': 'Drogaria Café', 'outdoor_seating': 'no'}}"
"{'type': 'node', 'id': 12461769387, 'lat': -21.724984, 'lon': -48.1549715, 'tags': {'amenity': 'pharmacy', 'healthcare': 'pharmacy', 'name': 'Taty Farma'}}"
