OSM_Data
"{'type': 'node', 'id': 2981320408, 'lat': 33.2763684, 'lon': 103.9248236, 'tags': {'amenity': 'pharmacy', 'dispensing': 'no', 'name': '药店'}}"
"{'type': 'node', 'id': 4793463176, 'lat': 33.2510401, 'lon': 104.2443166, 'tags': {'amenity': 'hospital', 'name': '九寨沟人民医院'}}"
"{'type': 'node', 'id': 8369391558, 'lat': 34.1876696, 'lon': 105.1724136, 'tags': {'amenity': 'hospital', 'healthcare': 'hospital', 'name': '九州医院'}}"
"{'type': 'node', 'id': 8369391560, 'lat': 34.1879387, 'lon': 105.1730844, 'tags': {'amenity': 'pharmacy', 'dispensing': 'yes', 'healthcare': 'pharmacy', 'name': '百信大药房'}}"
"{'type': 'node', 'id': 8369391563, 'lat': 34.1879803, 'lon': 105.1740824, 'tags': {'amenity': 'pharmacy', 'dispensing': 'yes', 'healthcare': 'pharmacy', 'name': '众友健康药房'}}"
"{'type': 'node', 'id': 8369393682, 'lat': 34.1881329, 'lon': 105.1753849, 'tags': {'amenity': 'pharmacy', 'dispensing': 'yes', 'healthcare': 'pharmacy'}}"
"{'type': 'node', 'id': 8369393689, 'lat': 34.1878702, 'lon': 105.1786624, 'tags': {'amenity': 'pharmacy', 'dispensing': 'yes', 'healthcare': 'pharmacy', 'name': '众友健康药房'}}"
"{'type': 'node', 'id': 8369393710, 'lat': 34.1905843, 'lon': 105.1802877, 'tags': {'amenity': 'pharmacy', 'dispensing': 'yes', 'healthcare': 'pharmacy', 'name': '四李药商'}}"
"{'type': 'node', 'id': 8369393792, 'lat': 34.1920174, 'lon': 105.1772394, 'tags': {'amenity': 'pharmacy', 'dispensing': 'yes', 'healthcare': 'pharmacy', 'name': '惠康大药房'}}"
"{'type': 'node', 'id': 9764933992, 'lat': 33.3880962, 'lon': 104.9303482, 'tags': {'amenity': 'pharmacy', 'dispensing': 'yes', 'healthcare': 'pharmacy'}}"
"{'type': 'node', 'id': 9770490108, 'lat': 33.3988021, 'lon': 104.9139605, 'tags': {'amenity': 'clinic', 'healthcare': 'clinic', 'name': '永康诊所'}}"
"{'type': 'node', 'id': 9770490168, 'lat': 33.3900963, 'lon': 104.9209295, 'tags': {'amenity': 'hospital', 'healthcare': 'hospital', 'name': '武都仁爱医院'}}"
