OSM_Data
"{'type': 'node', 'id': 2303544093, 'lat': 25.0780216, 'lon': 89.7995151, 'tags': {'amenity': 'hospital', 'name': 'Islampur Upazilla Health Complex'}}"
"{'type': 'node', 'id': 2311234700, 'lat': 25.1620877, 'lon': 89.7589438, 'tags': {'amenity': 'hospital', 'emergency': 'yes', 'name': 'Dewangonj Upazilla Health Complex'}}"
"{'type': 'node', 'id': 2332670639, 'lat': 25.0180855, 'lon': 90.0245386, 'tags': {'amenity': 'hospital', 'name': 'Sherpur General Hospital'}}"
"{'type': 'node', 'id': 2332679000, 'lat': 24.4064424, 'lon': 90.3816307, 'tags': {'amenity': 'hospital', 'healthcare': 'hospital', 'name': 'Bhaluka Upazillz Health Complex'}}"
"{'type': 'node', 'id': 2332679001, 'lat': 24.462716, 'lon': 90.5451623, 'tags': {'addr:street': 'Mymensingh-Gafargaon Highway', 'amenity': 'hospital', 'emergency': 'yes', 'healthcare': 'hospital', 'name': 'Gafargaon Upazilla Health Complex'}}"
"{'type': 'node', 'id': 2332679006, 'lat': 24.5661403, 'lon': 90.6902107, 'tags': {'addr:street': 'Nandail - Hossainpur Road', 'amenity': 'hospital', 'level': '4', 'name': 'Nandail Upazilla Health Complex', 'operator': 'Government', 'operator:type': 'public'}}"
"{'type': 'node', 'id': 2332679009, 'lat': 24.5764913, 'lon': 90.3948003, 'tags': {'addr:street': 'ঢাকা-ময়মনসিংহ মহাসড়ক', 'amenity': 'hospital', 'emergency': 'yes', 'healthcare': 'hospital', 'name': 'Trishal Upazilla Health Complex'}}"
"{'type': 'node', 'id': 2332679845, 'lat': 24.3896744, 'lon': 89.990275, 'tags': {'amenity': 'hospital', 'name': 'Kalihati Upazilla Health Complex'}}"
"{'type': 'node', 'id': 2332680744, 'lat': 24.4630502, 'lon': 89.8747048, 'tags': {'addr:place': 'ভুয়াপুর', 'amenity': 'hospital', 'healthcare': 'hospital', 'name': 'Bhuapur Upazilla Health Complex'}}"
"{'type': 'node', 'id': 2332792027, 'lat': 25.564414, 'lon': 89.5189417, 'tags': {'amenity': 'hospital', 'name': 'Sundarganj Upazila Health Complex'}}"
"{'type': 'node', 'id': 2332802122, 'lat': 25.3272548, 'lon': 89.5376381, 'tags': {'amenity': 'hospital', 'name': 'Gaibandha General Hospital'}}"
"{'type': 'node', 'id': 2332802124, 'lat': 25.3894271, 'lon': 89.4689775, 'tags': {'amenity': 'hospital', 'name': 'Shadullahpur Upazila Health Complex'}}"
"{'type': 'node', 'id': 2332804904, 'lat': 25.5812943, 'lon': 89.6602718, 'tags': {'amenity': 'hospital', 'name': 'Chilmari Upazila Health Complex'}}"
"{'type': 'node', 'id': 2332856864, 'lat': 25.3646528, 'lon': 89.765778, 'tags': {'amenity': 'hospital', 'name': 'Char Rajibpur Upazila Health Complex'}}"
"{'type': 'node', 'id': 2332856875, 'lat': 25.090095, 'lon': 90.5134661, 'tags': {'amenity': 'hospital', 'name': 'Dhobaura Upazila Health Complex'}}"
"{'type': 'node', 'id': 2332856882, 'lat': 25.1279521, 'lon': 90.6780243, 'tags': {'amenity': 'hospital', 'name': 'Durgapur Upazila Health Complex'}}"
"{'type': 'node', 'id': 2332856889, 'lat': 25.1179719, 'lon': 90.3387211, 'tags': {'amenity': 'hospital', 'name': 'Haluaghat Upazila Health Complex'}}"
"{'type': 'node', 'id': 2332856895, 'lat': 25.182485, 'lon': 90.0659935, 'tags': {'amenity': 'hospital', 'emergency': 'yes', 'healthcare': 'hospital', 'healthcare:speciality': 'general', 'name': 'উপজেলা স্বাস্থ্য কমপ্লেক্স, ঝিনাইগাতী', 'name:bn': 'উপজেলা স্বাস্থ্য কমপ্লেক্স, ঝিনাইগাতী', 'name:en': 'Upazila Health Complex, Jhinaigati'}}"
"{'type': 'node', 'id': 2332856904, 'lat': 24.8937936, 'lon': 89.7173658, 'tags': {'amenity': 'hospital', 'name': 'Madarganj Upazila Health Complex'}}"
"{'type': 'node', 'id': 2332856909, 'lat': 25.0934153, 'lon': 90.188886, 'tags': {'amenity': 'hospital', 'name': 'Nalitabari Upazila Health Complex'}}"
"{'type': 'node', 'id': 2332856912, 'lat': 24.9484441, 'lon': 90.3648299, 'tags': {'amenity': 'hospital', 'name': 'Phulpur Upazila Health Complex'}}"
"{'type': 'node', 'id': 2332856918, 'lat': 25.1130044, 'lon': 89.581814, 'tags': {'amenity': 'hospital', 'name': 'Saghatta Upazila Health Complex'}}"
"{'type': 'node', 'id': 2332856922, 'lat': 24.8940962, 'lon': 89.5740239, 'tags': {'amenity': 'hospital', 'name': 'Sariakandi Upazila Health Complex'}}"
"{'type': 'node', 'id': 2352335416, 'lat': 24.4586368, 'lon': 89.7110436, 'tags': {'amenity': 'hospital', 'healthcare': 'hospital', 'name': 'Sirajganj General Hospital'}}"
"{'type': 'node', 'id': 2381384473, 'lat': 24.3899051, 'lon': 89.9905506, 'tags': {'amenity': 'hospital', 'name': 'Kalihati Upazila Health Complex'}}"
"{'type': 'node', 'id': 2409448296, 'lat': 24.9672892, 'lon': 90.1832214, 'tags': {'amenity': 'hospital', 'name': 'Nakla Upazilla Health Complex'}}"
"{'type': 'node', 'id': 2510273574, 'lat': 24.8836681, 'lon': 89.3571877, 'tags': {'amenity': 'hospital', 'name': 'Bogra Diabetic Hospital'}}"
"{'type': 'node', 'id': 2552266475, 'lat': 24.4537651, 'lon': 89.7096693, 'tags': {'amenity': 'hospital'}}"
"{'type': 'node', 'id': 2824254451, 'lat': 24.6140873, 'lon': 89.916475, 'tags': {'amenity': 'hospital', 'name': 'Nagda Shimla Health Center'}}"
"{'type': 'node', 'id': 2881689476, 'lat': 24.5921412, 'lon': 89.9126986, 'tags': {'amenity': 'hospital', 'name': 'Chatila Sub Health Center'}}"
"{'type': 'node', 'id': 3575340362, 'lat': 24.7429322, 'lon': 90.40919, 'tags': {'amenity': 'hospital', 'name': 'Mymensingh medical collage hospital'}}"
"{'type': 'node', 'id': 3702053369, 'lat': 25.106312, 'lon': 90.6728523, 'tags': {'amenity': 'hospital', 'name': 'Health & Family Wlfare Center'}}"
"{'type': 'node', 'id': 4388826037, 'lat': 24.7134238, 'lon': 90.294617, 'tags': {'addr:city': 'Mymensingh', 'addr:postcode': '2216', 'addr:street': 'Foraji Bari Road', 'amenity': 'clinic', 'name': 'Bashna Community Clinic'}}"
"{'type': 'node', 'id': 5080670401, 'lat': 24.6867793, 'lon': 89.8218835, 'tags': {'amenity': 'clinic', 'healthcare': 'clinic', 'name': 'Tarakandi Community Clinic'}}"
"{'type': 'node', 'id': 5144773205, 'lat': 24.8414063, 'lon': 89.3471868, 'tags': {'amenity': 'pharmacy', 'name': 'Proma Medicine Corner প্রমা মেডিসিন কর্নার'}}"
"{'type': 'node', 'id': 5144796380, 'lat': 24.8285895, 'lon': 89.353838, 'tags': {'amenity': 'pharmacy', 'name': 'Bonani Medicine and Surgical Plus'}}"
"{'type': 'node', 'id': 5144797262, 'lat': 24.8284992, 'lon': 89.354098, 'tags': {'amenity': 'pharmacy', 'name': 'City Medical and Surgical Plus'}}"
"{'type': 'node', 'id': 5144808509, 'lat': 24.8233332, 'lon': 89.3637798, 'tags': {'amenity': 'pharmacy', 'name': 'Kajol Pharmacy কাজল ফার্মেসি'}}"
"{'type': 'node', 'id': 5144808599, 'lat': 24.8233612, 'lon': 89.3639475, 'tags': {'amenity': 'pharmacy', 'name': 'Sadek Pharmacy সাদেক ফার্মেসি'}}"
"{'type': 'node', 'id': 5146644798, 'lat': 24.7714733, 'lon': 89.3964974, 'tags': {'amenity': 'pharmacy', 'name': 'Emon Pharmacy ইমন ফার্মেসি'}}"
"{'type': 'node', 'id': 5146729453, 'lat': 24.7508189, 'lon': 89.3975242, 'tags': {'amenity': 'clinic', 'name': 'Army Medical College আর্মি মেডিক্যাল কলেজ'}}"
"{'type': 'node', 'id': 5146772353, 'lat': 24.7253324, 'lon': 89.3966254, 'tags': {'amenity': 'pharmacy', 'name': 'Emon Phermacy'}}"
"{'type': 'node', 'id': 5146773493, 'lat': 24.7252436, 'lon': 89.3966786, 'tags': {'amenity': 'pharmacy', 'name': 'Belal Medical Store'}}"
"{'type': 'node', 'id': 5147011798, 'lat': 24.6580988, 'lon': 89.422871, 'tags': {'amenity': 'pharmacy', 'name': 'Dr. Samad Pharmacy ডাঃ সামাদ ফার্মেসী'}}"
"{'type': 'node', 'id': 5154826692, 'lat': 24.8483779, 'lon': 89.3730276, 'tags': {'amenity': 'pharmacy', 'name': 'Shokti Oushodhaloi', 'shop': 'yes'}}"
"{'type': 'node', 'id': 5156565405, 'lat': 24.8894094, 'lon': 89.3601246, 'tags': {'amenity': 'pharmacy', 'name': 'Fariha Pharmacy ফারিহা ফার্মেসি'}}"
"{'type': 'node', 'id': 5156699392, 'lat': 24.914448, 'lon': 89.3528514, 'tags': {'amenity': 'pharmacy', 'name': 'Mifta pharmacy'}}"
"{'type': 'node', 'id': 5190006962, 'lat': 25.0565382, 'lon': 89.3696628, 'tags': {'amenity': 'pharmacy', 'healthcare': 'pharmacy', 'name': 'Shapla Medical Store শাপলা মেডিকেল স্টোর'}}"
"{'type': 'node', 'id': 5215578279, 'lat': 24.4046496, 'lon': 90.3850171, 'tags': {'amenity': 'pharmacy', 'healthcare': 'pharmacy', 'name': 'Sattar Medical Hall'}}"
"{'type': 'node', 'id': 5215883922, 'lat': 24.581572, 'lon': 90.3908005, 'tags': {'amenity': 'pharmacy', 'healthcare': 'pharmacy', 'name': 'Wasi Pharma'}}"
"{'type': 'node', 'id': 5215914253, 'lat': 24.6279418, 'lon': 90.3984877, 'tags': {'amenity': 'pharmacy', 'healthcare': 'pharmacy', 'name': 'LBIB MEDICAL HALL'}}"
"{'type': 'node', 'id': 5217431621, 'lat': 24.7445357, 'lon': 90.4084963, 'tags': {'amenity': 'pharmacy', 'healthcare': 'pharmacy', 'name': 'Jahanara Medical Hall জাহানারা মেডিকেল হলের'}}"
"{'type': 'node', 'id': 5217708246, 'lat': 24.7545246, 'lon': 90.4028376, 'tags': {'amenity': 'hospital', 'healthcare': 'hospital', 'name': 'Sodesh Hospital Pvt. Ltd.'}}"
"{'type': 'node', 'id': 5217724472, 'lat': 24.7568224, 'lon': 90.4019915, 'tags': {'amenity': 'hospital', 'healthcare': 'hospital', 'name': 'Quality General Hospital কোয়ালিটির জেনারেল হাসপাতালে'}}"
"{'type': 'node', 'id': 5219360769, 'lat': 24.7660136, 'lon': 90.3934843, 'tags': {'amenity': 'pharmacy', 'healthcare': 'pharmacy', 'name': 'Murad Medicine Corner মুরাদ মেডিসিন কর্ণার'}}"
"{'type': 'node', 'id': 5219734321, 'lat': 24.8313591, 'lon': 89.3766528, 'tags': {'addr:street': 'Bhai Pagla Mazar Lane', 'amenity': 'hospital', 'healthcare': 'hospital', 'name': 'Saik General Hospital', 'name:bn': 'সাইক জেনারেল হসপিটাল'}}"
"{'type': 'node', 'id': 5222699095, 'lat': 24.7620039, 'lon': 90.4501477, 'tags': {'amenity': 'pharmacy', 'healthcare': 'pharmacy', 'name': 'Mamun Medical Hall'}}"
"{'type': 'node', 'id': 5224419078, 'lat': 24.8274108, 'lon': 90.4328065, 'tags': {'amenity': 'pharmacy', 'healthcare': 'pharmacy', 'name': 'Unique Medicine Service'}}"
"{'type': 'node', 'id': 5237375454, 'lat': 24.4550825, 'lon': 90.5504676, 'tags': {'amenity': 'pharmacy', 'healthcare': 'pharmacy', 'name': 'Safir Medical Hall'}}"
"{'type': 'node', 'id': 5611158563, 'lat': 24.6899634, 'lon': 90.6109911, 'tags': {'amenity': 'hospital', 'name': 'Ishwarganj Upazila Health Complex', 'name:bn': 'ইশ্বরগঞ্জ ঊপজেলা স্বাস্থ্য কেন্দ্র', 'name:en': 'Ishwarganj Upazila Health Complex', 'operator': 'Government'}}"
"{'type': 'node', 'id': 5642267037, 'lat': 25.5932071, 'lon': 89.8595477, 'tags': {'addr:district': 'Kurigram', 'addr:union': 'Shoul Mari', 'addr:ward': '3', 'address': 'Kolomer Char Ward 3', 'amenity': 'clinic', 'description': 'In every month the clinic open once for the public. Click here more information- https://www.openstreetmap.org/user/aHaSaN/diary.', 'name': 'Satellite Clinic', 'source': 'survey', 'source:date': '2018-15-05', 'source:name': 'logic_undp'}}"
"{'type': 'node', 'id': 5642267061, 'lat': 25.59731, 'lon': 89.8629539, 'tags': {'addr:district': 'Kurigram', 'addr:union': 'Shoul Mari', 'addr:ward': '1', 'address': 'goytapara Ward 1', 'amenity': 'pharmacy', 'description': 'pucca house, most of the time are closed. Click here more information- https://www.openstreetmap.org/user/aHaSaN/diary.', 'name': 'Ayurvedi Daowa Khana', 'source': 'survey', 'source:date': '2018-15-05', 'source:name': 'logic_undp'}}"
"{'type': 'node', 'id': 5642267075, 'lat': 25.6057923, 'lon': 89.8749192, 'tags': {'addr:district': 'Kurigram', 'addr:union': 'Shoul Mari', 'addr:ward': '1', 'amenity': 'clinic', 'building': 'yes', 'description': 'single storey pucca building health services are provided. Click here more information- https://www.openstreetmap.org/user/aHaSaN/diary.', 'name': 'কমিউনিটি ক্লিনিক', 'source': 'survey', 'source:date': '2018-15-05', 'source:name': 'logic_undp'}}"
"{'type': 'node', 'id': 5642624749, 'lat': 25.4548951, 'lon': 89.7278684, 'tags': {'addr:district': 'kurigram', 'addr:union': 'mohongonj', 'addr:ward': '2', 'amenity': 'clinic', 'damage': 'Yes', 'damage_date': '2017', 'damage_description': 'Mudslide.damage 50%', 'description': 'Institution', 'name': 'Panjerpara Friendship Satellite Clinic', 'source': 'survey', 'source:name': 'logic_undp', 'source_ref': 'https://www.openstreetmap.org/user/aHaSaN/diary'}}"
"{'type': 'node', 'id': 5642624755, 'lat': 25.4437602, 'lon': 89.7237499, 'tags': {'addr:district': 'kurigram', 'addr:union': 'mohongonj', 'addr:ward': '2', 'amenity': 'clinic', 'description': 'Physical Infrastructure', 'name': 'Sikarpur Ftiendship Matriseba Counseling Center', 'source': 'survey', 'source:link': 'https://www.openstreetmap.org/user/aHaSaN/diary', 'source:name': 'logic_undp', 'source_date': '2018-07-12'}}"
"{'type': 'node', 'id': 5643364226, 'lat': 25.4154443, 'lon': 89.7774115, 'tags': {'addr:ward': '6', 'amenity': 'clinic', 'description': 'Patadhowa Para', 'name': 'Community Clinic', 'source': 'survey', 'source:link': 'https://www.openstreetmap.org/user/aHaSaN/diary', 'source:name': 'logic_undp', 'source_date': '2018-07-12'}}"
"{'type': 'node', 'id': 5643364249, 'lat': 25.4041762, 'lon': 89.7681458, 'tags': {'addr:district': 'kurigram', 'addr:union': 'mohongonj', 'addr:ward': 'Notun Bazar Noyar Char 6 No', 'amenity': 'clinic', 'damage': 'Yes', 'damage_date': '2017.0', 'damage_description': 'Union Parishad was damaged', 'description': 'Union', 'name': 'Mohongonj Upozilla Clinic', 'source': 'survey', 'source:link': 'https://www.openstreetmap.org/user/aHaSaN/diary', 'source:name': 'logic_undp', 'source_date': '2018-07-12'}}"
"{'type': 'node', 'id': 5643514224, 'lat': 25.5882663, 'lon': 89.857112, 'tags': {'addr:district': 'Kurigram', 'addr:union': 'Shoul Mari', 'addr:ward': '2', 'amenity': 'clinic', 'description': 'Pucca Building health services are provided. Click here more information- https://www.openstreetmap.org/user/aHaSaN/diary.', 'name': 'Community Clinic', 'source': 'survey', 'source:date': '2018-15-05', 'source:name': 'logic_undp'}}"
"{'type': 'node', 'id': 5643886632, 'lat': 25.6391905, 'lon': 89.8289609, 'tags': {'amenity': 'clinic'}}"
"{'type': 'node', 'id': 5644080042, 'lat': 25.5755337, 'lon': 89.8134309, 'tags': {'addr:district': 'Kurigram', 'addr:union': 'bandober', 'address': 'Kutir char 7 no Ward', 'amenity': 'clinic', 'building': 'yes', 'description': 'Length 20 feet Width 15 feet pucca,Click here more information-https://www.openstreetmap.org/user/aHaSaN/diary', 'name': 'kutir char Community Clinic(কুটির চর ক্লিনিক )', 'source': 'survey', 'source:date': '15-05-2018'}}"
"{'type': 'node', 'id': 5644408591, 'lat': 25.6303496, 'lon': 89.872182, 'tags': {'addr:district': 'Kurigram', 'addr:union': 'Shoul Mari', 'addr:ward': '4', 'amenity': 'clinic', 'description': 'full pucca room 1 established in 17 10 15. Click here more information- https://www.openstreetmap.org/user/aHaSaN/diary.', 'name': 'Char Boalmari Community Clinic ( চর বোয়ালমারি কমিউনিটি ক্লিনিক )', 'source': 'survey', 'source:date': '2018-15-05', 'source:name': 'logic_undp'}}"
"{'type': 'node', 'id': 5644408611, 'lat': 25.6040943, 'lon': 89.856536, 'tags': {'addr:district': 'Kurigram', 'addr:union': 'Shoul Mari', 'addr:ward': '6', 'address': 'boalmari Ward 6', 'amenity': 'clinic', 'clinic': 'yes', 'description': 'kono ghor nei manusher basay boshe. Click here more information- https://www.openstreetmap.org/user/aHaSaN/diary.', 'name': 'Satellite Clinic ( স্যাটেলাইট ক্লিনিক )', 'source': 'survey', 'source:date': '2018-15-05', 'source:name': 'logic_undp'}}"
"{'type': 'node', 'id': 5645245569, 'lat': 25.5897154, 'lon': 89.8166335, 'tags': {'address': 'Khonjon mara 6 no Ward', 'amenity': 'clinic', 'building': 'yes', 'damage_Per': '0.0', 'damage_date': '0.0', 'description': 'pucca', 'name': 'Khonjon mara Community Clinic'}}"
"{'type': 'node', 'id': 5645299377, 'lat': 25.5399203, 'lon': 89.8453948, 'tags': {'addr:full': '5 no ward fulbari', 'amenity': 'clinic', 'building': 'yes', 'damage': 'yes', 'damage_description': 'the flood occurred', 'damage_per': '25.0', 'description': 'pucca', 'hazard_intensity': 'low', 'name': 'community clinic'}}"
"{'type': 'node', 'id': 5645759596, 'lat': 25.6095456, 'lon': 89.8493537, 'tags': {'addr:district': 'Kurigram', 'addr:union': 'Shoul Mari', 'addr:ward': '7', 'address': 'boraikandi bazar ward 7', 'amenity': 'clinic', 'description': 'union council two storey building health center three Storey building. Click here more information- https://www.openstreetmap.org/user/aHaSaN/diary.', 'name': '2 No Showlmari union Council & Health Center ( ২ শোলমারী ইউনিয়ন পরিষদ ও স্বাস্থ্য কেন্দ্র )', 'office': 'yes', 'source': 'survey', 'source:date': '2018-15-05', 'source:name': 'logic_undp'}}"
"{'type': 'node', 'id': 5646133175, 'lat': 25.6423219, 'lon': 89.8581836, 'tags': {'address': 'Tekani kauyar chor 8', 'amenity': 'clinic', 'damage': 'No', 'name': 'Community clinic'}}"
"{'type': 'node', 'id': 5647117866, 'lat': 25.4752779, 'lon': 89.8170277, 'tags': {'addr:district': 'Kurigram', 'addr:union': 'Char Rajibpur', 'addr:ward': '6', 'amenity': 'clinic', 'damage': 'Yes', 'damage_date': '2017', 'damage_description': 'Ground floor inundated by 2017 floods and eroded cementing of the bottom of the concrete walls', 'damage_percent': '0.25', 'description': 'Single floor Shiberdangi community clinic', 'hazard_intensity': 'low', 'name': 'Community Clinic', 'source': 'survey', 'source:date': '02-06-2018', 'source:name': 'logic_undp', 'source_ref': 'https://www.openstreetmap.org/user/aHaSaN/diary/44812'}}"
"{'type': 'node', 'id': 5647230890, 'lat': 25.5701196, 'lon': 89.8371376, 'tags': {'addr:full': 'notan para ward no 02', 'amenity': 'clinic', 'building': 'yes', 'clinic': 'yes', 'damage': 'yes', 'damage_description': 'the flood is', 'damage_per': '50.0', 'description': 'katcha', 'hazard_intensity': 'high', 'name': 'surjer hasi satellite clinic'}}"
"{'type': 'node', 'id': 5647805559, 'lat': 25.5091331, 'lon': 89.7702366, 'tags': {'addr:district': 'Kurigram', 'addr:union': 'Kodal Kathi', 'amenity': 'clinic', 'damage': 'yes', 'description': 'floor 10 percent _ wall 5 percent, bonnay Voboner 1 5 inche toliye jay ebong brishtir pani te vobon tir owal vije jay', 'name': 'Uttar Chor Sajai Mandalpara Community Clinic ( উত্তর চর সাজাই মণ্ডলপাড়া কমিউনিটি ক্লিনিক )', 'source': 'survey', 'source:date': '2018-11-05', 'source:name': 'logic_undp'}}"
"{'type': 'node', 'id': 5647913644, 'lat': 25.6047371, 'lon': 89.8339552, 'tags': {'addr:district': 'Kurigram', 'addr:union': 'Shoul Mari', 'addr:ward': '2', 'amenity': 'clinic', 'building': 'yes', 'damage': 'Yes', 'description': 'Building, in 2017 soil has been collapse due to flood. Click here more information- https://www.openstreetmap.org/user/aHaSaN/diary.', 'hazard_intensity': 'low', 'name': 'South Tapurre Community Clinic', 'source': 'survey', 'source:date': '2018-15-05', 'source:name': 'logic_undp'}}"
"{'type': 'node', 'id': 5859184897, 'lat': 25.6319432, 'lon': 89.674809, 'tags': {'addr:district': 'Kurigram', 'addr:union': 'Raniganj', 'addr:ward': '5 no word sorkari gram', 'amenity': 'clinic', 'damage': 'no', 'name': 'Sastho and Paribar Kendro', 'source': 'survey', 'source:date': '2018-07-12', 'source:name': 'logic_undp', 'source_ref': 'https://www.openstreetmap.org/user/aHaSaN/diary', 'type': 'Institutional'}}"
"{'type': 'node', 'id': 5863662519, 'lat': 24.4171738, 'lon': 90.656704, 'tags': {'amenity': 'hospital', 'name': 'Hossainpur Upazila Health Complex', 'type': 'government'}}"
"{'type': 'node', 'id': 5920414074, 'lat': 24.7711854, 'lon': 90.5693994, 'tags': {'amenity': 'hospital', 'name': 'Gouripur Upazila Health Complex'}}"
"{'type': 'node', 'id': 6139901314, 'lat': 24.8259062, 'lon': 89.3781691, 'tags': {'amenity': 'hospital', 'name': 'Health City Specialized Hospital'}}"
"{'type': 'node', 'id': 6139904736, 'lat': 24.8293636, 'lon': 89.3775578, 'tags': {'amenity': 'pharmacy', 'name': 'Jamila Pharmacy'}}"
"{'type': 'node', 'id': 6139904738, 'lat': 24.8264405, 'lon': 89.3776875, 'tags': {'amenity': 'pharmacy', 'name': 'Mim Pharmacy'}}"
"{'type': 'node', 'id': 6139948639, 'lat': 24.8511186, 'lon': 89.3769555, 'tags': {'amenity': 'pharmacy', 'dispensing': 'yes', 'healthcare': 'pharmacy', 'name': 'Amiyo Pharmacy'}}"
"{'type': 'node', 'id': 6158448122, 'lat': 24.7553591, 'lon': 89.8351514, 'tags': {'amenity': 'hospital', 'name': 'Sarishabari Upazila Health Complex'}}"
"{'type': 'node', 'id': 6205494354, 'lat': 24.4566265, 'lon': 89.7079551, 'tags': {'amenity': 'hospital', 'healthcare': 'hospital'}}"
"{'type': 'node', 'id': 6229464658, 'lat': 24.6268335, 'lon': 90.5738946, 'tags': {'amenity': 'hospital', 'name': 'Ramchandrapur Community Clinic'}}"
"{'type': 'node', 'id': 6280540551, 'lat': 25.4711058, 'lon': 89.6843737, 'tags': {'addr:district': 'Kurigram', 'addr:union': 'Astomir Char', 'addr:ward': '9', 'amenity': 'clinic', 'description': 'Khamar Bash Patari Community Clinic- pucca, length: 15 feet, width : 10 feet', 'name': 'Community Clinic', 'source': 'servey', 'source:date': '2018-07-12', 'source:name': 'logic_undp', 'source_ref': 'https://www.openstreetmap.org/user/aHaSaN/diary'}}"
"{'type': 'node', 'id': 6717784204, 'lat': 24.6307812, 'lon': 90.6078405, 'tags': {'addr:postcode': '2280', 'addr:street': 'ঊচাখিলা সড়ক', 'amenity': 'pharmacy', 'name': 'Selina Medical Hall', 'name:en': 'Laxmiganj Bazar', 'opening_hours': 'Mo-Su 08:00-23:00', 'source': 'Field Survey'}}"
"{'type': 'node', 'id': 6717817508, 'lat': 24.6308018, 'lon': 90.6098108, 'tags': {'amenity': 'pharmacy', 'name': 'ফাতেমা মেডিকেল হল', 'source': 'Field Survey'}}"
"{'type': 'node', 'id': 6717817520, 'lat': 24.6307645, 'lon': 90.6093362, 'tags': {'amenity': 'pharmacy', 'name': 'Masoom Pharmachy', 'source': 'Field Survey'}}"
"{'type': 'node', 'id': 6768847372, 'lat': 25.1451949, 'lon': 90.3244779, 'tags': {'amenity': 'hospital', 'healthcare': 'hospital', 'healthcare:speciality': 'general', 'name': 'Joyrumkura Hospital'}}"
"{'type': 'node', 'id': 6834047100, 'lat': 24.6869987, 'lon': 90.5986007, 'tags': {'addr:city': 'Mymensigh', 'addr:postcode': '2280', 'addr:street': 'Mymensingh-Kishoreganj Road', 'amenity': 'hospital', 'name': 'Buda Diagnostic Centre'}}"
"{'type': 'node', 'id': 6869986226, 'lat': 24.6306656, 'lon': 90.6093443, 'tags': {'amenity': 'pharmacy', 'name': 'Nirupoma Medical Hall'}}"
"{'type': 'node', 'id': 6908331618, 'lat': 25.2214158, 'lon': 90.2222224, 'tags': {'addr:district': 'West Garo Hills', 'addr:full': 'Dalu', 'addr:postcode': '794103', 'addr:state': 'Meghalaya', 'healthcare': 'centre', 'name': 'Dalu Chc', 'source': 'OpenGovernmentData'}}"
"{'type': 'node', 'id': 6909772330, 'lat': 25.2967477, 'lon': 90.0076537, 'tags': {'addr:district': 'West Garo Hills', 'addr:full': 'Purakhasia', 'addr:postcode': '794103', 'addr:state': 'Meghalaya', 'healthcare': 'centre', 'name': 'Purakhasia PHC', 'source': 'OpenGovernmentData'}}"
"{'type': 'node', 'id': 6909772335, 'lat': 25.5166021, 'lon': 89.9593981, 'tags': {'addr:district': 'West Garo Hills', 'addr:full': 'Betasing', 'addr:postcode': '794106', 'addr:state': 'Meghalaya', 'healthcare': 'centre', 'name': 'Betasing PHC', 'source': 'OpenGovernmentData'}}"
"{'type': 'node', 'id': 6909772354, 'lat': 25.3920613, 'lon': 89.9050773, 'tags': {'addr:district': 'West Garo Hills', 'addr:full': 'Zikzak', 'addr:postcode': '794115', 'addr:state': 'Meghalaya', 'healthcare': 'centre', 'name': 'Zikzak PHC', 'source': 'OpenGovernmentData'}}"
"{'type': 'node', 'id': 6909772368, 'lat': 25.2983639, 'lon': 89.8642574, 'tags': {'addr:district': 'West Garo Hills', 'addr:full': 'Near RCC Brigde, Mahendraganj, PWD Street, Kukurmua', 'addr:postcode': '794106', 'addr:state': 'Meghalaya', 'healthcare': 'centre', 'healthcare:speciality': 'community', 'name': 'Mahendraganj CHC', 'source': 'OpenGovernmentData'}}"
"{'type': 'node', 'id': 6909772402, 'lat': 25.5287891, 'lon': 90.0347862, 'tags': {'addr:district': 'West Garo Hills', 'addr:full': 'Rangsakona', 'addr:postcode': '794105', 'addr:state': 'Meghalaya', 'healthcare': 'centre', 'name': 'Rangsakona PHC', 'source': 'OpenGovernmentData'}}"
"{'type': 'node', 'id': 6909772413, 'lat': 25.4842817, 'lon': 90.2239048, 'tags': {'addr:district': 'West Garo Hills', 'addr:full': 'Near Darengre Market, Darengre, Tura Dalu Road', 'addr:postcode': '794005', 'addr:state': 'Meghalaya', 'healthcare': 'centre', 'name': 'Darengre PHC', 'source': 'OpenGovernmentData'}}"
"{'type': 'node', 'id': 6909772443, 'lat': 25.5147491, 'lon': 90.2037942, 'tags': {'addr:district': 'West Garo Hills', 'addr:full': 'Near Der Mile Petrol Pump, Der Mile, Tetengkol Araimile road', 'addr:postcode': '794101', 'addr:state': 'Meghalaya', 'addr:subdistrict': 'Rongram', 'amenity': 'hospital', 'description': 'District Hospital', 'name': 'Tura Civil Hospital(DH)', 'source': 'OpenGovernmentData'}}"
"{'type': 'node', 'id': 7138660278, 'lat': 25.5179517, 'lon': 90.1704141, 'tags': {'addr:district': 'West Garo Hills', 'addr:full': 'Near Dakopgre Catholic Church, Walbakgre, Tura Walbakgre Road', 'addr:postcode': '794101', 'addr:state': 'Meghalaya', 'addr:subdistrict': 'Rongram', 'amenity': 'hospital', 'name': 'Holy Cross Hospital', 'source': 'OpenGovernmentData'}}"
"{'type': 'node', 'id': 7138660283, 'lat': 25.602567, 'lon': 90.125138, 'tags': {'addr:district': 'West Garo Hills', 'addr:full': 'Near Babadam Market, Babadamgre, Tura Chibragre Road', 'addr:postcode': '794105', 'addr:state': 'Meghalaya', 'addr:subdistrict': 'Rongram', 'description': 'Primary Health Centre', 'healthcare': 'centre', 'name': 'Babadam, PHC', 'source': 'OpenGovernmentData'}}"
"{'type': 'node', 'id': 7138660286, 'lat': 25.322837, 'lon': 90.420927, 'tags': {'addr:district': 'South Garo Hills', 'addr:full': 'Near Chokpot Bazar, Chokpot, Chokpot', 'addr:postcode': '794005', 'addr:state': 'Meghalaya', 'addr:subdistrict': 'Chokpot', 'description': 'Community Health Center', 'healthcare': 'centre', 'name': 'Chokpot, CHC', 'source': 'OpenGovernmentData'}}"
"{'type': 'node', 'id': 7138660288, 'lat': 25.1987267, 'lon': 90.6309637, 'tags': {'addr:district': 'South Garo Hills', 'addr:full': 'Near District Medical & Health Office, Asim Chiring, Baghmara', 'addr:postcode': '794102', 'addr:state': 'Meghalaya', 'addr:subdistrict': 'Baghmara', 'amenity': 'hospital', 'description': 'District Hospital', 'name': 'Capt. Williamson Memorial Hospital, Baghmara', 'source': 'OpenGovernmentData'}}"
"{'type': 'node', 'id': 7138660293, 'lat': 25.338968, 'lon': 90.30694, 'tags': {'addr:district': 'West Garo Hills', 'addr:full': 'Alagre, Tura Chokpot Road', 'addr:postcode': '794005', 'addr:state': 'Meghalaya', 'addr:subdistrict': 'Dalu', 'description': 'Community Health Center', 'healthcare': 'centre', 'name': 'Alagre, CHC', 'source': 'OpenGovernmentData'}}"
"{'type': 'node', 'id': 7138660302, 'lat': 25.3439082, 'lon': 90.2157669, 'tags': {'addr:district': 'West Garo Hills', 'addr:full': 'Near Kherapara Local Market, Kherapara, Kherapara', 'addr:postcode': '794103', 'addr:state': 'Meghalaya', 'addr:subdistrict': 'Dalu', 'description': 'Primary Health Centre', 'healthcare': 'centre', 'name': 'Kherapara, PHC', 'source': 'OpenGovernmentData'}}"
"{'type': 'node', 'id': 7138660313, 'lat': 25.514655, 'lon': 90.219953, 'tags': {'addr:district': 'West Garo Hills', 'addr:full': ""Near District Medical & Health Officer's office, Lower Babupara, Lower Babupara Road"", 'addr:postcode': '794001', 'addr:state': 'Meghalaya', 'addr:subdistrict': 'Rongram', 'amenity': 'hospital', 'description': 'District Hospital', 'name': 'Tura Maternity and Child Hospital(SDH)', 'source': 'OpenGovernmentData'}}"
"{'type': 'node', 'id': 7138660315, 'lat': 25.4145908, 'lon': 89.9873773, 'tags': {'addr:district': 'South West Garo Hills', 'addr:full': 'Near Community Hall, Salmanpara, PWD Street', 'addr:postcode': '794115', 'addr:state': 'Meghalaya', 'addr:subdistrict': 'Zikzak', 'description': 'Primary Health Centre', 'healthcare': 'centre', 'name': 'Salmanpara, PHC', 'source': 'OpenGovernmentData'}}"
"{'type': 'node', 'id': 7138660317, 'lat': 25.1751283, 'lon': 90.5060841, 'tags': {'addr:district': 'South Garo Hills', 'addr:full': 'Near Sibbari Bazzar, Sibbari, Sibbari', 'addr:postcode': '794103', 'addr:state': 'Meghalaya', 'addr:subdistrict': 'Gasuapara', 'description': 'Primary Health Centre', 'healthcare': 'centre', 'name': 'Sibbari, PHC', 'source': 'OpenGovernmentData'}}"
"{'type': 'node', 'id': 7138660319, 'lat': 25.5216626, 'lon': 90.2132555, 'tags': {'addr:district': 'West Garo Hills', 'addr:full': 'Near Don Bosco School Playground, Sampalgre, Teteng Aja Road', 'addr:postcode': '794001', 'addr:state': 'Meghalaya', 'addr:subdistrict': 'Rongram', 'description': 'Urban Primary Health Centre', 'healthcare': 'centre', 'name': 'Sampalgre, Urban Primary Health Centre', 'source': 'OpenGovernmentData'}}"
"{'type': 'node', 'id': 7138660340, 'lat': 25.575634, 'lon': 90.4913, 'tags': {'addr:district': 'East Garo Hills', 'addr:full': 'Approach to PWD Road, Samanda', 'addr:postcode': '794112', 'addr:state': 'Meghalaya', 'addr:subdistrict': 'Samanda', 'description': 'Primary Health Centre', 'healthcare': 'centre', 'name': 'Samanda, PHC', 'source': 'OpenGovernmentData'}}"
"{'type': 'node', 'id': 7138660343, 'lat': 25.69304, 'lon': 90.013433, 'tags': {'addr:district': 'West Garo Hills', 'addr:full': 'Near Veterinary Office, Selsella, Tura Phulbari Road', 'addr:postcode': '794105', 'addr:state': 'Meghalaya', 'addr:subdistrict': 'Selsella', 'description': 'Community Health Center', 'healthcare': 'centre', 'name': 'Selsella, CHC', 'source': 'OpenGovernmentData'}}"
"{'type': 'node', 'id': 7138660344, 'lat': 25.4734246, 'lon': 89.9305927, 'tags': {'addr:district': 'South West Garo Hills', 'addr:full': 'Near Police Station, Ampati, NH-62 Street', 'addr:postcode': '794115', 'addr:state': 'Meghalaya', 'addr:subdistrict': 'Betasing', 'description': 'Community Health Center', 'healthcare': 'centre', 'name': 'Ampati, CHC', 'source': 'OpenGovernmentData'}}"
"{'type': 'node', 'id': 7138660350, 'lat': 25.4442245, 'lon': 89.8410845, 'tags': {'addr:district': 'South West Garo Hills', 'addr:full': 'Near SBI, Kalaichar, PWD Street', 'addr:postcode': '794115', 'addr:state': 'Meghalaya', 'addr:subdistrict': 'Zikzak', 'description': 'Primary Health Centre', 'healthcare': 'centre', 'name': 'Kalaichar, PHC', 'source': 'OpenGovernmentData'}}"
"{'type': 'node', 'id': 7138660353, 'lat': 25.506077, 'lon': 90.214867, 'tags': {'addr:district': 'West Garo Hills', 'addr:full': 'Near Dobasipara BSF Camp, Dobasipara, Tura Dalu Road', 'addr:postcode': '794005', 'addr:state': 'Meghalaya', 'addr:subdistrict': 'Rongram', 'description': 'Urban Health Centre', 'healthcare': 'centre', 'name': 'Dobasipara Urban Health Centre', 'source': 'OpenGovernmentData'}}"
"{'type': 'node', 'id': 7138660361, 'lat': 25.644401, 'lon': 90.60755, 'tags': {'addr:district': 'East Garo Hills', 'addr:full': 'Approach to PWD Road, Songsak', 'addr:postcode': '794111', 'addr:state': 'Meghalaya', 'addr:subdistrict': 'Songsak', 'description': 'Primary Health Centre', 'healthcare': 'centre', 'name': 'Songsak, PHC', 'source': 'OpenGovernmentData'}}"
"{'type': 'node', 'id': 7138660363, 'lat': 25.4743, 'lon': 90.088734, 'tags': {'addr:district': 'West Garo Hills', 'addr:full': 'Near Market, Mellim, PWD Street', 'addr:postcode': '794005', 'addr:state': 'Meghalaya', 'addr:subdistrict': 'Gambegre', 'description': 'Primary Health Centre', 'healthcare': 'centre', 'name': 'Mellim, PHC', 'source': 'OpenGovernmentData'}}"
"{'type': 'node', 'id': 7138660371, 'lat': 25.3535687, 'lon': 90.6570008, 'tags': {'addr:district': 'South Garo Hills', 'addr:full': 'Near Siju Police Beat House, Siju, Siju', 'addr:postcode': '794114', 'addr:state': 'Meghalaya', 'addr:subdistrict': 'Baghmara', 'description': 'Primary Health Centre', 'healthcare': 'centre', 'name': 'Siju, PHC', 'source': 'OpenGovernmentData'}}"
"{'type': 'node', 'id': 7138660381, 'lat': 25.5146304, 'lon': 90.6046435, 'tags': {'addr:district': 'East Garo Hills', 'addr:full': 'Near PWD Road/Opp. Children Park, Medical Colony, Williamnagar', 'addr:postcode': '794111', 'addr:state': 'Meghalaya', 'addr:subdistrict': 'Samanda', 'amenity': 'hospital', 'description': 'District Hospital', 'name': 'Williamnagar Civil Hospital', 'source': 'OpenGovernmentData'}}"
"{'type': 'node', 'id': 7138660386, 'lat': 25.391684, 'lon': 89.905286, 'tags': {'addr:district': 'South West Garo Hills', 'addr:full': 'Near SBI, Zikzak, PWD Street', 'addr:postcode': '794115', 'addr:state': 'Meghalaya', 'addr:subdistrict': 'Zikzak', 'description': 'Primary Health Centre', 'healthcare': 'centre', 'name': 'Zikzak, PHC', 'source': 'OpenGovernmentData'}}"
"{'type': 'node', 'id': 7138660387, 'lat': 25.580509, 'lon': 90.022644, 'tags': {'addr:district': 'West Garo Hills', 'addr:full': 'Near SBI, Garobadha, NH-62 Street', 'addr:postcode': '794105', 'addr:state': 'Meghalaya', 'addr:subdistrict': 'Selsella', 'description': 'Primary Health Centre', 'healthcare': 'centre', 'name': 'Garobadha, PHC', 'source': 'OpenGovernmentData'}}"
"{'type': 'node', 'id': 7138660392, 'lat': 25.6007287, 'lon': 90.2736844, 'tags': {'addr:district': 'West Garo Hills', 'addr:full': 'Near Asananggre Playground, Asananggre, Tura Paikan Road', 'addr:postcode': '794105', 'addr:state': 'Meghalaya', 'addr:subdistrict': 'Rongram', 'description': 'Primary Health Centre', 'healthcare': 'centre', 'name': 'Asananggre, PHC', 'source': 'OpenGovernmentData'}}"
"{'type': 'node', 'id': 7138660400, 'lat': 25.593203, 'lon': 90.588593, 'tags': {'addr:district': 'East Garo Hills', 'addr:full': 'On the way to Williamnagar, near Baiza, Rongrengre village', 'addr:postcode': '794111', 'addr:state': 'Meghalaya', 'addr:subdistrict': 'Samanda', 'amenity': 'clinic', 'description': 'Dispensaries', 'health_facility:type': 'dispensary', 'healthcare': 'centre', 'name': 'Rongrengre St. Dispensary', 'source': 'OpenGovernmentData'}}"
"{'type': 'node', 'id': 7149273812, 'lat': 25.4469839, 'lon': 89.9644037, 'tags': {'addr:full': 'Chelapara', 'addr:state': 'Meghalaya', 'description': 'Health- Sub Centre', 'healthcare': 'centre', 'name': 'Sub Centre, Anangpara', 'source': 'OpenGovernmentData'}}"
"{'type': 'node', 'id': 7149273817, 'lat': 25.4998444, 'lon': 89.9835815, 'tags': {'addr:full': 'Kasibil', 'addr:state': 'Meghalaya', 'description': 'Health- Sub Centre', 'healthcare': 'centre', 'name': 'Sub Centre, Godalgre', 'source': 'OpenGovernmentData'}}"
"{'type': 'node', 'id': 7149273824, 'lat': 25.4499496, 'lon': 90.2133751, 'tags': {'addr:full': 'Bolchugre', 'addr:state': 'Meghalaya', 'description': 'Health- Sub Centre', 'healthcare': 'centre', 'name': 'Health Sub Center, Bolchugre', 'source': 'OpenGovernmentData'}}"
"{'type': 'node', 'id': 7149273831, 'lat': 25.5944386, 'lon': 90.0596872, 'tags': {'addr:full': 'Andharkona', 'addr:state': 'Meghalaya', 'description': 'Health- Sub Centre', 'healthcare': 'centre', 'name': 'Sub Centre, Andharkona', 'source': 'OpenGovernmentData'}}"
"{'type': 'node', 'id': 7149273920, 'lat': 25.2698302, 'lon': 90.679944, 'tags': {'addr:full': 'Rongrengpal', 'addr:state': 'Meghalaya', 'description': 'Health- Sub Centre', 'healthcare': 'centre', 'name': 'Sub Centre, Rongrengpal', 'source': 'OpenGovernmentData'}}"
"{'type': 'node', 'id': 7150731708, 'lat': 25.497492, 'lon': 89.865075, 'tags': {'addr:district': 'Dhubri', 'addr:full': 'Kakripara, Kakripara Bazar', 'addr:postcode': '783131', 'addr:state': 'Assam', 'addr:subdistrict': 'Mankachar', 'amenity': 'clinic', 'health_facility:type': 'dispensary', 'healthcare': 'centre', 'name': 'State Dispensary,Kakripara', 'source': 'OpenGovernmentData'}}"
"{'type': 'node', 'id': 7150731716, 'lat': 25.535383, 'lon': 89.866217, 'tags': {'addr:district': 'Dhubri', 'addr:full': 'Mankachar, Near J M H S School Field', 'addr:postcode': '783131', 'addr:state': 'Assam', 'addr:subdistrict': 'Mankachar', 'description': 'Community Health Centre', 'healthcare': 'centre', 'name': 'CHC, Mankachar', 'source': 'OpenGovernmentData'}}"
"{'type': 'node', 'id': 7150731818, 'lat': 25.584891, 'lon': 89.88231, 'tags': {'addr:district': 'Dhubri', 'addr:full': 'Jhawdanga, Near Junior College, Jhawdanga', 'addr:postcode': '783131', 'addr:state': 'Assam', 'addr:subdistrict': 'Mankachar', 'amenity': 'hospital', 'name': 'Jhowdanga hospital', 'source': 'OpenGovernmentData'}}"
"{'type': 'node', 'id': 7150731860, 'lat': 25.656249, 'lon': 89.8893253, 'tags': {'addr:district': 'Dhubri', 'addr:full': 'Gazarikand, Near Kukurmara HS School', 'addr:postcode': '783131', 'addr:state': 'Assam', 'addr:subdistrict': 'Mankachar', 'description': 'Block Primary Health Centre', 'healthcare': 'centre', 'name': 'BPHC, Gazarikandi', 'source': 'OpenGovernmentData'}}"
"{'type': 'node', 'id': 7150731864, 'lat': 25.6221755, 'lon': 89.945173, 'tags': {'addr:district': 'Dhubri', 'addr:full': 'Sadullabari', 'addr:postcode': '783131', 'addr:state': 'Assam', 'addr:subdistrict': 'Mankachar', 'description': 'Subsidiary Health Centre', 'healthcare': 'centre', 'name': 'SHC, Sadullabari', 'source': 'OpenGovernmentData'}}"
"{'type': 'node', 'id': 7253223406, 'lat': 24.7446432, 'lon': 90.4085257, 'tags': {'amenity': 'pharmacy', 'dispensing': 'yes', 'healthcare': 'pharmacy', 'name': 'নিউ মিতালী ফার্মেসী'}}"
"{'type': 'node', 'id': 7253303021, 'lat': 24.7456711, 'lon': 90.4076432, 'tags': {'healthcare': 'yes', 'name': 'Islami Hospital'}}"
"{'type': 'node', 'id': 7391466621, 'lat': 24.8944725, 'lon': 89.8747724, 'tags': {'addr:city': 'Melandha, Jamalpur', 'addr:postcode': '2012', 'addr:street': 'Jhaugara', 'healthcare': 'clinic', 'healthcare:speciality': 'general', 'name': 'ঝাউগড়া স্বাস্থ্য কেন্দ্র'}}"
"{'type': 'node', 'id': 7401184586, 'lat': 24.9290928, 'lon': 90.252673, 'tags': {'addr:city': 'phulpur', 'addr:housenumber': 'goadanga', 'addr:postcode': '2150', 'amenity': 'pharmacy', 'dispensing': 'no', 'healthcare': 'pharmacy', 'name': 'আরিফ ফার্মেসি', 'opening_hours': '24/7'}}"
"{'type': 'node', 'id': 7418663625, 'lat': 24.737225, 'lon': 90.5081061, 'tags': {'addr:city': 'Dowhakhala', 'addr:housenumber': 'Muktijoddha Market', 'addr:postcode': '2270', 'addr:street': 'Gazipur, Bus Stand', 'amenity': 'pharmacy', 'dispensing': 'yes', 'drive_through': 'yes', 'healthcare': 'pharmacy', 'name': 'Medilab Pharma', 'opening_hours': '24/7', 'operator': 'Pharmacy'}}"
"{'type': 'node', 'id': 7418693090, 'lat': 24.7371926, 'lon': 90.5081042, 'tags': {'addr:city': 'Dowhakhala', 'addr:housenumber': 'Muktijoddha Market', 'addr:postcode': '2270', 'addr:street': 'Gazipur Bus Stand', 'amenity': 'hospital', 'emergency': 'yes', 'healthcare': 'hospital', 'healthcare:speciality': 'general;neurology;clinic;gynaecology;orthopaedics;urology;community', 'name': 'Medilab Diagnostic & Consultation Ltd.', 'operator': 'Diagnostic Centre', 'operator:type': 'private_for_profit'}}"
"{'type': 'node', 'id': 7425803090, 'lat': 24.7520522, 'lon': 90.4167955, 'tags': {'addr:city': 'Mymensingh', 'addr:street': 'Kali Bari Road', 'amenity': 'hospital', 'healthcare': 'hospital', 'name': 'SK Hospital'}}"
"{'type': 'node', 'id': 7425803091, 'lat': 24.7517295, 'lon': 90.4172124, 'tags': {'addr:city': 'Mymensingh', 'addr:street': 'Kali Bari Road', 'amenity': 'hospital', 'healthcare': 'hospital', 'name': 'Civil Surgeon Office, Mymensingh'}}"
"{'type': 'node', 'id': 7431160611, 'lat': 24.6626571, 'lon': 89.4204722, 'tags': {'addr:postcode': '৫৮৪০', 'addr:street': 'Dhaka - Bogra Highway', 'amenity': 'pharmacy', 'dispensing': 'yes', 'healthcare': 'pharmacy', 'name': 'বি এম চিকিৎসা কেন্দ্র', 'operator': 'ডাঃ মোঃ আব্দুল গনি', 'phone': '+8801911016261'}}"
"{'type': 'node', 'id': 7431160612, 'lat': 24.6658982, 'lon': 89.4176203, 'tags': {'amenity': 'clinic', 'healthcare': 'clinic', 'name': 'Advance Clinic and Diagnostic Centre'}}"
"{'type': 'node', 'id': 7532769974, 'lat': 25.5355375, 'lon': 89.8621634, 'tags': {'addr:district': 'South Salmara Mankachar', 'addr:full': 'Near Jmhs School Feild Dist- S.S, Mankachar', 'addr:postcode': '783131', 'addr:state': 'Assam', 'amenity': 'clinic', 'name': 'Modern Physiotherapy Clinic', 'source': 'Local Knowledge'}}"
"{'type': 'node', 'id': 7579580173, 'lat': 25.5165354, 'lon': 90.1671545, 'tags': {'addr:district': 'West Garo Hills', 'addr:full': 'Tura, Meghalaya', 'addr:postcode': '794101', 'addr:state': 'Meghalaya', 'amenity': 'hospital', 'name': 'Danak Samguri Hospital', 'source': 'Local Knowledge'}}"
"{'type': 'node', 'id': 7579580175, 'lat': 25.4940162, 'lon': 89.9432399, 'tags': {'addr:district': 'South West Garo Hills', 'addr:full': 'Betasing, Meghalaya', 'addr:postcode': '794115', 'addr:state': 'Meghalaya', 'amenity': 'hospital', 'name': 'Civil Hospital, Ampati', 'source': 'Local Knowledge'}}"
"{'type': 'node', 'id': 7579580176, 'lat': 25.6520385, 'lon': 90.3347324, 'tags': {'addr:district': 'West Garo Hills', 'addr:full': 'Jengjal, Meghalaya', 'addr:postcode': '794109', 'addr:state': 'Meghalaya', 'amenity': 'hospital', 'name': 'Adventis Mission Hospital', 'source': 'Local Knowledge'}}"
"{'type': 'node', 'id': 7579580177, 'lat': 25.516166, 'lon': 90.220322, 'tags': {'addr:district': 'West Garo Hills', 'addr:full': 'Tura, Meghalaya', 'addr:postcode': '794001', 'addr:state': 'Meghalaya', 'amenity': 'clinic', 'name': 'Clear Vision Eye Care', 'source': 'Local Knowledge'}}"
"{'type': 'node', 'id': 7579580178, 'lat': 25.286849, 'lon': 90.6519035, 'tags': {'addr:district': 'South Garo Hills', 'addr:full': 'Kharukol Konagittim, Meghalaya', 'addr:postcode': '794102', 'addr:state': 'Meghalaya', 'description': 'Subcentre', 'healthcare': 'centre', 'name': 'Karukol Subcenter', 'source': 'Local Knowledge'}}"
"{'type': 'node', 'id': 7579580179, 'lat': 25.49798, 'lon': 90.618645, 'tags': {'addr:district': 'East Garo Hills', 'addr:full': 'Sampalgre, Meghalaya', 'addr:postcode': '794111', 'addr:state': 'Meghalaya', 'amenity': 'hospital', 'name': 'Sampalgre Hospital', 'source': 'Local Knowledge'}}"
"{'type': 'node', 'id': 7579580180, 'lat': 25.5201568, 'lon': 90.1767347, 'tags': {'addr:district': 'West Garo Hills', 'addr:full': 'Tura, Meghalaya', 'addr:postcode': '794101', 'addr:state': 'Meghalaya', 'amenity': 'hospital', 'name': 'Maternity and Child Hospital', 'source': 'Local Knowledge'}}"
"{'type': 'node', 'id': 7579580181, 'lat': 25.5227112, 'lon': 90.18235, 'tags': {'addr:district': 'West Garo Hills', 'addr:full': 'Tura, Meghalaya', 'addr:postcode': '794101', 'addr:state': 'Meghalaya', 'amenity': 'hospital', 'name': 'CRPF Composite Hospital', 'source': 'Local Knowledge'}}"
"{'type': 'node', 'id': 7579580190, 'lat': 25.2577181, 'lon': 90.4717137, 'tags': {'addr:district': 'South Garo Hills', 'addr:full': 'Silkigre, Meghalaya', 'addr:postcode': '794103', 'addr:state': 'Meghalaya', 'description': 'Primary Health Centre', 'healthcare': 'centre', 'name': 'PHC', 'source': 'Local Knowledge'}}"
"{'type': 'node', 'id': 7579580191, 'lat': 25.5212405, 'lon': 90.2171856, 'tags': {'addr:district': 'West Garo Hills', 'addr:full': 'Lower Wadanang, Tura, Meghalaya', 'addr:postcode': '794001', 'addr:state': 'Meghalaya', 'amenity': 'hospital', 'name': 'T.B. Hospital', 'source': 'Local Knowledge'}}"
"{'type': 'node', 'id': 7579580195, 'lat': 25.6473867, 'lon': 90.3263762, 'tags': {'addr:district': 'West Garo Hills', 'addr:full': 'Jengjal, Meghalaya', 'addr:postcode': '794109', 'addr:state': 'Meghalaya', 'description': 'Primary Health Centre', 'healthcare': 'centre', 'name': 'Public Health Centre', 'source': 'Local Knowledge'}}"
"{'type': 'node', 'id': 7962562128, 'lat': 24.9526252, 'lon': 90.359025, 'tags': {'addr:city': 'Phulpur', 'addr:postcode': '2250', 'addr:street': 'Gul Chattar', 'amenity': 'pharmacy', 'check_date:opening_hours': '2023-06-09', 'dispensing': 'no', 'healthcare': 'pharmacy', 'name': 'Medicine Centre', 'opening_hours': '08:00-23:00'}}"
"{'type': 'node', 'id': 7968663742, 'lat': 25.178612, 'lon': 90.5768587, 'tags': {'addr:district': 'South Garo Hills', 'addr:full': 'Nilwagre', 'addr:postcode': '794102', 'addr:state': 'Meghalaya', 'description': 'SubCentre', 'healthcare': 'centre', 'name': 'SubCentre, Nilwagre', 'source': 'Local Knowledge'}}"
"{'type': 'node', 'id': 7968907630, 'lat': 25.3594639, 'lon': 89.9352166, 'tags': {'addr:district': 'South West Garo Hills', 'addr:full': 'Debajani', 'addr:postcode': '794103', 'addr:state': 'Meghalaya', 'description': 'SubCentre', 'healthcare': 'centre', 'name': 'SubCentre, Debajani', 'source': 'Local Knowledge'}}"
"{'type': 'node', 'id': 7973031893, 'lat': 25.3494013, 'lon': 89.9314226, 'tags': {'addr:district': 'West Garo Hills', 'addr:full': 'Tarapara', 'addr:postcode': '794103', 'addr:state': 'Meghalaya', 'description': 'SubCentre', 'healthcare': 'centre', 'name': 'SubCentre,Tarapara', 'source': 'Local Knowledge'}}"
"{'type': 'node', 'id': 7973333384, 'lat': 25.4586047, 'lon': 90.1455558, 'tags': {'addr:district': 'West Garo Hills', 'addr:full': 'Amindagre', 'addr:postcode': '794005', 'addr:state': 'Meghalaya', 'description': 'SubCentre', 'healthcare': 'centre', 'name': 'SubCentre, Amindagre', 'source': 'Local Knowledge'}}"
"{'type': 'node', 'id': 7973379744, 'lat': 25.6635203, 'lon': 90.3421707, 'tags': {'addr:district': 'West Garo Hills', 'addr:full': 'Baljek', 'addr:postcode': '794109', 'addr:state': 'Meghalaya', 'description': 'SubCentre', 'healthcare': 'centre', 'name': 'SubCentre, Baljek', 'source': 'Local Knowledge'}}"
"{'type': 'node', 'id': 7975338246, 'lat': 25.3510239, 'lon': 90.1462012, 'tags': {'addr:district': 'West Garo Hills', 'addr:full': 'Gonchudare', 'addr:postcode': '794005', 'addr:state': 'Meghalaya', 'description': 'SubCentre', 'healthcare': 'centre', 'name': 'SubCentre, Gonchudare', 'source': 'Local Knowledge'}}"
"{'type': 'node', 'id': 7975877651, 'lat': 25.453419, 'lon': 89.8637384, 'tags': {'addr:district': 'West Garo Hills', 'addr:full': 'Kalaichar', 'addr:postcode': '783131', 'addr:state': 'Meghalaya', 'description': 'SubCentre', 'healthcare': 'centre', 'name': 'SubCentre, Kalaichar', 'source': 'Local Knowledge'}}"
"{'type': 'node', 'id': 7975934174, 'lat': 25.4833925, 'lon': 90.0818848, 'tags': {'addr:district': 'West Garo Hills', 'addr:full': 'Murchapani', 'addr:postcode': '794115', 'addr:state': 'Meghalaya', 'description': 'SubCentre', 'healthcare': 'centre', 'name': 'SubCentre, Murchapani', 'source': 'Local Knowledge'}}"
"{'type': 'node', 'id': 7976384017, 'lat': 25.4970709, 'lon': 90.0902283, 'tags': {'addr:district': 'West Garo Hills', 'addr:full': 'Okkapara', 'addr:postcode': '794005', 'addr:state': 'Meghalaya', 'description': 'SubCentre', 'healthcare': 'centre', 'name': 'SubCentre, Okkapara', 'source': 'Local Knowledge'}}"
"{'type': 'node', 'id': 7979317111, 'lat': 25.589275, 'lon': 90.0537939, 'tags': {'addr:district': 'West Garo Hills', 'addr:full': 'Gārodoba', 'addr:postcode': '794105', 'addr:state': 'Meghalaya', 'description': 'SubCentre', 'healthcare': 'centre', 'name': 'SubCentre, Gārodoba', 'source': 'Local Knowledge'}}"
"{'type': 'node', 'id': 7979525059, 'lat': 25.4158916, 'lon': 90.03983, 'tags': {'addr:district': 'West Garo Hills', 'addr:full': 'Salmanpara', 'addr:postcode': '794115', 'addr:state': 'Meghalaya', 'description': 'SubCentre', 'healthcare': 'centre', 'name': 'SubCentre, Salmanpara', 'source': 'Local Knowledge'}}"
"{'type': 'node', 'id': 7979565318, 'lat': 25.2582971, 'lon': 90.1051124, 'tags': {'addr:district': 'West Garo Hills', 'addr:full': 'Sesengpara', 'addr:postcode': '794103', 'addr:state': 'Sesengpara Meghalaya', 'description': 'SubCentre', 'healthcare': 'centre', 'name': 'SubCentre, Sesengpara', 'source': 'Local Knowledge'}}"
"{'type': 'node', 'id': 7979606161, 'lat': 25.4547566, 'lon': 89.8624283, 'tags': {'addr:district': 'West Garo Hills', 'addr:full': 'Kalaichar', 'addr:postcode': '794115', 'addr:state': 'Meghalaya', 'description': 'Primary Health Centre', 'healthcare': 'centre', 'name': 'Primary Health Centre, Kalaichar', 'source': 'Local Knowledge'}}"
"{'type': 'node', 'id': 7979659764, 'lat': 25.4465144, 'lon': 90.0983958, 'tags': {'addr:district': 'West Garo Hills', 'addr:full': 'Rongchadenggre', 'addr:postcode': '794105', 'addr:state': 'Meghalaya', 'description': 'SubCentre', 'healthcare': 'centre', 'name': 'SubCentre, Rongchadenggre', 'source': 'Local Knowledge'}}"
"{'type': 'node', 'id': 7979729508, 'lat': 25.3420827, 'lon': 89.9783675, 'tags': {'addr:district': 'West Garo Hills', 'addr:full': 'Gopinathkilla', 'addr:postcode': '794106', 'addr:state': 'Meghalaya', 'description': 'SubCentre', 'healthcare': 'centre', 'name': 'SubCentre, Gopinathkilla', 'source': 'Local Knowledge'}}"
"{'type': 'node', 'id': 7979798484, 'lat': 25.3593695, 'lon': 90.6585745, 'tags': {'addr:district': 'South Garo Hills', 'addr:full': 'Siju', 'addr:postcode': '794114', 'addr:state': 'Meghalaya', 'description': 'SubCentre', 'healthcare': 'centre', 'name': 'SubCentre, Siju', 'source': 'Local Knowledge'}}"
"{'type': 'node', 'id': 7980089321, 'lat': 25.4491801, 'lon': 90.6817262, 'tags': {'addr:district': 'South Garo Hills', 'addr:full': 'Rongbinggre', 'addr:postcode': '794111', 'addr:state': 'Meghalaya', 'description': 'SubCentre', 'healthcare': 'centre', 'name': 'SubCentre,Rongbinggre', 'source': 'Local Knowledge'}}"
"{'type': 'node', 'id': 7980323335, 'lat': 25.6205752, 'lon': 90.5084444, 'tags': {'addr:district': 'East Garo Hills', 'addr:full': 'Bansamgre', 'addr:postcode': '794111', 'addr:state': 'Meghalaya', 'description': 'Primary Health Centre', 'healthcare': 'centre', 'name': 'Primary Health Centre,Bansamgre', 'source': 'Local Knowledge'}}"
"{'type': 'node', 'id': 7980824490, 'lat': 25.5094899, 'lon': 90.1892778, 'tags': {'addr:district': 'West Garo Hills', 'addr:full': 'Matchakol', 'addr:postcode': '794101', 'addr:state': 'Meghalaya', 'description': 'SubCentre', 'healthcare': 'centre', 'name': 'SubCentre, Matchakol', 'source': 'Local Knowledge'}}"
"{'type': 'node', 'id': 7980972865, 'lat': 25.5530884, 'lon': 89.9366831, 'tags': {'addr:district': 'South West Garo Hills', 'addr:full': 'Belbari', 'addr:postcode': '794104', 'addr:state': 'Meghalaya', 'description': 'SubCentre', 'healthcare': 'centre', 'name': 'SubCentre, Belbari', 'source': 'Local Knowledge'}}"
"{'type': 'node', 'id': 8023704348, 'lat': 25.3469506, 'lon': 89.8397098, 'tags': {'addr:district': 'South West Garo Hills', 'addr:full': 'Nogorpara', 'addr:postcode': '794106', 'addr:state': 'Meghalaya', 'description': 'SubCentre', 'healthcare': 'centre', 'name': 'SubCentre, Nogorpara', 'source': 'Local Knowledge'}}"
"{'type': 'node', 'id': 8027446189, 'lat': 25.3035545, 'lon': 90.1216221, 'tags': {'addr:district': 'West Garo Hills', 'addr:full': 'Posenggagre', 'addr:postcode': '794103', 'addr:state': 'Meghalaya', 'description': 'SubCentre', 'healthcare': 'centre', 'name': 'SubCentre, Posenggagre', 'source': 'Local Knowledge'}}"
"{'type': 'node', 'id': 8034537877, 'lat': 25.5422212, 'lon': 90.5858347, 'tags': {'addr:district': 'East Garo Hills', 'addr:full': 'Rongrenggre', 'addr:postcode': '794111', 'addr:state': 'Meghalaya', 'health_facility:type': 'dispensary', 'healthcare': 'centre', 'name': 'Government Dispensary, Rongrenggre', 'source': 'Local Knowledge'}}"
"{'type': 'node', 'id': 8035374600, 'lat': 25.5937794, 'lon': 90.1108959, 'tags': {'addr:district': 'West Garo Hills', 'addr:full': 'Harigaon', 'addr:postcode': '794105', 'addr:state': 'Meghalaya', 'description': 'SubCentre', 'healthcare': 'centre', 'name': 'SubCentre, Harigaon', 'source': 'Local Knowledge'}}"
"{'type': 'node', 'id': 8038794422, 'lat': 25.6783913, 'lon': 90.023405, 'tags': {'addr:district': 'West Garo Hills', 'addr:full': 'Damalgre, Selsella', 'addr:postcode': '794105', 'addr:state': 'Meghalaya', 'description': 'SubCentre', 'healthcare': 'centre', 'name': 'SubCentre, Damalgre', 'source': 'Local Knowledge'}}"
"{'type': 'node', 'id': 8039217535, 'lat': 25.5392421, 'lon': 90.2876615, 'tags': {'addr:district': 'West Garo Hills', 'addr:full': 'Tosekgre', 'addr:postcode': '794001', 'addr:state': 'Meghalaya', 'description': 'SubCentre', 'healthcare': 'centre', 'name': 'SubCentre, Tosekgre', 'source': 'Local Knowledge'}}"
"{'type': 'node', 'id': 8042755602, 'lat': 24.9198859, 'lon': 89.9449522, 'tags': {'addr:city': 'Jamalpur Sadar (জামালপুর সদর)', 'addr:housenumber': 'South Kacharipara (দক্ষিণ কাচারীপাড়া)', 'addr:postcode': '2000 (২০০০)', 'addr:street': 'New College Road (নিউ কলেজ রোড)', 'amenity': 'clinic', 'emergency': 'no', 'healthcare': 'clinic', 'healthcare:speciality': 'dentist', 'name': 'Ruma Dental Care (রুমা ডেন্টাল কেয়ার)', 'operator': 'Dr. MD. Jaman (ডাঃ মোঃ জামান)', 'operator:type': 'private'}}"
"{'type': 'node', 'id': 8148123345, 'lat': 25.2218089, 'lon': 90.2235353, 'tags': {'addr:district': 'Meghalaya', 'addr:full': 'Barengapāra', 'addr:postcode': '794103', 'addr:state': 'Meghalaya', 'description': 'Primary Health Centre', 'healthcare': 'centre', 'name': 'Primary Health Centre, Dalu', 'source': 'Local Knowledge'}}"
"{'type': 'node', 'id': 8501405154, 'lat': 24.9174288, 'lon': 89.9509736, 'tags': {'addr:city': 'Jamalpur Sadar', 'addr:postcode': '2000', 'amenity': 'pharmacy', 'dispensing': 'yes', 'drive_through': 'yes', 'healthcare': 'pharmacy', 'name': 'City Medical Hall'}}"
"{'type': 'node', 'id': 9530276404, 'lat': 24.8485113, 'lon': 89.3717395, 'tags': {'amenity': 'pharmacy'}}"
"{'type': 'node', 'id': 9530276405, 'lat': 24.8524888, 'lon': 89.372868, 'tags': {'amenity': 'pharmacy'}}"
"{'type': 'node', 'id': 9589835082, 'lat': 24.8321338, 'lon': 89.3759768, 'tags': {'addr:city': 'Bogra', 'addr:street': 'শেরপুর সড়ক', 'healthcare': 'yes', 'name': 'পপুলার ডায়াগনস্টিক সেন্টার', 'name:bn': 'পপুলার ডায়াগনস্টিক সেন্টার', 'name:en': 'Popular Diagnostic Center'}}"
"{'type': 'node', 'id': 9589861821, 'lat': 24.832115, 'lon': 89.3757393, 'tags': {'amenity': 'clinic', 'healthcare': 'clinic', 'name': 'শামসুন নাহার ক্লিনিক', 'name:bn': 'শামসুন নাহার ক্লিনিক', 'name:en': 'Shamsun Nahar Clinic'}}"
"{'type': 'node', 'id': 9589956981, 'lat': 24.8329324, 'lon': 89.3762286, 'tags': {'addr:city': 'Bogra', 'addr:street': 'শেরপুর সড়ক', 'amenity': 'clinic', 'healthcare': 'clinic', 'name': ""ডক্টর'স ক্লিনিক ইউনিট-২"", 'name:bn': ""ডক্টর'স ক্লিনিক ইউনিট-২"", 'name:en': ""Doctor's Clinic Unit-2"", 'opening_hours': '24/7'}}"
"{'type': 'node', 'id': 9798297930, 'lat': 24.8874331, 'lon': 89.3836808, 'tags': {'amenity': 'hospital', 'name': 'Safe Plus'}}"
"{'type': 'node', 'id': 9798906937, 'lat': 24.8341293, 'lon': 89.375267, 'tags': {'amenity': 'pharmacy', 'name': 'Rinky Pharmacy'}}"
"{'type': 'node', 'id': 9798912199, 'lat': 24.8329296, 'lon': 89.3761368, 'tags': {'amenity': 'hospital', 'name': 'Specialized Bogra Hospital'}}"
"{'type': 'node', 'id': 9798917996, 'lat': 24.8340893, 'lon': 89.3761215, 'tags': {'amenity': 'pharmacy', 'name': 'Rubel Pharmacy'}}"
"{'type': 'node', 'id': 9798924549, 'lat': 24.8323708, 'lon': 89.3757019, 'tags': {'amenity': 'pharmacy', 'name': 'Sumon Pharmacy and Surgical Centre'}}"
"{'type': 'node', 'id': 9798924621, 'lat': 24.8284506, 'lon': 89.3778512, 'tags': {'amenity': 'hospital', 'name': 'Rainbow Community Hospital and Diagnostic   Centre'}}"
"{'type': 'node', 'id': 9798927035, 'lat': 24.8341599, 'lon': 89.3766632, 'tags': {'amenity': 'hospital', 'name': 'Aloke Narsing Home and oncology Centre'}}"
"{'type': 'node', 'id': 9798936887, 'lat': 24.8257551, 'lon': 89.3781716, 'tags': {'amenity': 'pharmacy', 'name': 'Bhai Bon Pharmacy'}}"
"{'type': 'node', 'id': 9798950627, 'lat': 24.8355103, 'lon': 89.3743286, 'tags': {'amenity': 'pharmacy', 'name': 'Messrs Somadhan Surgical and Medical store'}}"
"{'type': 'node', 'id': 9798953629, 'lat': 24.8343906, 'lon': 89.3751221, 'tags': {'amenity': 'pharmacy', 'name': 'Royal Pharmacy'}}"
"{'type': 'node', 'id': 9798953724, 'lat': 24.831461, 'lon': 89.3766174, 'tags': {'amenity': 'pharmacy', 'name': 'Sondhani Medicine and surgical store'}}"
"{'type': 'node', 'id': 9798961019, 'lat': 24.83391, 'lon': 89.3757629, 'tags': {'amenity': 'pharmacy', 'name': 'Oxygen Medical Service'}}"
"{'type': 'node', 'id': 9798961883, 'lat': 24.8314705, 'lon': 89.3767166, 'tags': {'amenity': 'hospital', 'name': 'Saic General Hospital'}}"
"{'type': 'node', 'id': 9798962860, 'lat': 24.8348904, 'lon': 89.3748016, 'tags': {'amenity': 'pharmacy', 'name': 'Royal Pharmacy'}}"
"{'type': 'node', 'id': 9800898132, 'lat': 24.8811607, 'lon': 89.3525467, 'tags': {'amenity': 'pharmacy', 'name': 'Mamun Pharmacy'}}"
"{'type': 'node', 'id': 9803598552, 'lat': 24.8546104, 'lon': 89.3674088, 'tags': {'amenity': 'pharmacy', 'name': 'Foyez Homeo Hall'}}"
"{'type': 'node', 'id': 9803603157, 'lat': 24.8546009, 'lon': 89.3615723, 'tags': {'amenity': 'pharmacy', 'name': 'Bhai Bhai Store'}}"
"{'type': 'node', 'id': 9803607832, 'lat': 24.8548393, 'lon': 89.3609772, 'tags': {'amenity': 'pharmacy', 'name': 'Tin Bhai Medical Store'}}"
"{'type': 'node', 'id': 9862740828, 'lat': 25.1776696, 'lon': 89.8705623, 'tags': {'amenity': 'hospital', 'healthcare': 'hospital', 'name': 'Bakshiganj General Hospital'}}"
"{'type': 'node', 'id': 10023281126, 'lat': 24.4591832, 'lon': 89.7188164, 'tags': {'amenity': 'pharmacy', 'name': 'Rushdi Homeo Hall'}}"
"{'type': 'node', 'id': 10223901122, 'lat': 24.7592158, 'lon': 90.4087622, 'tags': {'addr:street': '21 J. K. M. C. Saha Road, Choto Bazar', 'amenity': 'pharmacy', 'name': 'Laz pharma Limited', 'opening_hours': 'Mo-Th, Sa, Su 10:00-22:00'}}"
"{'type': 'node', 'id': 10760439808, 'lat': 25.1056932, 'lon': 90.6707994, 'tags': {'amenity': 'pharmacy', 'name': 'Ma Pharmacy', 'name:bn': 'মা ফার্মেসি'}}"
"{'type': 'node', 'id': 10961938696, 'lat': 24.5809059, 'lon': 90.3770026, 'tags': {'amenity': 'pharmacy', 'check_date': '2023-06-07', 'healthcare': 'pharmacy'}}"
"{'type': 'node', 'id': 11353484755, 'lat': 25.5156079, 'lon': 90.1858984, 'tags': {'amenity': 'hospital', 'healthcare': 'hospital', 'name': 'District PHE Lab, Tura'}}"
"{'type': 'node', 'id': 11357651010, 'lat': 25.5150175, 'lon': 90.2038069, 'tags': {'amenity': 'hospital', 'healthcare': 'hospital', 'name': 'Tura Civil Hospital'}}"
"{'type': 'node', 'id': 11365885469, 'lat': 24.8301672, 'lon': 89.36649, 'tags': {'amenity': 'pharmacy', 'name:en': 'Makchuda Pharmacy'}}"
"{'type': 'node', 'id': 11804161546, 'lat': 25.5160114, 'lon': 90.2160193, 'tags': {'amenity': 'pharmacy', 'healthcare': 'pharmacy', 'name': 'V Health Care Pharmacy'}}"
"{'type': 'node', 'id': 11804161547, 'lat': 25.5160408, 'lon': 90.2160618, 'tags': {'amenity': 'pharmacy', 'brand': 'Apollo Pharmacy', 'brand:wikidata': 'Q62562612', 'healthcare': 'pharmacy', 'name': 'Apollo Pharmacy'}}"
"{'type': 'node', 'id': 11804475491, 'lat': 25.5162165, 'lon': 90.2189463, 'tags': {'amenity': 'pharmacy', 'healthcare': 'pharmacy'}}"
"{'type': 'node', 'id': 11804475494, 'lat': 25.5160949, 'lon': 90.2192595, 'tags': {'amenity': 'pharmacy', 'healthcare': 'pharmacy', 'name': 'New Drugs House'}}"
"{'type': 'node', 'id': 11804475495, 'lat': 25.5160981, 'lon': 90.2193465, 'tags': {'amenity': 'pharmacy', 'healthcare': 'pharmacy', 'name': 'Downtown Pharmacy'}}"
"{'type': 'node', 'id': 11804475499, 'lat': 25.5164454, 'lon': 90.2202414, 'tags': {'amenity': 'pharmacy', 'healthcare': 'pharmacy', 'name': 'N. S. Pharmacy'}}"
"{'type': 'node', 'id': 11804475501, 'lat': 25.5166577, 'lon': 90.2199894, 'tags': {'healthcare': 'yes', 'name': 'Rudra Healthcare'}}"
"{'type': 'node', 'id': 11804475506, 'lat': 25.5197979, 'lon': 90.2191763, 'tags': {'amenity': 'doctors', 'healthcare': 'doctor', 'name': 'Doctor Chamber'}}"
"{'type': 'node', 'id': 11804475513, 'lat': 25.5199296, 'lon': 90.2193173, 'tags': {'amenity': 'pharmacy', 'healthcare': 'pharmacy', 'name': 'Kokhnal Medicos'}}"
"{'type': 'node', 'id': 11929944301, 'lat': 24.8547281, 'lon': 89.3727216, 'tags': {'amenity': 'hospital', 'healthcare': 'hospital', 'name': 'Azma Care and Prevention Center'}}"
"{'type': 'node', 'id': 11932467004, 'lat': 24.9514153, 'lon': 89.3984427, 'tags': {'amenity': 'clinic', 'healthcare': 'clinic', 'name': 'Pirgacha Community Clinic'}}"
"{'type': 'node', 'id': 11934315725, 'lat': 25.5182853, 'lon': 90.2189168, 'tags': {'amenity': 'hospital', 'healthcare': 'hospital', 'name': 'Tura Christian Hospital'}}"
"{'type': 'node', 'id': 11934352163, 'lat': 25.5210079, 'lon': 90.2198474, 'tags': {'amenity': 'dentist', 'healthcare': 'dentist', 'name': 'Mr. Dentist'}}"
"{'type': 'node', 'id': 12165338046, 'lat': 24.4024911, 'lon': 90.3861716, 'tags': {'amenity': 'hospital', 'healthcare': 'hospital', 'name': 'Mohammadia Hospital, Bhaluka'}}"
"{'type': 'node', 'id': 12171895982, 'lat': 24.4197823, 'lon': 90.3894692, 'tags': {'amenity': 'hospital', 'healthcare': 'hospital', 'name': 'Supreme New Square Hospital And Diagnostic Center'}}"
"{'type': 'node', 'id': 12172038382, 'lat': 24.405247, 'lon': 90.3870603, 'tags': {'amenity': 'hospital', 'healthcare': 'hospital', 'name': 'Tahmina General Hospital, Private hospital'}}"
"{'type': 'node', 'id': 12172078462, 'lat': 24.3943627, 'lon': 90.3820173, 'tags': {'amenity': 'pharmacy', 'healthcare': 'pharmacy', 'name': 'MA Medical Holl, Pharmacy'}}"
"{'type': 'node', 'id': 12172092919, 'lat': 24.4048925, 'lon': 90.3876955, 'tags': {'amenity': 'hospital', 'healthcare': 'hospital', 'name': 'Bhaluka Livestock office and Veterinary Hospital, Government office'}}"
"{'type': 'node', 'id': 12172111980, 'lat': 24.405753, 'lon': 90.3863111, 'tags': {'amenity': 'hospital', 'healthcare': 'hospital', 'name': 'Fahim Hospital And Diagnostic Centre'}}"
"{'type': 'node', 'id': 12172189313, 'lat': 24.4117603, 'lon': 90.3879193, 'tags': {'amenity': 'pharmacy', 'healthcare': 'pharmacy', 'name': 'Momo Medical Hall, Pharmacy'}}"
"{'type': 'node', 'id': 12181812873, 'lat': 24.4751879, 'lon': 90.3858162, 'tags': {'amenity': 'pharmacy', 'healthcare': 'pharmacy', 'name': 'Bismillah Homeo Hall, Homeopathic pharmacy'}}"
"{'type': 'node', 'id': 12183604321, 'lat': 24.5672078, 'lon': 90.3975692, 'tags': {'amenity': 'hospital', 'healthcare': 'hospital', 'name': 'TMC Diagnostic And Hospital, Private hospital'}}"
"{'type': 'node', 'id': 12183630784, 'lat': 24.5771826, 'lon': 90.3961506, 'tags': {'amenity': 'hospital', 'healthcare': 'hospital', 'name': 'Sami Diagnostic Center'}}"
"{'type': 'node', 'id': 12183631048, 'lat': 24.5765483, 'lon': 90.3960145, 'tags': {'amenity': 'hospital', 'healthcare': 'hospital', 'name': 'M/s MF Traders, Construction equipment supplier'}}"
"{'type': 'node', 'id': 12185947980, 'lat': 24.4752161, 'lon': 90.3851698, 'tags': {'amenity': 'pharmacy', 'healthcare': 'pharmacy', 'name': 'Government Medical Hall, Pharmacy'}}"
"{'type': 'node', 'id': 12185963943, 'lat': 24.4091409, 'lon': 90.3859294, 'tags': {'amenity': 'hospital', 'healthcare': 'hospital', 'name': 'Nurul Amin Eye Hospital, Hospital'}}"
"{'type': 'node', 'id': 12185976890, 'lat': 24.4061306, 'lon': 90.3844773, 'tags': {'amenity': 'clinic', 'healthcare': 'clinic', 'name': 'Doctors Clinic, Bhaluka'}}"
"{'type': 'node', 'id': 12193987511, 'lat': 24.6284568, 'lon': 90.4005658, 'tags': {'amenity': 'hospital', 'healthcare': 'hospital', 'name': 'S.n.anterprise, Hospital'}}"
"{'type': 'node', 'id': 12194135962, 'lat': 24.669303, 'lon': 90.403219, 'tags': {'amenity': 'pharmacy', 'healthcare': 'pharmacy', 'name': 'Tin Bhai Medicine Corner, Pharmacy'}}"
"{'type': 'node', 'id': 12194148067, 'lat': 24.6691402, 'lon': 90.4036285, 'tags': {'amenity': 'pharmacy', 'healthcare': 'pharmacy', 'name': 'Hira Pharmacy, Pharmacy'}}"
"{'type': 'node', 'id': 12196619523, 'lat': 24.625147, 'lon': 90.3980735, 'tags': {'amenity': 'hospital', 'healthcare': 'hospital', 'name': 'UHAndFWC, Hospital'}}"
"{'type': 'node', 'id': 12198616719, 'lat': 24.6931409, 'lon': 90.4113351, 'tags': {'amenity': 'pharmacy', 'healthcare': 'pharmacy', 'name': 'Madina Medical Hall, Pharmacy'}}"
"{'type': 'node', 'id': 12198854542, 'lat': 24.6948102, 'lon': 90.4122224, 'tags': {'amenity': 'pharmacy', 'healthcare': 'pharmacy', 'name': 'Horchoki Medical Hall, Pharmacy'}}"
"{'type': 'node', 'id': 12198855479, 'lat': 24.711478, 'lon': 90.4102608, 'tags': {'amenity': 'pharmacy', 'healthcare': 'pharmacy', 'name': 'Mymensingh Depot Opsonin Pharma Ltd'}}"
"{'type': 'node', 'id': 12201368592, 'lat': 24.741997, 'lon': 90.4076925, 'tags': {'amenity': 'hospital', 'healthcare': 'hospital', 'name': 'Desh Specialised Hospital And Diagnostic'}}"
"{'type': 'node', 'id': 12201375782, 'lat': 24.7411559, 'lon': 90.407298, 'tags': {'amenity': 'pharmacy', 'healthcare': 'pharmacy', 'name': 'Prabhati Medicine Corner, Pharmacy'}}"
"{'type': 'node', 'id': 12201386854, 'lat': 24.7413978, 'lon': 90.4075909, 'tags': {'amenity': 'hospital', 'healthcare': 'hospital', 'name': 'Degital diagnostic center, Hospital'}}"
"{'type': 'node', 'id': 12201388394, 'lat': 24.7396276, 'lon': 90.4072791, 'tags': {'amenity': 'hospital', 'healthcare': 'hospital', 'name': 'Somota (Pvt)hospital, Hospital'}}"
"{'type': 'node', 'id': 12201397737, 'lat': 24.7407011, 'lon': 90.4073882, 'tags': {'amenity': 'pharmacy', 'healthcare': 'pharmacy', 'name': 'Mim Pharmacy, Pharmacy'}}"
"{'type': 'node', 'id': 12201415117, 'lat': 24.7403887, 'lon': 90.4072822, 'tags': {'amenity': 'hospital', 'healthcare': 'hospital', 'name': 'The Peoples Hospital and Diagnostic Centre, Private hospital'}}"
"{'type': 'node', 'id': 12208718952, 'lat': 24.7429267, 'lon': 90.4077594, 'tags': {'amenity': 'hospital', 'healthcare': 'hospital', 'name': 'LabAid hospital'}}"
"{'type': 'node', 'id': 12208757815, 'lat': 24.7452616, 'lon': 90.4075613, 'tags': {'amenity': 'hospital', 'healthcare': 'hospital', 'name': 'Sapon Hospital and Diagnostic Centre, Hospital'}}"
"{'type': 'node', 'id': 12208759492, 'lat': 24.7456542, 'lon': 90.4080426, 'tags': {'amenity': 'hospital', 'healthcare': 'hospital', 'name': 'Central Hospital (Pr.), Hospital'}}"
"{'type': 'node', 'id': 12208761108, 'lat': 24.7427643, 'lon': 90.4078402, 'tags': {'amenity': 'hospital', 'healthcare': 'hospital', 'name': 'Pranto Specialized Hospital, Private hospital'}}"
"{'type': 'node', 'id': 12208761109, 'lat': 24.7448878, 'lon': 90.4084628, 'tags': {'amenity': 'clinic', 'healthcare': 'clinic', 'name': 'B N Clinic and Diagnostic Center'}}"
"{'type': 'node', 'id': 12208762705, 'lat': 24.7441805, 'lon': 90.4083896, 'tags': {'amenity': 'hospital', 'healthcare': 'hospital', 'name': 'Unicare Diagnostic Centre, Hospital'}}"
"{'type': 'node', 'id': 12208764771, 'lat': 24.7458138, 'lon': 90.4082165, 'tags': {'amenity': 'hospital', 'healthcare': 'hospital', 'name': 'New Nagorik Hospital (Pvt.), Hospital'}}"
"{'type': 'node', 'id': 12208764969, 'lat': 24.7434993, 'lon': 90.407916, 'tags': {'amenity': 'hospital', 'healthcare': 'hospital', 'name': 'Mymensingh Divisional Specialized Hospital'}}"
"{'type': 'node', 'id': 12208766307, 'lat': 24.7294833, 'lon': 90.4088978, 'tags': {'amenity': 'pharmacy', 'healthcare': 'pharmacy', 'name': 'Sweety Medical Hall, Pharmacy'}}"
"{'type': 'node', 'id': 12208771140, 'lat': 24.7468557, 'lon': 90.4089041, 'tags': {'amenity': 'pharmacy', 'healthcare': 'pharmacy', 'name': 'Tasmiah Medical Hall, Pharmacy'}}"
"{'type': 'node', 'id': 12208775593, 'lat': 24.7464531, 'lon': 90.4085139, 'tags': {'amenity': 'hospital', 'healthcare': 'hospital', 'name': 'Shathy Privete Hospital And Diagnostic Centre, Private hospital'}}"
"{'type': 'node', 'id': 12208775595, 'lat': 24.7236032, 'lon': 90.4097104, 'tags': {'amenity': 'hospital', 'healthcare': 'hospital', 'name': 'The United Chokkho Hospital, Hospital'}}"
"{'type': 'node', 'id': 12208804027, 'lat': 24.7434152, 'lon': 90.407495, 'tags': {'amenity': 'hospital', 'healthcare': 'hospital', 'name': 'Tania Hospital (Pvt), Private hospital'}}"
"{'type': 'node', 'id': 12208819676, 'lat': 24.7423361, 'lon': 90.4077291, 'tags': {'healthcare': 'yes', 'name': 'Delta Health Care'}}"
"{'type': 'node', 'id': 12208826810, 'lat': 24.738076, 'lon': 90.4074697, 'tags': {'amenity': 'dentist', 'healthcare': 'dentist', 'name': 'Advanced Dental Solution, Dentist'}}"
"{'type': 'node', 'id': 12211530074, 'lat': 24.728439, 'lon': 90.413937, 'tags': {'amenity': 'pharmacy', 'healthcare': 'pharmacy', 'name': 'Akand Medical Hall, Medical Centre'}}"
"{'type': 'node', 'id': 12211569302, 'lat': 24.7181111, 'lon': 90.4047304, 'tags': {'amenity': 'hospital', 'healthcare': 'hospital', 'name': 'Maa-O-Shishu Hospital, Hospital'}}"
"{'type': 'node', 'id': 12213942291, 'lat': 24.7341093, 'lon': 90.3878333, 'tags': {'amenity': 'pharmacy', 'healthcare': 'pharmacy', 'name': 'Saiful Niketan, Pharmacy'}}"
"{'type': 'node', 'id': 12214020001, 'lat': 24.7637281, 'lon': 90.360388, 'tags': {'amenity': 'hospital', 'healthcare': 'hospital', 'name': 'Bagher Kanda Community Clinic, Hospital'}}"
"{'type': 'node', 'id': 12215789194, 'lat': 24.7492978, 'lon': 90.4064246, 'tags': {'amenity': 'hospital', 'healthcare': 'hospital', 'name': 'Evercare Information Centre Mymensingh, Hospital'}}"
"{'type': 'node', 'id': 12215789195, 'lat': 24.7480992, 'lon': 90.4072732, 'tags': {'amenity': 'hospital', 'healthcare': 'hospital', 'name': 'Army General Hospital and Diagnostic Centre, Hospital'}}"
"{'type': 'node', 'id': 12215804099, 'lat': 24.7487812, 'lon': 90.4073514, 'tags': {'amenity': 'hospital', 'healthcare': 'hospital', 'name': 'Sayem Diagno Complex And Hospital, Private hospital'}}"
"{'type': 'node', 'id': 12215829886, 'lat': 24.7485056, 'lon': 90.4067126, 'tags': {'amenity': 'hospital', 'healthcare': 'hospital', 'name': 'L. Harun Health Complex, Hospital'}}"
"{'type': 'node', 'id': 12215829887, 'lat': 24.7475713, 'lon': 90.4092266, 'tags': {'amenity': 'hospital', 'healthcare': 'hospital', 'name': 'Hazrat Shahjalal (Pr) Hospital, Hospital'}}"
"{'type': 'node', 'id': 12215833836, 'lat': 24.7471778, 'lon': 90.4082479, 'tags': {'amenity': 'hospital', 'healthcare': 'hospital', 'name': 'Mymensingh Union Specialized Hospital Limited, General hospital'}}"
"{'type': 'node', 'id': 12215834958, 'lat': 24.7486577, 'lon': 90.4066336, 'tags': {'amenity': 'hospital', 'healthcare': 'hospital', 'name': 'Alfa Hospital, Hospital'}}"
"{'type': 'node', 'id': 12215837232, 'lat': 24.7470102, 'lon': 90.4118286, 'tags': {'amenity': 'hospital', 'healthcare': 'hospital', 'name': 'Al Hera Hospital And Trauma Centre'}}"
"{'type': 'node', 'id': 12215840052, 'lat': 24.7510726, 'lon': 90.4053938, 'tags': {'amenity': 'pharmacy', 'healthcare': 'pharmacy', 'name': 'The Zaman Pharma Limited, Pharmacy'}}"
"{'type': 'node', 'id': 12215840053, 'lat': 24.7491079, 'lon': 90.4070184, 'tags': {'amenity': 'hospital', 'healthcare': 'hospital', 'name': 'Marristop clinic, Charpara, Hospital'}}"
"{'type': 'node', 'id': 12215840202, 'lat': 24.7506013, 'lon': 90.4047186, 'tags': {'amenity': 'pharmacy', 'healthcare': 'pharmacy', 'name': 'Seba Medical Hall, Pharmacy'}}"
"{'type': 'node', 'id': 12215840526, 'lat': 24.7463972, 'lon': 90.4103415, 'tags': {'amenity': 'hospital', 'healthcare': 'hospital', 'name': 'Al-Razi Clinic, Hospital'}}"
"{'type': 'node', 'id': 12215842749, 'lat': 24.7468089, 'lon': 90.4094484, 'tags': {'amenity': 'hospital', 'healthcare': 'hospital', 'name': 'Serum Lab And Hospital Pvt. Ltd.'}}"
"{'type': 'node', 'id': 12215849610, 'lat': 24.7466565, 'lon': 90.4084963, 'tags': {'amenity': 'hospital', 'healthcare': 'hospital', 'name': 'Janayed private hospitalAndDiagnostic Centre'}}"
"{'type': 'node', 'id': 12250155473, 'lat': 24.7444308, 'lon': 90.4128051, 'tags': {'amenity': 'hospital', 'healthcare': 'hospital', 'name': 'Mustakin (Pvt.) Hospital'}}"
"{'type': 'node', 'id': 12250202362, 'lat': 24.7455923, 'lon': 90.4127757, 'tags': {'amenity': 'hospital', 'healthcare': 'hospital', 'name': 'Al-Jannat Haspatal (Pvt.), Private hospital'}}"
"{'type': 'node', 'id': 12250215574, 'lat': 24.7459152, 'lon': 90.4167709, 'tags': {'amenity': 'hospital', 'healthcare': 'hospital', 'name': 'Porosh (Pvt.) Hospital, Private hospital'}}"
"{'type': 'node', 'id': 12250227210, 'lat': 24.7448622, 'lon': 90.4125191, 'tags': {'amenity': 'hospital', 'healthcare': 'hospital', 'name': 'Rajdhani Hospital Mymensingh, Hospital'}}"
"{'type': 'node', 'id': 12250228718, 'lat': 24.744618, 'lon': 90.4139132, 'tags': {'amenity': 'hospital', 'healthcare': 'hospital', 'name': 'VENUS HOSPITAL, Hospital'}}"
"{'type': 'node', 'id': 12250265931, 'lat': 24.7654843, 'lon': 90.450757, 'tags': {'amenity': 'pharmacy', 'healthcare': 'pharmacy', 'name': 'Jahanar medical center, Pharmacy'}}"
"{'type': 'node', 'id': 12250332691, 'lat': 24.7604652, 'lon': 90.4466433, 'tags': {'amenity': 'pharmacy', 'healthcare': 'pharmacy', 'name': 'Pure Homeo Hall, Homeopathic pharmacy'}}"
"{'type': 'node', 'id': 12252755860, 'lat': 24.8276324, 'lon': 90.4329362, 'tags': {'amenity': 'pharmacy', 'healthcare': 'pharmacy', 'name': 'Ma Pharmacy'}}"
"{'type': 'node', 'id': 12252760284, 'lat': 24.8278257, 'lon': 90.433352, 'tags': {'amenity': 'pharmacy', 'healthcare': 'pharmacy', 'name': 'Hapsha poultry feed, Pharmacy'}}"
"{'type': 'node', 'id': 12258180172, 'lat': 24.9472198, 'lon': 90.3640857, 'tags': {'amenity': 'hospital', 'healthcare': 'hospital', 'name': 'Popular Diagnostic ComplexAnd Hospital Pvt'}}"
"{'type': 'node', 'id': 12258191959, 'lat': 24.9475722, 'lon': 90.3640425, 'tags': {'amenity': 'hospital', 'healthcare': 'hospital', 'name': 'Seva general hospital and Diagnostic Centre'}}"
"{'type': 'node', 'id': 12258205394, 'lat': 24.9472966, 'lon': 90.3643924, 'tags': {'amenity': 'hospital', 'healthcare': 'hospital', 'name': 'City General Hospital'}}"
"{'type': 'node', 'id': 12258224122, 'lat': 24.9520519, 'lon': 90.3578587, 'tags': {'amenity': 'hospital', 'healthcare': 'hospital', 'name': 'Phulpur Eye Hospital'}}"
"{'type': 'node', 'id': 12270809558, 'lat': 25.0557471, 'lon': 90.3368896, 'tags': {'amenity': 'pharmacy', 'healthcare': 'pharmacy', 'name': 'M/s Abdul Motin And Sons, Pharmacy'}}"
"{'type': 'node', 'id': 12270841638, 'lat': 24.9955503, 'lon': 90.3612287, 'tags': {'amenity': 'pharmacy', 'healthcare': 'pharmacy', 'name': 'Parul Homeo Hall, Homeopathic pharmacy'}}"
"{'type': 'node', 'id': 12273092605, 'lat': 25.057609, 'lon': 90.3371816, 'tags': {'amenity': 'doctors', 'healthcare': 'doctor', 'name': 'Ifad Diagnoatic, Doctor'}}"
"{'type': 'node', 'id': 12273210460, 'lat': 25.1189519, 'lon': 90.3381703, 'tags': {'amenity': 'clinic', 'healthcare': 'clinic', 'name': 'Pretom medicine centre, Medical Center'}}"
"{'type': 'node', 'id': 12273223045, 'lat': 25.1099111, 'lon': 90.336383, 'tags': {'amenity': 'hospital', 'healthcare': 'hospital', 'name': 'Haluaghat Eye Care Center, Hospital'}}"
"{'type': 'node', 'id': 12273269536, 'lat': 25.1222649, 'lon': 90.338845, 'tags': {'amenity': 'pharmacy', 'healthcare': 'pharmacy', 'name': 'Aporna Medical Hall, Pharmacy'}}"
"{'type': 'node', 'id': 12395767049, 'lat': 24.3743318, 'lon': 89.9692372, 'tags': {'amenity': 'hospital', 'healthcare': 'hospital', 'name': 'Ichapur Community Clinic, Hospital'}}"
"{'type': 'node', 'id': 12395784562, 'lat': 24.3875253, 'lon': 89.9951143, 'tags': {'amenity': 'pharmacy', 'healthcare': 'pharmacy', 'name': 'Kakoli Pharmacy, Pharmacy'}}"
"{'type': 'node', 'id': 12404523488, 'lat': 24.3954204, 'lon': 89.9935084, 'tags': {'amenity': 'pharmacy', 'healthcare': 'pharmacy', 'name': 'Sotorupa Pharmacy'}}"
"{'type': 'node', 'id': 12404557888, 'lat': 24.3871732, 'lon': 89.9945876, 'tags': {'amenity': 'pharmacy', 'healthcare': 'pharmacy', 'name': 'Bakul Medical Hall, Pharmacy'}}"
"{'type': 'node', 'id': 12404570513, 'lat': 24.3868889, 'lon': 89.994314, 'tags': {'amenity': 'hospital', 'healthcare': 'hospital', 'name': 'Shahjalal Islami Bank Limited., Hospital'}}"
"{'type': 'node', 'id': 12404574067, 'lat': 24.3891986, 'lon': 89.9958887, 'tags': {'amenity': 'hospital', 'healthcare': 'hospital', 'name': 'Niramoy General Hospital'}}"
"{'type': 'node', 'id': 12407022554, 'lat': 24.4855891, 'lon': 89.9734956, 'tags': {'amenity': 'hospital', 'healthcare': 'hospital', 'name': 'Ghatail Digital Clinic And Narsing Home, General hospital'}}"
"{'type': 'node', 'id': 12407025054, 'lat': 24.5356287, 'lon': 89.9828553, 'tags': {'amenity': 'hospital', 'healthcare': 'hospital', 'name': 'Pakutia Hospital, Hospital'}}"
"{'type': 'node', 'id': 12409290987, 'lat': 24.3966452, 'lon': 89.9947333, 'tags': {'amenity': 'hospital', 'healthcare': 'hospital', 'name': 'Old Hospital, Hospital'}}"
"{'type': 'node', 'id': 12409319734, 'lat': 24.6072179, 'lon': 90.028466, 'tags': {'amenity': 'pharmacy', 'healthcare': 'pharmacy', 'name': 'Mohajon Pharmacy'}}"
"{'type': 'node', 'id': 12409329358, 'lat': 24.604842, 'lon': 90.0271475, 'tags': {'amenity': 'hospital', 'healthcare': 'hospital', 'name': 'Kazi Physiotherapy Center Madhupur, Hospital'}}"
"{'type': 'node', 'id': 12415463989, 'lat': 24.4784131, 'lon': 89.9740907, 'tags': {'amenity': 'hospital', 'healthcare': 'hospital', 'name': 'Moon Nursing Home, Hospital'}}"
"{'type': 'node', 'id': 12415498416, 'lat': 24.4778885, 'lon': 89.9737776, 'tags': {'amenity': 'hospital', 'healthcare': 'hospital', 'name': 'Ghatail Animal Hospital'}}"
"{'type': 'node', 'id': 12415514013, 'lat': 24.4785986, 'lon': 89.973743, 'tags': {'amenity': 'pharmacy', 'healthcare': 'pharmacy', 'name': 'Bondhon Model Pharma, Pharmacy'}}"
"{'type': 'node', 'id': 12415609796, 'lat': 24.4839958, 'lon': 89.9733707, 'tags': {'amenity': 'pharmacy', 'healthcare': 'pharmacy', 'name': 'Monir Drugs, Pharmacy'}}"
"{'type': 'node', 'id': 12415609797, 'lat': 24.4850797, 'lon': 89.9736341, 'tags': {'amenity': 'pharmacy', 'healthcare': 'pharmacy', 'name': 'Biplab Model Medicine Shop, Pharmacy'}}"
"{'type': 'node', 'id': 12415624242, 'lat': 24.4868678, 'lon': 89.9740643, 'tags': {'amenity': 'hospital', 'healthcare': 'hospital', 'name': 'Top 10 Specialised Hospital, Hospital'}}"
"{'type': 'node', 'id': 12415632535, 'lat': 24.4862412, 'lon': 89.9739132, 'tags': {'amenity': 'pharmacy', 'healthcare': 'pharmacy', 'name': 'Panna medical hallAndsergical, Pharmacy'}}"
"{'type': 'node', 'id': 12430478541, 'lat': 24.6444714, 'lon': 90.077765, 'tags': {'amenity': 'pharmacy', 'healthcare': 'pharmacy', 'name': 'Jalchhatra Diagnostic Center and Pharmacy, Pharmacy'}}"
"{'type': 'node', 'id': 12430506196, 'lat': 24.6444439, 'lon': 90.0758336, 'tags': {'amenity': 'hospital', 'healthcare': 'hospital', 'name': 'Tuberculosis and Leprosy Hospital'}}"
"{'type': 'node', 'id': 12433270859, 'lat': 24.7166058, 'lon': 90.1710593, 'tags': {'amenity': 'hospital', 'healthcare': 'hospital', 'name': 'Su-Sheba Diagnostic Centre, Hospital'}}"
"{'type': 'node', 'id': 12433276284, 'lat': 24.7163415, 'lon': 90.170525, 'tags': {'amenity': 'pharmacy', 'healthcare': 'pharmacy', 'name': 'Mahim Medical Hall, Pharmacy'}}"
"{'type': 'node', 'id': 12433277355, 'lat': 24.7169068, 'lon': 90.1718022, 'tags': {'amenity': 'pharmacy', 'healthcare': 'pharmacy', 'name': 'Loknath Drug House, Pharmacy'}}"
"{'type': 'node', 'id': 12441286583, 'lat': 24.764885, 'lon': 90.2553844, 'tags': {'amenity': 'hospital', 'healthcare': 'hospital', 'name': 'Hasan Diagnostic Center, Hospital'}}"
"{'type': 'node', 'id': 12441359376, 'lat': 24.7653353, 'lon': 90.255372, 'tags': {'amenity': 'hospital', 'healthcare': 'hospital', 'name': 'Upzila Livestock Hospital'}}"
"{'type': 'node', 'id': 12441368770, 'lat': 24.7665165, 'lon': 90.2582714, 'tags': {'amenity': 'hospital', 'healthcare': 'hospital', 'name': 'Muktagacha Model Hospital, Private hospital'}}"
"{'type': 'node', 'id': 12441369373, 'lat': 24.7657966, 'lon': 90.255354, 'tags': {'amenity': 'hospital', 'healthcare': 'hospital', 'name': 'Muktagachha Animal Hospital'}}"
"{'type': 'node', 'id': 12441398022, 'lat': 24.7642263, 'lon': 90.261651, 'tags': {'amenity': 'pharmacy', 'healthcare': 'pharmacy', 'name': 'Sharif Medical Hall, Pharmacy'}}"
"{'type': 'node', 'id': 12441407422, 'lat': 24.7631912, 'lon': 90.2645657, 'tags': {'amenity': 'pharmacy', 'healthcare': 'pharmacy', 'name': 'I Pharma Ltd., Pharmacy'}}"
"{'type': 'node', 'id': 12448068111, 'lat': 24.716917, 'lon': 90.172754, 'tags': {'amenity': 'pharmacy', 'healthcare': 'pharmacy', 'name': 'Ridhi Medicine Corner, Pharmacy'}}"
"{'type': 'node', 'id': 12448101262, 'lat': 24.7159555, 'lon': 90.1709367, 'tags': {'amenity': 'pharmacy', 'healthcare': 'pharmacy', 'name': 'Nisro Enterprise, Pharmacy'}}"
"{'type': 'node', 'id': 12448214621, 'lat': 24.7656172, 'lon': 90.2918048, 'tags': {'amenity': 'pharmacy', 'healthcare': 'pharmacy', 'name': 'Basonti Medical Hall, Pharmacy'}}"
"{'type': 'node', 'id': 12448317951, 'lat': 24.6899395, 'lon': 90.142195, 'tags': {'amenity': 'pharmacy', 'healthcare': 'pharmacy', 'name': 'Bismillah Medical Hall, Pharmacy'}}"
"{'type': 'node', 'id': 12452823597, 'lat': 24.7633722, 'lon': 90.2507917, 'tags': {'amenity': 'hospital', 'healthcare': 'hospital', 'name': 'Talukdar clinic And digital lab, Hospital'}}"
"{'type': 'node', 'id': 12452837905, 'lat': 24.7619272, 'lon': 90.2479416, 'tags': {'amenity': 'pharmacy', 'healthcare': 'pharmacy', 'name': 'Al Khidmah Medicine Corner, Pharmacy'}}"
"{'type': 'node', 'id': 12452852022, 'lat': 24.7638143, 'lon': 90.2532067, 'tags': {'amenity': 'hospital', 'healthcare': 'hospital', 'name': 'Ababil Hospital Limited, Hospital'}}"
"{'type': 'node', 'id': 12452852616, 'lat': 24.7565238, 'lon': 90.2271702, 'tags': {'amenity': 'pharmacy', 'healthcare': 'pharmacy', 'name': 'Shifa Medicine Corner, Pharmacy'}}"
"{'type': 'node', 'id': 12452852618, 'lat': 24.7605217, 'lon': 90.2347617, 'tags': {'amenity': 'pharmacy', 'healthcare': 'pharmacy', 'name': 'Medical Store, Pharmacy'}}"
"{'type': 'node', 'id': 12452854507, 'lat': 24.7626447, 'lon': 90.2480447, 'tags': {'amenity': 'hospital', 'healthcare': 'hospital', 'name': 'Al khidmah Diagnostic center, Hospital'}}"
"{'type': 'node', 'id': 12452888382, 'lat': 24.7610654, 'lon': 90.2692595, 'tags': {'amenity': 'hospital', 'healthcare': 'hospital', 'name': 'Satta Clinic, Hospital'}}"
"{'type': 'node', 'id': 12452901208, 'lat': 24.7639006, 'lon': 90.2535769, 'tags': {'amenity': 'pharmacy', 'healthcare': 'pharmacy', 'name': 'Uttam Drug House, Pharmacy'}}"
"{'type': 'node', 'id': 12452903608, 'lat': 24.7635041, 'lon': 90.263103, 'tags': {'amenity': 'hospital', 'healthcare': 'hospital', 'name': 'Hashem Homeo Hospital'}}"
"{'type': 'node', 'id': 12460670157, 'lat': 24.7821358, 'lon': 90.3441817, 'tags': {'amenity': 'pharmacy', 'healthcare': 'pharmacy', 'name': 'Kabir Medical Hall, Pharmacy'}}"
"{'type': 'node', 'id': 12460748524, 'lat': 24.7709487, 'lon': 90.3865513, 'tags': {'amenity': 'pharmacy', 'healthcare': 'pharmacy', 'name': 'Rahman Medical Hall, Pharmacy'}}"
"{'type': 'node', 'id': 12462869629, 'lat': 24.7544425, 'lon': 90.4148313, 'tags': {'amenity': 'pharmacy', 'healthcare': 'pharmacy', 'name': 'Rosy Medical Hall, Pharmacy'}}"
"{'type': 'node', 'id': 12462885217, 'lat': 24.7608575, 'lon': 90.395123, 'tags': {'amenity': 'hospital', 'healthcare': 'hospital', 'name': 'Ananda Mohan College Medical Center, Hospital'}}"
"{'type': 'node', 'id': 12465176062, 'lat': 24.7754756, 'lon': 90.3804973, 'tags': {'amenity': 'pharmacy', 'healthcare': 'pharmacy', 'name': 'Utsaw Medicine Mart, Pharmacy'}}"
"{'type': 'node', 'id': 12465182503, 'lat': 24.7751542, 'lon': 90.3815667, 'tags': {'amenity': 'pharmacy', 'healthcare': 'pharmacy', 'name': 'National Medical Hall, Pharmacy'}}"
"{'type': 'node', 'id': 12468649025, 'lat': 24.7577881, 'lon': 90.412666, 'tags': {'amenity': 'hospital', 'healthcare': 'hospital', 'name': 'Mother and Child Welfare Centre, Hospital'}}"
"{'type': 'node', 'id': 12468678687, 'lat': 24.7496712, 'lon': 90.4186545, 'tags': {'amenity': 'hospital', 'healthcare': 'hospital', 'name': 'Civil Surgeon Coatar, Hospital'}}"
