OSM_Data
"{'type': 'node', 'id': 1635332528, 'lat': 24.3718395, 'lon': 88.5863408, 'tags': {'amenity': 'hospital', 'emergency': 'yes', 'name': 'Altaf Uz Zaman Collage & Hospital', 'source': 'Altaf Uz Zaman Collage & Hospital'}}"
"{'type': 'node', 'id': 1986847488, 'lat': 24.3687089, 'lon': 88.6266259, 'tags': {'amenity': 'hospital', 'healthcare': 'hospital', 'name': 'RUET Central Hospital, Rajshahi'}}"
"{'type': 'node', 'id': 2344447969, 'lat': 24.2815556, 'lon': 88.7544322, 'tags': {'amenity': 'hospital', 'name': 'Charghat Upazila Health Complex'}}"
"{'type': 'node', 'id': 2344448874, 'lat': 24.3767363, 'lon': 88.5820023, 'tags': {'amenity': 'hospital', 'name': 'Tuberculosis Hospital Rajshahi'}}"
"{'type': 'node', 'id': 2344453917, 'lat': 24.4737703, 'lon': 88.3239856, 'tags': {'amenity': 'hospital', 'name': 'Godagari Upazila Health Complex'}}"
"{'type': 'node', 'id': 2344454633, 'lat': 24.5978494, 'lon': 88.2654598, 'tags': {'amenity': 'hospital', 'name': 'Chapai Nawabganj General Hospital'}}"
"{'type': 'node', 'id': 2344456527, 'lat': 24.7347879, 'lon': 88.4174943, 'tags': {'amenity': 'hospital', 'name': 'Nachole Upazila Health Complex'}}"
"{'type': 'node', 'id': 2344457241, 'lat': 24.6886618, 'lon': 88.1600351, 'tags': {'amenity': 'hospital', 'name': 'Shibganj Upazila Health Complex'}}"
"{'type': 'node', 'id': 2349376157, 'lat': 24.8309811, 'lon': 88.5748276, 'tags': {'amenity': 'hospital', 'name': 'Niamatpur Upazila Health Complex'}}"
"{'type': 'node', 'id': 2349378792, 'lat': 24.9363788, 'lon': 88.2218319, 'tags': {'amenity': 'hospital', 'name': 'Bholarhat Upazila Health Complex'}}"
"{'type': 'node', 'id': 2349378799, 'lat': 25.0229353, 'lon': 88.455204, 'tags': {'amenity': 'hospital', 'name': 'Porsha Upazila Health Complex'}}"
"{'type': 'node', 'id': 2349386844, 'lat': 25.0492086, 'lon': 88.7555694, 'tags': {'amenity': 'hospital', 'name': 'Patnitola Upazila Health Complex'}}"
"{'type': 'node', 'id': 2349386854, 'lat': 24.5758157, 'lon': 88.5749801, 'tags': {'amenity': 'hospital', 'name': 'Tanore Upazila Health Complex'}}"
"{'type': 'node', 'id': 4403772589, 'lat': 24.3752744, 'lon': 88.5930964, 'tags': {'amenity': 'clinic', 'name': 'রাজশাহী মডেল হাসপাতাল', 'name:en': 'Rajshahi Model Hospital'}}"
"{'type': 'node', 'id': 4933643639, 'lat': 25.0495513, 'lon': 88.7553711, 'tags': {'amenity': 'hospital', 'name': 'Patnitala Upazila Health Complex'}}"
"{'type': 'node', 'id': 5128075347, 'lat': 24.3654612, 'lon': 88.6737381, 'tags': {'addr:city': 'Katakhali', 'amenity': 'pharmacy', 'name': 'Neela Pharmacy'}}"
"{'type': 'node', 'id': 5128358533, 'lat': 24.3945556, 'lon': 88.6847512, 'tags': {'amenity': 'pharmacy', 'name': 'D.M. Enterprise Rabbani'}}"
"{'type': 'node', 'id': 5130394402, 'lat': 24.3659371, 'lon': 88.643544, 'tags': {'amenity': 'pharmacy', 'name': 'J C Pharmacy জে সি ফার্মেসী'}}"
"{'type': 'node', 'id': 5130451969, 'lat': 24.3614804, 'lon': 88.6272125, 'tags': {'amenity': 'pharmacy', 'name': 'Shawon Pharmacy শাওন ফার্মেসী'}}"
"{'type': 'node', 'id': 5130483149, 'lat': 24.3615676, 'lon': 88.6158747, 'tags': {'amenity': 'pharmacy', 'name': 'Prottasha pharmacy প্রত্যাশা ফার্মেসী'}}"
"{'type': 'node', 'id': 5134446929, 'lat': 24.5603521, 'lon': 88.3049064, 'tags': {'amenity': 'pharmacy', 'name': 'আল্-ইমরান হোমিও হল'}}"
"{'type': 'node', 'id': 5134610268, 'lat': 24.5901122, 'lon': 88.2744858, 'tags': {'addr:city': 'Chapainawabganj', 'amenity': 'pharmacy', 'name': 'Stota Pharmacy'}}"
"{'type': 'node', 'id': 5134757205, 'lat': 24.5944159, 'lon': 88.2602308, 'tags': {'addr:city': 'chapainawabganj', 'amenity': 'pharmacy', 'name': 'Double Hazi Daowat Khana'}}"
"{'type': 'node', 'id': 5134787305, 'lat': 24.6018461, 'lon': 88.2506619, 'tags': {'addr:city': 'Chapainawabganj', 'amenity': 'pharmacy', 'name': 'Javed Pharmacy জাভেদ ফার্মেসী'}}"
"{'type': 'node', 'id': 5134843829, 'lat': 24.6316533, 'lon': 88.1950309, 'tags': {'amenity': 'pharmacy', 'name': 'pharAsa Pharmacy আশা ফার্মেসী'}}"
"{'type': 'node', 'id': 5134987160, 'lat': 24.6875038, 'lon': 88.157907, 'tags': {'amenity': 'pharmacy', 'name': 'Tabligh Pharmacy'}}"
"{'type': 'node', 'id': 5142317537, 'lat': 24.7310583, 'lon': 88.1690217, 'tags': {'amenity': 'pharmacy', 'name': 'Priota Bonowzi & Aurvedalaya'}}"
"{'type': 'node', 'id': 5142499162, 'lat': 24.5925774, 'lon': 88.6544842, 'tags': {'addr:city': 'Keshorhat', 'amenity': 'pharmacy', 'name': 'Shaila Pharmacy শায়লা ফার্মেসী'}}"
"{'type': 'node', 'id': 5154904812, 'lat': 24.9216638, 'lon': 88.7509438, 'tags': {'amenity': 'hospital', 'name': 'Upazila Health Complex, Mohadevpur'}}"
"{'type': 'node', 'id': 5156426890, 'lat': 24.8753904, 'lon': 88.4516023, 'tags': {'amenity': 'pharmacy', 'name': 'Mozzammels Pharmacy'}}"
"{'type': 'node', 'id': 5156438319, 'lat': 24.859303, 'lon': 88.444045, 'tags': {'amenity': 'pharmacy', 'name': 'Liza Pharmacy লিজা ফার্মাসী'}}"
"{'type': 'node', 'id': 5156439074, 'lat': 24.859326, 'lon': 88.443425, 'tags': {'amenity': 'pharmacy', 'name': 'Oadud Pharmacy ওয়াদুদ ফার্মেসী'}}"
"{'type': 'node', 'id': 5156477093, 'lat': 24.8189078, 'lon': 88.3268949, 'tags': {'amenity': 'hospital', 'healthcare': 'hospital', 'name': 'Rohanpur Animal Hospital'}}"
"{'type': 'node', 'id': 5156489006, 'lat': 24.7824459, 'lon': 88.2824813, 'tags': {'amenity': 'pharmacy', 'name': 'Islamia Pharmacy ইসলামিয়া ফার্মেসি'}}"
"{'type': 'node', 'id': 5156491073, 'lat': 24.7814045, 'lon': 88.281777, 'tags': {'amenity': 'pharmacy', 'name': 'Bhai Bhai Pharmacy ভাই ভাই ফার্মেসি'}}"
"{'type': 'node', 'id': 5160254579, 'lat': 24.2824619, 'lon': 88.7515927, 'tags': {'amenity': 'pharmacy', 'healthcare': 'pharmacy', 'name': 'Prity Pharmacy'}}"
"{'type': 'node', 'id': 5346365227, 'lat': 24.3687005, 'lon': 88.5790233, 'tags': {'amenity': 'pharmacy', 'name': 'Hamdard'}}"
"{'type': 'node', 'id': 5350285191, 'lat': 24.3674935, 'lon': 88.5886686, 'tags': {'amenity': 'hospital', 'name': 'Rajshahi Shishu Hospital রাজশাহী শিশু হাসপাতালের'}}"
"{'type': 'node', 'id': 6604918208, 'lat': 24.3679093, 'lon': 88.6457775, 'tags': {'healthcare': 'alternative', 'name': 'Nahar Homeo Hall'}}"
"{'type': 'node', 'id': 6618323605, 'lat': 24.3672517, 'lon': 88.6438864, 'tags': {'amenity': 'pharmacy', 'dispensing': 'yes', 'healthcare': 'pharmacy', 'name': 'Hasib Pharmacy'}}"
"{'type': 'node', 'id': 6618333406, 'lat': 24.3672257, 'lon': 88.6437628, 'tags': {'amenity': 'pharmacy', 'dispensing': 'yes', 'healthcare': 'pharmacy', 'name': 'Halima Pharmacy'}}"
"{'type': 'node', 'id': 6782045716, 'lat': 24.3611991, 'lon': 88.6173217, 'tags': {'amenity': 'pharmacy', 'dispensing': 'yes', 'healthcare': 'pharmacy', 'name': 'Prottasha Pharmacy'}}"
"{'type': 'node', 'id': 6782123005, 'lat': 24.3615992, 'lon': 88.6124362, 'tags': {'amenity': 'pharmacy', 'dispensing': 'yes', 'healthcare': 'pharmacy', 'name': 'Asha Pharmacy'}}"
"{'type': 'node', 'id': 6787597209, 'lat': 24.3694803, 'lon': 88.5735114, 'tags': {'amenity': 'clinic', 'healthcare': 'clinic', 'name': 'Mohanagar Clinic'}}"
"{'type': 'node', 'id': 6801183725, 'lat': 24.3799063, 'lon': 88.5641424, 'tags': {'amenity': 'pharmacy', 'dispensing': 'yes', 'healthcare': 'pharmacy', 'name': 'Moriom Pharmacy'}}"
"{'type': 'node', 'id': 6801200655, 'lat': 24.3798985, 'lon': 88.5642488, 'tags': {'amenity': 'pharmacy', 'dispensing': 'yes', 'healthcare': 'pharmacy', 'name': 'Bismillah Pharmacy'}}"
"{'type': 'node', 'id': 6801208600, 'lat': 24.3800576, 'lon': 88.5648729, 'tags': {'amenity': 'pharmacy', 'dispensing': 'yes', 'healthcare': 'pharmacy', 'name': 'Shahin Pharmacy'}}"
"{'type': 'node', 'id': 6801227189, 'lat': 24.3800745, 'lon': 88.5646818, 'tags': {'amenity': 'pharmacy', 'dispensing': 'yes', 'healthcare': 'pharmacy', 'name': 'Seba pharmacy'}}"
"{'type': 'node', 'id': 6801569107, 'lat': 24.3787387, 'lon': 88.5803059, 'tags': {'amenity': 'pharmacy', 'dispensing': 'yes', 'healthcare': 'pharmacy', 'name': 'Jahan Pharmacy'}}"
"{'type': 'node', 'id': 6801576709, 'lat': 24.3785499, 'lon': 88.5802972, 'tags': {'amenity': 'pharmacy', 'dispensing': 'yes', 'healthcare': 'pharmacy', 'name': 'Somadhan Pharmacy'}}"
"{'type': 'node', 'id': 6905009862, 'lat': 25.2466246, 'lon': 88.7816732, 'tags': {'addr:city': 'Balurghat', 'addr:district': 'Dakshin Dinajpur', 'addr:full': 'West Dinajpur, Balurghat', 'addr:postcode': '733127', 'addr:state': 'West Bengal', 'contact:mobile': '7797222313', 'contact:phone': '03522255288;03522270464;03522255641', 'email': 'bloodbank.dd@gmail.com', 'healthcare': 'blood_donation', 'name': 'Balurghat District Hospital Blood Bank', 'opening_hours': '24/7', 'operator': 'West Bengal Government', 'operator:type': 'government', 'source': 'OpenGovernmentData'}}"
"{'type': 'node', 'id': 6965461649, 'lat': 25.3523827, 'lon': 87.6241542, 'tags': {'addr:district': 'Katihar', 'addr:full': 'Manihari', 'addr:postcode': '854105', 'addr:state': 'Bihar', 'amenity': 'hospital', 'name': 'Sub Div Hospital Manihari', 'source': 'OpenGovernmentData'}}"
"{'type': 'node', 'id': 7011283375, 'lat': 24.8562776, 'lon': 87.6473272, 'tags': {'addr:district': 'Sahibganj', 'addr:full': 'Baramasia, Barhait, Chandragodda, Prem Jyoti Community Hospital', 'addr:postcode': '816102', 'addr:state': 'Jharkhand', 'addr:subdistrict': 'Barhait', 'amenity': 'hospital', 'name': 'Prem Jyoti Community Hospital', 'source': 'OpenGovernmentData'}}"
"{'type': 'node', 'id': 7012262370, 'lat': 24.630012, 'lon': 87.8499614, 'tags': {'addr:district': 'Dumka', 'addr:full': 'Tantipara, Pakur', 'addr:postcode': '816107', 'addr:state': 'Jharkhand', 'amenity': 'clinic', 'name': 'Anand Clinic', 'source': 'OpenGovernmentData'}}"
"{'type': 'node', 'id': 7012714606, 'lat': 24.7190042, 'lon': 87.6552518, 'tags': {'addr:district': 'Pakur', 'addr:full': 'Littipara', 'addr:postcode': '816104', 'addr:state': 'Jharkhand', 'amenity': 'hospital', 'name': 'Tribal Welfare Rural Hospital Asanbani,(Rinchi)Trust Hospital', 'source': 'OpenGovernmentData'}}"
"{'type': 'node', 'id': 7012714746, 'lat': 24.7158441, 'lon': 87.7055231, 'tags': {'addr:district': 'Pakur', 'addr:full': 'Hiranpur', 'addr:postcode': '816104', 'addr:state': 'Jharkhand', 'amenity': 'hospital', 'name': 'St. Luke Hospital, Pakur', 'source': 'OpenGovernmentData'}}"
"{'type': 'node', 'id': 7048170729, 'lat': 24.0992449, 'lon': 88.2568298, 'tags': {'addr:district': 'Murshidabad', 'addr:full': '155, Pilkhana Road, P.O. Berhampur', 'addr:postcode': '742101', 'addr:state': 'West Bengal', 'amenity': 'clinic', 'healthcare': 'clinic', 'healthcare:speciality': 'general', 'name': 'Care Land Nursing Home', 'source': 'OpenGovernmentData'}}"
"{'type': 'node', 'id': 7048239911, 'lat': 24.1738986, 'lon': 88.2756776, 'tags': {'addr:district': 'Murshidabad', 'addr:full': '277, Bibekananda Road, Lalbag Hospital Road', 'addr:postcode': '742149', 'addr:state': 'West Bengal', 'amenity': 'clinic', 'name': 'Rainbow Nursing Home', 'source': 'OpenGovernmentData'}}"
"{'type': 'node', 'id': 7048250301, 'lat': 24.096004, 'lon': 88.260735, 'tags': {'addr:district': 'Murshidabad', 'addr:full': 'C.R.Das Road, Beside Nb Cstc Road Bus Terminus, Berhampur', 'addr:postcode': '742101', 'addr:state': 'West Bengal', 'amenity': 'hospital', 'name': 'Rabindra Nath Thakur Diagnostic And Medical Care Centre', 'source': 'OpenGovernmentData'}}"
"{'type': 'node', 'id': 7048595086, 'lat': 24.0954753, 'lon': 88.2561336, 'tags': {'addr:district': 'Murshidabad', 'addr:full': '7/1, Rabindranath Tagore Road,Laldighi, P O Berhampore', 'addr:postcode': '742101', 'addr:state': 'West Bengal', 'amenity': 'clinic', 'healthcare': 'clinic', 'name': 'Laldighi Medical Centre Pvt. Ltd', 'source': 'OpenGovernmentData'}}"
"{'type': 'node', 'id': 7048727310, 'lat': 25.0074639, 'lon': 88.1376857, 'tags': {'addr:district': 'Malda', 'addr:full': 'Thakur Sitaram Sevakendra S M Pally, N H -34', 'addr:postcode': '732101', 'addr:state': 'West Bengal', 'amenity': 'hospital', 'healthcare': 'hospital', 'name': 'Dr Pinaki Ranjan Ray Eye Foundation', 'source': 'OpenGovernmentData'}}"
"{'type': 'node', 'id': 7050808053, 'lat': 24.8620661, 'lon': 88.0190881, 'tags': {'addr:district': 'Malda', 'addr:full': 'N.H.34, badshahi road', 'addr:postcode': '732201', 'addr:state': 'West Bengal', 'amenity': 'clinic', 'name': 'Kaliachak Nursing Home', 'source': 'OpenGovernmentData'}}"
"{'type': 'node', 'id': 7050825637, 'lat': 25.0060966, 'lon': 88.1451546, 'tags': {'addr:district': 'Malda', 'addr:full': 'Binoy Sarkar Road,Maldah Town', 'addr:postcode': '732101', 'addr:state': 'West Bengal', 'amenity': 'clinic', 'contact:mobile': '9434066675', 'name': 'Usha Nursing Home, Malda', 'source': 'OpenGovernmentData'}}"
"{'type': 'node', 'id': 7050871502, 'lat': 25.2516112, 'lon': 88.7787017, 'tags': {'addr:district': 'Dinajpur Dakshin', 'addr:full': 'Raghunathpuri,B.T.Park, Balurghat', 'addr:postcode': '733103', 'addr:state': 'West Bengal', 'amenity': 'clinic', 'contact:phone': '3522255190', 'healthcare': 'clinic', 'name': 'Majumder Nursing Home', 'source': 'OpenGovernmentData'}}"
"{'type': 'node', 'id': 7050887341, 'lat': 24.9923236, 'lon': 88.1428224, 'tags': {'addr:district': 'Malda', 'addr:full': 'Bandh Road,Malda Medical College Road', 'addr:postcode': '732101', 'addr:state': 'West Bengal', 'amenity': 'clinic', 'name': 'Mahananda Nursing Home', 'source': 'OpenGovernmentData'}}"
"{'type': 'node', 'id': 7053917117, 'lat': 25.0124809, 'lon': 88.1418554, 'tags': {'addr:district': 'Malda', 'addr:full': '320 More, Kothabari P.O: Jhaljhalia', 'addr:postcode': '732103', 'addr:state': 'West Bengal', 'amenity': 'clinic', 'healthcare': 'clinic', 'name': 'Matri Mangal Nursing Home', 'source': 'OpenGovernmentData'}}"
"{'type': 'node', 'id': 7054076835, 'lat': 24.9961841, 'lon': 88.1424744, 'tags': {'addr:district': 'Malda', 'addr:full': 'K.J Sanyal Road', 'addr:postcode': '732101', 'addr:state': 'West Bengal', 'amenity': 'clinic', 'name': 'Dristi Nursing Home', 'source': 'OpenGovernmentData'}}"
"{'type': 'node', 'id': 7058973462, 'lat': 24.6237601, 'lon': 88.0127485, 'tags': {'addr:district': 'Murshidabad', 'addr:full': 'At Dihigram, P.O-Dafahat, P.S Suti(Near Nimtita Railway Station)', 'addr:postcode': '742224', 'addr:state': 'West Bengal', 'amenity': 'hospital', 'contact:phone': '9932183452', 'name': 'Parkland Maternity And Nursing Home', 'source': 'OpenGovernmentData'}}"
"{'type': 'node', 'id': 7059035790, 'lat': 24.9958139, 'lon': 88.1443837, 'tags': {'addr:district': 'Malda', 'addr:full': '19 B G, Road Mokdumpur', 'addr:postcode': '732103', 'addr:state': 'West Bengal', 'amenity': 'hospital', 'contact:phone': '9734099999 ; 8116602193', 'name': 'Dishari Health Point Pvt Ltd', 'source': 'OpenGovernmentData', 'website': 'https://www.disharihealthpoint.com/'}}"
"{'type': 'node', 'id': 7059124296, 'lat': 24.9978397, 'lon': 88.1408834, 'tags': {'addr:district': 'Malda', 'addr:full': '117/148, Womens College Road, Pirojpur', 'addr:postcode': '732101', 'addr:state': 'West Bengal', 'amenity': 'clinic', 'name': 'Chowdhury Clinic and Nursing Home', 'source': 'OpenGovernmentData'}}"
"{'type': 'node', 'id': 7062407382, 'lat': 24.1800091, 'lon': 87.7923523, 'tags': {'addr:district': 'Birbhum', 'addr:full': 'National High Road, Bharsalapara, Rampurhat', 'addr:postcode': '731224', 'addr:state': 'West Bengal', 'amenity': 'clinic', 'name': 'Niramoy Nursing Home', 'source': 'OpenGovernmentData'}}"
"{'type': 'node', 'id': 7062437787, 'lat': 25.2290565, 'lon': 88.7731057, 'tags': {'addr:district': 'Dinajpur Dakshin', 'addr:full': 'Balurghat', 'addr:postcode': '733101', 'addr:state': 'West Bengal', 'amenity': 'hospital', 'healthcare': 'hospital', 'name': 'Balurghat Poura Hospital And Matri Sadan', 'source': 'OpenGovernmentData'}}"
"{'type': 'node', 'id': 7065232704, 'lat': 24.9924045, 'lon': 88.1371026, 'tags': {'addr:district': 'Malda', 'addr:full': '3,Government Colony Road', 'addr:postcode': '732101', 'addr:state': 'West Bengal', 'amenity': 'clinic', 'name': 'Square Nursing Home', 'source': 'OpenGovernmentData', 'website': 'sqauremalda.com'}}"
"{'type': 'node', 'id': 7065473107, 'lat': 24.2876919, 'lon': 87.8466113, 'tags': {'addr:district': 'Birbhum', 'addr:full': 'Nalhati, Busstand', 'addr:postcode': '731220', 'addr:state': 'West Bengal', 'amenity': 'clinic', 'name': 'Jyoti Nursing Home - Rsby', 'source': 'OpenGovernmentData'}}"
"{'type': 'node', 'id': 7065868488, 'lat': 24.0146273, 'lon': 88.2593681, 'tags': {'addr:district': 'Murshidabad', 'addr:full': 'Souduganj,P.O-Jiaganj', 'addr:postcode': '742113', 'addr:state': 'West Bengal', 'amenity': 'clinic', 'name': 'Sabnam Clinic', 'source': 'OpenGovernmentData'}}"
"{'type': 'node', 'id': 7068631601, 'lat': 24.1873074, 'lon': 87.793301, 'tags': {'addr:district': 'Birbhum', 'addr:full': 'New Hospital Road,Rampurhat', 'addr:postcode': '731234', 'addr:state': 'West Bengal', 'amenity': 'clinic', 'name': 'Asha Nursing Home', 'source': 'OpenGovernmentData'}}"
"{'type': 'node', 'id': 7069043449, 'lat': 24.0991332, 'lon': 88.2768121, 'tags': {'addr:district': 'Murshidabad', 'addr:full': 'Kadbeltala(Keshab Nagar), Jalangi Road, Po-Cossimbazar-Raj, Ps-Berhampore', 'addr:postcode': '742101', 'addr:state': 'West Bengal', 'amenity': 'clinic', 'name': 'Murshidabad Nursing Home and Diagnostic Center Pvt Ltd', 'source': 'OpenGovernmentData'}}"
"{'type': 'node', 'id': 7069117900, 'lat': 25.2347615, 'lon': 88.7749037, 'tags': {'addr:city': 'Balurghat', 'addr:district': 'Dinajpur Dakshin', 'addr:district:en': 'Dakshin Dinajpur', 'addr:full': 'North Chakbhabani, Balurghat', 'addr:postcode': '733101', 'addr:state': 'West Bengal', 'amenity': 'hospital', 'contact:mobile': '9434305612', 'contact:phone': '3522271037', 'healthcare': 'hospital', 'name': 'Basanti Seva Kendra', 'source': 'OpenGovernmentData'}}"
"{'type': 'node', 'id': 7071466487, 'lat': 24.1787013, 'lon': 88.2785658, 'tags': {'addr:district': 'Murshidabad', 'addr:full': 'Murshidabad Station Road, Lal Bagh', 'addr:postcode': '742149', 'addr:state': 'West Bengal', 'amenity': 'clinic', 'name': 'Al- Ameen Nursing Home', 'source': 'OpenGovernmentData'}}"
"{'type': 'node', 'id': 7071683927, 'lat': 24.9924847, 'lon': 88.1437779, 'tags': {'addr:district': 'Malda', 'addr:full': 'Gour Road, Mokdompur, Near Bimla Das Statue', 'addr:postcode': '732103', 'addr:state': 'West Bengal', 'amenity': 'hospital', 'contact:phone': '3512256307', 'name': 'BKG Malda Eye Hospital', 'source': 'OpenGovernmentData'}}"
"{'type': 'node', 'id': 7074312540, 'lat': 24.1087857, 'lon': 88.2320434, 'tags': {'addr:district': 'Murshidabad', 'addr:full': 'Nh 34, Radhar Ghat, Berhampore', 'addr:postcode': '742101', 'addr:state': 'West Bengal', 'amenity': 'hospital', 'contact:phone': '3482226591', 'name': 'Gitaram Hospital Pvt Ltd', 'source': 'OpenGovernmentData', 'website': 'https://gitaramhospital.co.in/'}}"
"{'type': 'node', 'id': 7074312595, 'lat': 24.0747139, 'lon': 88.266139, 'tags': {'addr:district': 'Murshidabad', 'addr:full': 'P.O. Chaltia, Bhakuri, P.S Berhampore', 'addr:postcode': '742103', 'addr:state': 'West Bengal', 'amenity': 'hospital', 'healthcare': 'hospital', 'name': 'Jeevandeep Special Care and Diagnostic Center', 'source': 'OpenGovernmentData', 'website': 'https://jeevandeepspecialcare.com/'}}"
"{'type': 'node', 'id': 7074312622, 'lat': 24.0960432, 'lon': 88.2615101, 'tags': {'addr:district': 'Murshidabad', 'addr:full': '25/1, Kalikapur Road, W-09,Po+Ps - Berhampore', 'addr:postcode': '742101', 'addr:state': 'West Bengal', 'amenity': 'hospital', 'name': 'Susrut Eye Foundation and Research Centre - Berhampore', 'source': 'OpenGovernmentData', 'website': 'https://www.susrut.org/'}}"
"{'type': 'node', 'id': 7074312645, 'lat': 24.1874824, 'lon': 87.7934057, 'tags': {'addr:district': 'Birbhum', 'addr:full': 'New Hospital Road, Rampurhat', 'addr:postcode': '731224', 'addr:state': 'West Bengal', 'amenity': 'hospital', 'name': 'Dr.N.C. Dutta Memorial Hospital', 'source': 'OpenGovernmentData'}}"
"{'type': 'node', 'id': 7074333304, 'lat': 24.9949832, 'lon': 88.142127, 'tags': {'addr:district': 'Malda', 'addr:full': '28/33, K J Sanyal Road', 'addr:postcode': '732101', 'addr:state': 'West Bengal', 'amenity': 'clinic', 'contact:phone': '3512252132', 'name': 'North Bengal Nursing Home', 'source': 'OpenGovernmentData'}}"
"{'type': 'node', 'id': 7079023510, 'lat': 25.0774523, 'lon': 87.898673, 'tags': {'addr:district': 'Malda', 'addr:full': 'Manikchak', 'addr:postcode': '732202', 'addr:state': 'West Bengal', 'amenity': 'clinic', 'name': 'MMRI Nursing Home', 'source': 'OpenGovernmentData'}}"
"{'type': 'node', 'id': 7106641585, 'lat': 24.9949223, 'lon': 88.1379225, 'tags': {'addr:postcode': '732101', 'addr:street': 'NH 34', 'amenity': 'hospital', 'name': 'Malda Medical college and hospital'}}"
"{'type': 'node', 'id': 7114193899, 'lat': 25.2979408, 'lon': 87.7908039, 'tags': {'addr:district': 'Patna', 'addr:full': 'AMDABAD', 'addr:state': 'Bihar', 'addr:subdistrict': 'Belchhi', 'description': 'Primary Health Centre', 'healthcare': 'centre', 'name': 'PHC,Amdabad', 'source': 'OpenGovernmentData'}}"
"{'type': 'node', 'id': 7121616531, 'lat': 24.4222123, 'lon': 87.4853618, 'tags': {'addr:district': 'Dumka', 'addr:full': 'Infornt Of Gopikandar Police Station, Gopikandar, Dumka-Sahebganj Road', 'addr:postcode': '814103', 'addr:state': 'Jharkhand', 'addr:subdistrict': 'Gopikandar', 'amenity': 'hospital', 'description': 'Community Health Center', 'healthcare': 'centre', 'name': 'CHC, Gopikandar', 'source': 'OpenGovernmentData'}}"
"{'type': 'node', 'id': 7121765880, 'lat': 25.2602962, 'lon': 87.4946378, 'tags': {'addr:district': 'Sahibganj', 'addr:full': 'Near Railway Station Mirzacheulki, Mirzacheulki, NH 80', 'addr:postcode': '813208', 'addr:state': 'Jharkhand', 'addr:subdistrict': 'Borio', 'amenity': 'hospital', 'name': 'Mirzacheulki Hospital', 'source': 'OpenGovernmentData'}}"
"{'type': 'node', 'id': 7121765902, 'lat': 24.6359262, 'lon': 87.850115, 'tags': {'addr:district': 'Pakaur', 'addr:full': 'Near Primary School, Pakur, Barhabad', 'addr:postcode': '816107', 'addr:state': 'Jharkhand', 'amenity': 'hospital', 'name': 'Pakur Nursing Home, Barhabad', 'source': 'OpenGovernmentData'}}"
"{'type': 'node', 'id': 7121765917, 'lat': 25.2462049, 'lon': 87.6314205, 'tags': {'addr:district': 'Sahibganj', 'addr:full': 'Sahebganj, LC Road', 'addr:postcode': '816109', 'addr:state': 'Jharkhand', 'addr:subdistrict': 'Sahibganj', 'amenity': 'hospital', 'name': 'Surya Super Speciality Hospital', 'source': 'OpenGovernmentData'}}"
"{'type': 'node', 'id': 7121765934, 'lat': 24.8860566, 'lon': 87.6110794, 'tags': {'addr:district': 'Sahibganj', 'addr:full': 'Barhait Bazar', 'addr:postcode': '816102', 'addr:state': 'Jharkhand', 'addr:subdistrict': 'Barhait', 'amenity': 'hospital', 'description': 'Community Health Center', 'healthcare': 'centre', 'name': 'CHC, Barhait', 'source': 'OpenGovernmentData'}}"
"{'type': 'node', 'id': 7127611469, 'lat': 24.5175829, 'lon': 87.5688528, 'tags': {'addr:district': 'Pakaur', 'addr:full': 'Near Durga Mandir, Amrapara Bazar', 'addr:postcode': '814111', 'addr:state': 'Jharkhand', 'addr:subdistrict': 'Amrapara', 'amenity': 'clinic', 'description': 'Community Health Center', 'healthcare': 'centre', 'name': 'CHC, Amrapara', 'source': 'OpenGovernmentData'}}"
"{'type': 'node', 'id': 7127611471, 'lat': 24.9941373, 'lon': 87.7363669, 'tags': {'addr:district': 'Sahibganj', 'addr:full': 'Chhota Chitolia', 'addr:postcode': '816102', 'addr:state': 'Jharkhand', 'addr:subdistrict': 'Rajmahal', 'amenity': 'hospital', 'name': 'Goverment hospital , Chhota Chitolia', 'source': 'OpenGovernmentData'}}"
"{'type': 'node', 'id': 7127611472, 'lat': 24.3304902, 'lon': 87.6506002, 'tags': {'addr:district': 'Pakaur', 'addr:full': 'Near P.S., Pakuria', 'addr:postcode': '816117', 'addr:state': 'Jharkhand', 'amenity': 'hospital', 'description': 'Community Health Center', 'healthcare': 'centre', 'name': 'CHC, Pakuriya', 'source': 'OpenGovernmentData'}}"
"{'type': 'node', 'id': 7127611477, 'lat': 25.0531757, 'lon': 87.8351053, 'tags': {'addr:district': 'Sahibganj', 'addr:postcode': '816108', 'addr:state': 'Jharkhand', 'addr:subdistrict': 'Rajmahal', 'amenity': 'hospital', 'description': 'Sub-District Hospital', 'name': 'SDH, Rajmahal', 'source': 'OpenGovernmentData'}}"
"{'type': 'node', 'id': 7127611480, 'lat': 24.7058634, 'lon': 87.7005196, 'tags': {'addr:district': 'Pakaur', 'addr:state': 'Jharkhand', 'addr:subdistrict': 'Hiranpur', 'amenity': 'hospital', 'description': 'Community Health Center', 'healthcare': 'centre', 'name': 'CHC, Hiranpur', 'source': 'OpenGovernmentData'}}"
"{'type': 'node', 'id': 7127611494, 'lat': 25.031152, 'lon': 87.5932747, 'tags': {'addr:district': 'Sahibganj', 'addr:postcode': '816120', 'addr:state': 'Jharkhand', 'addr:subdistrict': 'Borio', 'amenity': 'hospital', 'description': 'Community Health Center', 'healthcare': 'centre', 'name': 'CHC, Borio', 'source': 'OpenGovernmentData'}}"
"{'type': 'node', 'id': 7127611507, 'lat': 25.0770744, 'lon': 87.7381467, 'tags': {'addr:district': 'Sahibganj', 'addr:full': 'Near Taljhari Block, Block Colony', 'addr:postcode': '816129', 'addr:state': 'Jharkhand', 'addr:subdistrict': 'Taljhari', 'amenity': 'hospital', 'description': 'Community Health Center', 'healthcare': 'centre', 'name': 'CHC, Taljhari', 'source': 'OpenGovernmentData'}}"
"{'type': 'node', 'id': 7127611519, 'lat': 25.132944, 'lon': 87.658057, 'tags': {'addr:district': 'Sahibganj', 'addr:state': 'Jharkhand', 'addr:subdistrict': 'Borio', 'amenity': 'clinic', 'description': 'Primary Health Centre', 'healthcare': 'centre', 'name': 'PHC, Banjhi', 'source': 'OpenGovernmentData'}}"
"{'type': 'node', 'id': 7127611520, 'lat': 24.9698442, 'lon': 87.8420149, 'tags': {'addr:district': 'Sahibganj', 'addr:full': 'Near State Bank of India , Udhwan, Rajmahal Rd, Patra', 'addr:postcode': '816108', 'addr:state': 'Jharkhand', 'addr:subdistrict': 'Rajmahal', 'amenity': 'hospital', 'name': 'Udhwa Nursing Home', 'source': 'OpenGovernmentData'}}"
"{'type': 'node', 'id': 7127611523, 'lat': 24.6375678, 'lon': 87.8369372, 'tags': {'addr:district': 'Pakaur', 'addr:full': 'Pakur, Old Sadar Hospital Campus Pakur', 'addr:postcode': '816107', 'addr:state': 'Jharkhand', 'amenity': 'hospital', 'name': 'Sadar Hospital, Pakur', 'source': 'OpenGovernmentData'}}"
"{'type': 'node', 'id': 7127611524, 'lat': 25.2360443, 'lon': 87.6341813, 'tags': {'addr:district': 'Sahibganj', 'addr:full': 'Iqra Colony, Mazhar Tola, Iqra Colony', 'addr:postcode': '816109', 'addr:state': 'Jharkhand', 'amenity': 'hospital', 'description': 'District Hospital', 'name': 'Sadar Hospital', 'source': 'OpenGovernmentData'}}"
"{'type': 'node', 'id': 7127611530, 'lat': 24.6874182, 'lon': 87.6171372, 'tags': {'addr:district': 'Pakaur', 'addr:full': 'Littipara', 'addr:postcode': '816104', 'addr:state': 'Jharkhand', 'addr:subdistrict': 'Litipara', 'amenity': 'hospital', 'description': 'Community Health Center', 'healthcare': 'centre', 'name': 'CHC, Littipara', 'source': 'OpenGovernmentData'}}"
"{'type': 'node', 'id': 7127611531, 'lat': 24.7431133, 'lon': 87.8180889, 'tags': {'addr:district': 'Sahibganj', 'addr:postcode': '816105', 'addr:state': 'Jharkhand', 'addr:subdistrict': 'Barharwa', 'amenity': 'clinic', 'description': 'Primary Health Centre', 'healthcare': 'centre', 'name': 'PHC, Kotalpokhar', 'source': 'OpenGovernmentData'}}"
"{'type': 'node', 'id': 7138096469, 'lat': 25.3408529, 'lon': 87.6169029, 'tags': {'addr:district': 'Rohtas', 'addr:full': 'Manihari Nagar panchayat', 'addr:postcode': '802219', 'addr:state': 'Bihar', 'addr:subdistrict': 'Akorhi Gola', 'description': 'Primary Health Centre', 'healthcare': 'centre', 'name': 'PHC,Manihari', 'source': 'OpenGovernmentData'}}"
"{'type': 'node', 'id': 7146853588, 'lat': 24.7051395, 'lon': 87.8713272, 'tags': {'addr:full': 'Beldanga', 'addr:state': 'Jharkhand', 'amenity': 'health_post', 'description': 'Health- Sub Centre', 'healthcare': 'centre', 'name': 'Health Sub Centre ,Beldanga', 'source': 'OpenGovernmentData'}}"
"{'type': 'node', 'id': 7146853605, 'lat': 24.6568553, 'lon': 87.7857433, 'tags': {'addr:full': 'Manglapara', 'addr:state': 'Jharkhand', 'amenity': 'health_post', 'description': 'Health- Sub Centre', 'healthcare': 'centre', 'name': 'Health Sub Centre ,Manglapara', 'source': 'OpenGovernmentData'}}"
"{'type': 'node', 'id': 7199768896, 'lat': 24.152298, 'lon': 87.835078, 'tags': {'addr:district': 'Birbhum', 'addr:full': 'Margram Hatibandha', 'addr:postcode': '731203', 'addr:state': 'West Bengal', 'addr:subdistrict': 'RAMPURHAT - II', 'description': 'Primary Health Centre', 'healthcare': 'centre', 'name': 'Margram PHC', 'source': 'OpenGovernmentData'}}"
"{'type': 'node', 'id': 7199768946, 'lat': 24.0195334, 'lon': 87.9913938, 'tags': {'addr:district': 'Murshidabad', 'addr:full': 'Khargram', 'addr:postcode': '742147', 'addr:state': 'West Bengal', 'addr:subdistrict': 'Khargram', 'amenity': 'hospital', 'name': 'Khargram Rural Hospital', 'source': 'OpenGovernmentData'}}"
"{'type': 'node', 'id': 7199768948, 'lat': 24.1190159, 'lon': 88.6428782, 'tags': {'addr:district': 'Murshidabad', 'addr:postcode': '742303', 'addr:state': 'West Bengal', 'addr:subdistrict': 'Jalangi', 'amenity': 'hospital', 'name': 'Sadikhans Dearh Rural Hospital', 'source': 'OpenGovernmentData'}}"
"{'type': 'node', 'id': 7199768970, 'lat': 24.4275018, 'lon': 88.0085187, 'tags': {'addr:district': 'Murshidabad', 'addr:full': 'Raghunathganj Murarai Road, Ram Das Sen High School, Barala', 'addr:postcode': '742227', 'addr:state': 'West Bengal', 'addr:subdistrict': 'Raghunathganj - I', 'description': 'Primary Health Centre', 'healthcare': 'centre', 'name': 'PHC, Barala', 'source': 'OpenGovernmentData'}}"
"{'type': 'node', 'id': 7199768980, 'lat': 24.2481301, 'lon': 88.3332208, 'tags': {'addr:district': 'Murshidabad', 'addr:full': 'Near Kolan Water Tank, Kolan Radhakantapur', 'addr:postcode': '742123', 'addr:state': 'West Bengal', 'addr:subdistrict': 'Bhagawangola - II', 'description': 'Primary Health Centre', 'healthcare': 'centre', 'name': 'PHC, Kolan', 'source': 'OpenGovernmentData'}}"
"{'type': 'node', 'id': 7199768989, 'lat': 24.3747341, 'lon': 88.3003692, 'tags': {'addr:district': 'Murshidabad', 'addr:full': 'Airmari Majhpara, KD Para', 'addr:postcode': '742148', 'addr:state': 'West Bengal', 'addr:subdistrict': 'Lalgola', 'description': 'Primary Health Centre', 'healthcare': 'centre', 'name': 'Krishnapur Dinurpara P.H.C.', 'source': 'OpenGovernmentData'}}"
"{'type': 'node', 'id': 7199768990, 'lat': 25.2234163, 'lon': 88.201118, 'tags': {'addr:district': 'Maldah', 'addr:full': 'Near Gazole Rail Station', 'addr:postcode': '732124', 'addr:state': 'West Bengal', 'addr:subdistrict': 'Gazole', 'amenity': 'hospital', 'name': 'Gazole Rural Hospital', 'source': 'OpenGovernmentData'}}"
"{'type': 'node', 'id': 7199768999, 'lat': 24.439658, 'lon': 87.915319, 'tags': {'addr:district': 'Birbhum', 'addr:full': 'Near Bdo Office, Paikar', 'addr:postcode': '731221', 'addr:state': 'West Bengal', 'addr:subdistrict': 'MURAROI - II', 'amenity': 'hospital', 'name': 'Paikar Rural Hospital', 'source': 'OpenGovernmentData'}}"
"{'type': 'node', 'id': 7199769025, 'lat': 24.308029, 'lon': 88.382461, 'tags': {'addr:district': 'Murshidabad', 'addr:full': 'Near Bdo Office, Nashipur', 'addr:postcode': '742169', 'addr:state': 'West Bengal', 'addr:subdistrict': 'Bhagawangola - II', 'description': 'Block Primary Health Centre', 'healthcare': 'centre', 'name': 'Nashipur BPHC', 'source': 'OpenGovernmentData'}}"
"{'type': 'node', 'id': 7199769035, 'lat': 24.1098924, 'lon': 88.3071529, 'tags': {'addr:district': 'Murshidabad', 'addr:full': 'Jibannagar Road, Near Post Office, Hatinagar', 'addr:postcode': '742102', 'addr:state': 'West Bengal', 'addr:subdistrict': 'Berhampore', 'description': 'Primary Health Centre', 'healthcare': 'centre', 'name': 'PHC, Hatinagar', 'source': 'OpenGovernmentData'}}"
"{'type': 'node', 'id': 7199769079, 'lat': 24.9896875, 'lon': 88.0833861, 'tags': {'addr:district': 'Maldah', 'addr:full': 'Chandipur Road, Near BRS High School, Chandipur', 'addr:postcode': '732103', 'addr:state': 'West Bengal', 'addr:subdistrict': 'English Bazar', 'description': 'Primary Health Centre', 'healthcare': 'centre', 'name': 'PHC, Chandipur', 'source': 'OpenGovernmentData'}}"
"{'type': 'node', 'id': 7199769093, 'lat': 24.075461, 'lon': 87.7130309, 'tags': {'addr:district': 'Birbhum', 'addr:full': 'Rural, Mayureswar-I, Mollarpur, Birbhum', 'addr:postcode': '731219', 'addr:state': 'West Bengal', 'addr:subdistrict': 'MAYURESWAR - I', 'amenity': 'hospital', 'name': 'Mallarpur Hospital', 'source': 'OpenGovernmentData'}}"
"{'type': 'node', 'id': 7199769095, 'lat': 24.1928871, 'lon': 88.0937655, 'tags': {'addr:district': 'Murshidabad', 'addr:full': 'Nabagram, Nabagram', 'addr:postcode': '742184', 'addr:state': 'West Bengal', 'addr:subdistrict': 'Nabagram', 'description': 'Block Primary Health Centre', 'healthcare': 'centre', 'name': 'Nabagram B.P.H.C.', 'source': 'OpenGovernmentData'}}"
"{'type': 'node', 'id': 7199769112, 'lat': 24.9660724, 'lon': 88.2242337, 'tags': {'addr:district': 'Maldah', 'addr:full': 'Nalagola-Pakuahat-Malda Road, Near Buniadpur Vocational Training School, Muchia', 'addr:postcode': '732101', 'addr:state': 'West Bengal', 'addr:subdistrict': 'Maldah (Old)', 'amenity': 'hospital', 'name': 'Muchia Anchal Hospital', 'source': 'OpenGovernmentData'}}"
"{'type': 'node', 'id': 7199769113, 'lat': 24.178389, 'lon': 88.387384, 'tags': {'addr:district': 'Murshidabad', 'addr:full': 'Dangapara', 'addr:state': 'West Bengal', 'addr:subdistrict': 'Murshidabad Jiaganj', 'description': 'Primary Health Centre', 'healthcare': 'centre', 'name': 'Hasanpur Hospital', 'source': 'OpenGovernmentData'}}"
"{'type': 'node', 'id': 7199769132, 'lat': 24.8567631, 'lon': 88.0815651, 'tags': {'addr:district': 'Maldah', 'addr:full': 'Sultanganj-Gour Road, Narayanpur, Shrirampur', 'addr:postcode': '732201', 'addr:state': 'West Bengal', 'addr:subdistrict': 'Kaliachak - I', 'amenity': 'hospital', 'name': 'Narayanpur Rural Hospital', 'source': 'OpenGovernmentData'}}"
"{'type': 'node', 'id': 7199769133, 'lat': 24.354613, 'lon': 88.116663, 'tags': {'addr:district': 'Murshidabad', 'addr:full': 'Manigram High School, Jangipur, Mohalla-Monigram', 'addr:postcode': '742237', 'addr:state': 'West Bengal', 'addr:subdistrict': 'Sagardighi', 'description': 'Primary Health Centre', 'healthcare': 'centre', 'name': 'Manigram Hospital', 'source': 'OpenGovernmentData'}}"
"{'type': 'node', 'id': 7199769142, 'lat': 24.553356, 'lon': 87.901307, 'tags': {'addr:district': 'Murshidabad', 'addr:full': 'Near Bahutali High School, Baishnabdanga, Bahutali', 'addr:postcode': '731222', 'addr:state': 'West Bengal', 'addr:subdistrict': 'Suti - I', 'amenity': 'clinic', 'description': 'Primary Health Centre', 'healthcare': 'centre', 'name': 'PHC, Bahutali', 'source': 'OpenGovernmentData'}}"
"{'type': 'node', 'id': 7199769210, 'lat': 25.1939837, 'lon': 87.9296979, 'tags': {'addr:district': 'Maldah', 'addr:full': 'Ratua G.P, Chanchal', 'addr:postcode': '732205', 'addr:state': 'West Bengal', 'addr:subdistrict': 'Ratua - I', 'description': 'Block Primary Health Centre', 'healthcare': 'centre', 'name': 'Ratua BPHC', 'source': 'OpenGovernmentData'}}"
"{'type': 'node', 'id': 7199769211, 'lat': 24.2049534, 'lon': 88.5054775, 'tags': {'addr:district': 'Murshidabad', 'addr:full': 'Huda Herampur', 'addr:postcode': '742304', 'addr:state': 'West Bengal', 'addr:subdistrict': 'Raninagar - I', 'amenity': 'hospital', 'name': 'Herampur Rural Hospital', 'source': 'OpenGovernmentData'}}"
"{'type': 'node', 'id': 7199769212, 'lat': 24.244198, 'lon': 87.726514, 'tags': {'addr:district': 'Birbhum', 'addr:full': 'Trukdigi Masjid, Baidara', 'addr:postcode': '731223', 'addr:state': 'West Bengal', 'addr:subdistrict': 'RAMPURHAT - I', 'amenity': 'hospital', 'name': 'Trukdigi Hospital', 'source': 'OpenGovernmentData'}}"
"{'type': 'node', 'id': 7199769217, 'lat': 24.9957315, 'lon': 88.1364254, 'tags': {'addr:district': 'Maldah', 'addr:full': 'Hanta Kali Mandir, Pirojpur Malda', 'addr:postcode': '732101', 'addr:state': 'West Bengal', 'amenity': 'hospital', 'description': 'Medical Colleges Hospital', 'name': 'Malda Medical College & Hospital', 'source': 'OpenGovernmentData'}}"
"{'type': 'node', 'id': 7199769218, 'lat': 24.2931884, 'lon': 87.9151066, 'tags': {'addr:district': 'Birbhum', 'addr:full': 'Morgram-Panagarh State Highway, Near Bus Stop, Kaitha', 'addr:postcode': '731220', 'addr:state': 'West Bengal', 'addr:subdistrict': 'NALHATI - I', 'description': 'Primary Health Centre', 'healthcare': 'centre', 'name': 'PHC, Kaitha', 'source': 'OpenGovernmentData'}}"
"{'type': 'node', 'id': 7199769223, 'lat': 24.8172309, 'lon': 87.9948706, 'tags': {'addr:district': 'Maldah', 'addr:full': 'Bedrabad Registry Office, Baishnabnagar, Raribona Hospital Road', 'addr:postcode': '732210', 'addr:state': 'West Bengal', 'addr:subdistrict': 'Kaliachak - III', 'amenity': 'hospital', 'name': 'Bedrabad Rural Hospital', 'source': 'OpenGovernmentData'}}"
"{'type': 'node', 'id': 7199769262, 'lat': 24.510561, 'lon': 87.920343, 'tags': {'addr:district': 'Birbhum', 'addr:full': 'Bhimpur Bus Stand, Bhimpur', 'addr:postcode': '731219', 'addr:state': 'West Bengal', 'addr:subdistrict': 'MURAROI - II', 'description': 'Primary Health Centre', 'healthcare': 'centre', 'name': 'Bhimpur PHC', 'source': 'OpenGovernmentData'}}"
"{'type': 'node', 'id': 7199769264, 'lat': 24.0890213, 'lon': 88.2588875, 'tags': {'addr:district': 'Murshidabad', 'addr:full': 'Near Berhampore Court Railway Station, Berhampore, Station Road', 'addr:postcode': '742101', 'addr:state': 'West Bengal', 'addr:subdistrict': 'Berhampore', 'amenity': 'hospital', 'description': 'Medical Colleges Hospital', 'name': 'Murshidabad Medical College & Hospital', 'source': 'OpenGovernmentData'}}"
"{'type': 'node', 'id': 7199769267, 'lat': 25.3241125, 'lon': 88.7149456, 'tags': {'addr:district': 'Dakhshin Dinajpur', 'addr:full': 'Near Maa Bolla Kali Mandir, Bolla', 'addr:postcode': '733158', 'addr:state': 'West Bengal', 'addr:subdistrict': 'Balurghat', 'description': 'Primary Health Centre', 'healthcare': 'centre', 'name': 'PHC, Bolla', 'source': 'OpenGovernmentData'}}"
"{'type': 'node', 'id': 7199769268, 'lat': 24.355754, 'lon': 88.19327, 'tags': {'addr:district': 'Murshidabad', 'addr:full': 'Opp. High Shool, Rajarampur', 'addr:postcode': '742151', 'addr:state': 'West Bengal', 'addr:subdistrict': 'Lalgola', 'description': 'Primary Health Centre', 'healthcare': 'centre', 'name': 'PHC, Rajarampur', 'source': 'OpenGovernmentData'}}"
"{'type': 'node', 'id': 7199769274, 'lat': 24.2831044, 'lon': 88.3999114, 'tags': {'addr:district': 'Murshidabad', 'addr:full': 'Fulpur Road, Near Fulpur Post Office, Daulatpur', 'addr:postcode': '742135', 'addr:state': 'West Bengal', 'addr:subdistrict': 'Bhagawangola - II', 'description': 'Primary Health Centre', 'healthcare': 'centre', 'name': 'PHC, Fulpur', 'source': 'OpenGovernmentData'}}"
"{'type': 'node', 'id': 7199769319, 'lat': 25.052999, 'lon': 88.212409, 'tags': {'addr:district': 'Maldah', 'addr:full': 'Jatradanga Road, Near Madrasha High School, Jatradanga', 'addr:postcode': '732141', 'addr:state': 'West Bengal', 'addr:subdistrict': 'Maldah (Old)', 'description': 'Health Centre', 'healthcare': 'centre', 'name': 'Jatradanga Health Centre', 'source': 'OpenGovernmentData'}}"
"{'type': 'node', 'id': 7199769338, 'lat': 25.3297842, 'lon': 87.9281157, 'tags': {'addr:district': 'Maldah', 'addr:full': 'Masaldabazar', 'addr:postcode': '732125', 'addr:state': 'West Bengal', 'addr:subdistrict': 'Harischandrapur - II', 'description': 'Block Primary Health Centre', 'healthcare': 'centre', 'name': 'Mashaldabazar BPHC', 'source': 'OpenGovernmentData'}}"
"{'type': 'node', 'id': 7199769365, 'lat': 24.2070708, 'lon': 87.9159987, 'tags': {'addr:district': 'Birbhum', 'addr:full': 'Chandpara-Dunigram-Balsa Road, Near Post Office, Dunigram', 'addr:postcode': '731242', 'addr:state': 'West Bengal', 'addr:subdistrict': 'RAMPURHAT - II', 'description': 'Primary Health Centre', 'healthcare': 'centre', 'name': 'PHC, Dunigram', 'source': 'OpenGovernmentData'}}"
"{'type': 'node', 'id': 7199769370, 'lat': 24.036404, 'lon': 88.539223, 'tags': {'addr:district': 'Murshidabad', 'addr:full': 'Market', 'addr:postcode': '742406', 'addr:state': 'West Bengal', 'addr:subdistrict': 'Domkal', 'description': 'Primary Health Centre', 'healthcare': 'centre', 'name': 'Bagdanga PHC', 'source': 'OpenGovernmentData'}}"
"{'type': 'node', 'id': 7199769381, 'lat': 24.62062, 'lon': 87.979802, 'tags': {'addr:district': 'Murshidabad', 'addr:full': 'Bikalnagar Primary School, Baje Gajipur, Kashimnagar G.P', 'addr:postcode': '742201', 'addr:state': 'West Bengal', 'addr:subdistrict': 'Suti - II', 'description': 'Primary Health Centre', 'healthcare': 'centre', 'name': 'Bazegazipur PHC', 'source': 'OpenGovernmentData'}}"
"{'type': 'node', 'id': 7199769391, 'lat': 24.0516315, 'lon': 88.3560263, 'tags': {'addr:district': 'Murshidabad', 'addr:full': 'Berhampore-Amtala Road, Near Baruipara High School, Kismat Imadpur', 'addr:postcode': '742165', 'addr:state': 'West Bengal', 'addr:subdistrict': 'Hariharpara', 'description': 'Primary Health Centre', 'healthcare': 'centre', 'name': 'PHC, Baharan', 'source': 'OpenGovernmentData'}}"
"{'type': 'node', 'id': 7199769419, 'lat': 24.9174844, 'lon': 88.2755599, 'tags': {'addr:district': 'Maldah', 'addr:full': 'Dakshin Chandpu', 'addr:state': 'West Bengal', 'addr:subdistrict': 'Habibpur', 'healthcare': 'centre', 'name': 'Dakshin Chandpur Hospital', 'source': 'OpenGovernmentData'}}"
"{'type': 'node', 'id': 7199769439, 'lat': 24.298192, 'lon': 87.824686, 'tags': {'addr:district': 'Birbhum', 'addr:full': 'Nalhati, Birbhum', 'addr:postcode': '731243', 'addr:state': 'West Bengal', 'addr:subdistrict': 'NALHATI - I', 'amenity': 'hospital', 'name': 'Nalhati Rural Hospital', 'source': 'OpenGovernmentData'}}"
"{'type': 'node', 'id': 7199769486, 'lat': 24.2898689, 'lon': 88.0903796, 'tags': {'addr:district': 'Murshidabad', 'addr:full': 'Sagardighi High School, Popara', 'addr:postcode': '742226', 'addr:state': 'West Bengal', 'addr:subdistrict': 'Sagardighi', 'amenity': 'hospital', 'name': 'Sagardighi Super Speciality Hospital', 'source': 'OpenGovernmentData'}}"
"{'type': 'node', 'id': 7199769503, 'lat': 24.0443758, 'lon': 87.6414763, 'tags': {'addr:district': 'Birbhum', 'addr:full': 'Dighalgram Gram Panchyet ( North Side ), Jhaldanga , Bonbataspur , Natunpara Village Attached, Md Bazar Block, Pradhan Mantri Sarak Yojana ( Dighalgram Phc To Angargoria )', 'addr:postcode': '731216', 'addr:state': 'West Bengal', 'addr:subdistrict': 'Mohammad Bazar', 'description': 'Primary Health Centre', 'healthcare': 'centre', 'name': 'Sekedda / Dighalgram PHC', 'source': 'OpenGovernmentData'}}"
"{'type': 'node', 'id': 7199769525, 'lat': 24.8872598, 'lon': 88.0480666, 'tags': {'addr:district': 'Maldah', 'addr:full': 'Hindu Para Road, Near Shib Mandir, Jadupur', 'addr:postcode': '732201', 'addr:state': 'West Bengal', 'addr:subdistrict': 'Kaliachak - I', 'description': 'Primary Health Centre', 'healthcare': 'centre', 'name': 'PHC, Nowda Jadupur', 'source': 'OpenGovernmentData'}}"
"{'type': 'node', 'id': 7199769534, 'lat': 25.156476, 'lon': 87.930895, 'tags': {'addr:district': 'Maldah', 'addr:full': 'Mihahat-Baroduari Road, Near High School, Nurpur', 'addr:postcode': '732203', 'addr:state': 'West Bengal', 'addr:subdistrict': 'Manikchak', 'description': 'Primary Health Centre', 'healthcare': 'centre', 'name': 'PHC, Nurpur', 'source': 'OpenGovernmentData'}}"
"{'type': 'node', 'id': 7199769543, 'lat': 24.3755193, 'lon': 87.850884, 'tags': {'addr:district': 'Birbhum', 'addr:full': 'Nalhati-Rajgram Road, Near Railway Station, Chatra', 'addr:postcode': '731238', 'addr:state': 'West Bengal', 'addr:subdistrict': 'MURAROI - I', 'amenity': 'clinic', 'description': 'Primary Health Centre', 'healthcare': 'centre', 'name': 'PHC, Chatra', 'source': 'OpenGovernmentData'}}"
"{'type': 'node', 'id': 7199769552, 'lat': 24.643413, 'lon': 87.979112, 'tags': {'addr:district': 'Murshidabad', 'addr:full': 'Nimtala Main Road, Near Loharpur Primary School, Uttar Mohammadpur', 'addr:postcode': '742202', 'addr:state': 'West Bengal', 'addr:subdistrict': 'Samserganj', 'description': 'Primary Health Centre', 'healthcare': 'centre', 'name': 'PHC, Uttar Mahammadpur', 'source': 'OpenGovernmentData'}}"
"{'type': 'node', 'id': 7199769579, 'lat': 24.7992386, 'lon': 88.0584997, 'tags': {'addr:district': 'Maldah', 'addr:full': 'Ps- Kaliachak, Golapganj', 'addr:postcode': '732201', 'addr:state': 'West Bengal', 'addr:subdistrict': 'Kaliachak - III', 'description': 'Primary Health Centre', 'healthcare': 'centre', 'name': 'Golapganj PHC', 'source': 'OpenGovernmentData'}}"
"{'type': 'node', 'id': 7199769580, 'lat': 25.1186018, 'lon': 87.9890172, 'tags': {'addr:district': 'Maldah', 'addr:full': 'Araidanga', 'addr:postcode': '732204', 'addr:state': 'West Bengal', 'addr:subdistrict': 'Ratua - II', 'amenity': 'hospital', 'name': 'Araidanga Hospital', 'source': 'OpenGovernmentData'}}"
"{'type': 'node', 'id': 7199769607, 'lat': 25.2788914, 'lon': 88.0148102, 'tags': {'addr:district': 'Maldah', 'addr:full': 'Samsi, Chanchal, Samsi Gajol Street', 'addr:postcode': '732139', 'addr:state': 'West Bengal', 'addr:subdistrict': 'Ratua - I', 'amenity': 'hospital', 'name': 'Samsi Rural Hospital', 'source': 'OpenGovernmentData'}}"
"{'type': 'node', 'id': 7199769621, 'lat': 24.242716, 'lon': 88.274258, 'tags': {'addr:district': 'Murshidabad', 'addr:full': 'Jiaganj Rail Station, Rabindrapally', 'addr:postcode': '742123', 'addr:state': 'West Bengal', 'addr:subdistrict': 'Murshidabad Jiaganj', 'amenity': 'hospital', 'name': 'Jiaganj Rural Hospital', 'source': 'OpenGovernmentData'}}"
"{'type': 'node', 'id': 7199769646, 'lat': 25.3229896, 'lon': 88.0187808, 'tags': {'addr:district': 'Maldah', 'addr:full': 'Infornt Of Iti College, Kashipara', 'addr:postcode': '732123', 'addr:state': 'West Bengal', 'addr:subdistrict': 'Chanchal - II', 'description': 'Block Primary Health Centre', 'healthcare': 'centre', 'name': 'Malatipur BPHC', 'source': 'OpenGovernmentData'}}"
"{'type': 'node', 'id': 7199769650, 'lat': 24.0458673, 'lon': 88.412889, 'tags': {'addr:district': 'Murshidabad', 'addr:full': 'Hariharpara', 'addr:postcode': '742166', 'addr:state': 'West Bengal', 'addr:subdistrict': 'Hariharpara', 'description': 'Block Primary Health Centre', 'healthcare': 'centre', 'name': 'Hariharpara B.P.H.C.', 'source': 'OpenGovernmentData'}}"
"{'type': 'node', 'id': 7199769718, 'lat': 25.0355543, 'lon': 88.3763015, 'tags': {'addr:district': 'Maldah', 'addr:full': 'Near Jagjivanpur, Palashdanga', 'addr:postcode': '732122', 'addr:state': 'West Bengal', 'addr:subdistrict': 'Habibpur', 'amenity': 'hospital', 'name': 'Bahadurpur Rural Hospital', 'source': 'OpenGovernmentData'}}"
"{'type': 'node', 'id': 7199769740, 'lat': 25.3295351, 'lon': 88.5150163, 'tags': {'addr:district': 'Dakhshin Dinajpur', 'addr:full': '2 No. Ajmatpur High School, Manahali', 'addr:postcode': '733142', 'addr:state': 'West Bengal', 'addr:subdistrict': 'Tapan', 'description': 'Primary Health Centre', 'healthcare': 'centre', 'name': 'Manohali Primary Health Centre', 'source': 'OpenGovernmentData'}}"
"{'type': 'node', 'id': 7199769757, 'lat': 24.4930593, 'lon': 87.9622582, 'tags': {'addr:district': 'Murshidabad', 'addr:full': 'Hilora', 'addr:postcode': '731221', 'addr:state': 'West Bengal', 'addr:subdistrict': 'Suti - I', 'amenity': 'clinic', 'description': 'Primary Health Centre', 'healthcare': 'centre', 'name': 'Hilora P.H.C.', 'source': 'OpenGovernmentData'}}"
"{'type': 'node', 'id': 7199769758, 'lat': 24.2187848, 'lon': 88.5488688, 'tags': {'addr:district': 'Murshidabad', 'addr:full': 'Godhanpara Bphc Hospital, Domkal, Islampur -Shaikhpara Rd,Raninagar,West Bengal', 'addr:postcode': '742308', 'addr:state': 'West Bengal', 'addr:subdistrict': 'Raninagar - II', 'amenity': 'hospital', 'name': 'Godhanpara Rural Hospital', 'source': 'OpenGovernmentData'}}"
"{'type': 'node', 'id': 7199769815, 'lat': 24.0770182, 'lon': 87.9097224, 'tags': {'addr:district': 'Murshidabad', 'addr:full': 'Ishanpur Road, Near Bangiya Gramin Vikash Bank, Parulia', 'addr:postcode': '731244', 'addr:state': 'West Bengal', 'addr:subdistrict': 'Khargram', 'description': 'Primary Health Centre', 'healthcare': 'centre', 'name': 'PHC, Parulia', 'source': 'OpenGovernmentData'}}"
"{'type': 'node', 'id': 7199769891, 'lat': 24.2013123, 'lon': 88.2176506, 'tags': {'addr:district': 'Murshidabad', 'addr:full': 'Panchgram-Nabagram-Lalbagh Road, Near Mukunda High School, Kiriteswar', 'addr:postcode': '742104', 'addr:state': 'West Bengal', 'addr:subdistrict': 'Nabagram', 'description': 'Primary Health Centre', 'healthcare': 'centre', 'name': 'PHC, Kiriteswar', 'source': 'OpenGovernmentData'}}"
"{'type': 'node', 'id': 7199769896, 'lat': 24.135534, 'lon': 87.874228, 'tags': {'addr:district': 'Birbhum', 'addr:state': 'West Bengal', 'addr:subdistrict': 'RAMPURHAT - II', 'description': 'Block Primary Health Centre', 'healthcare': 'centre', 'name': 'Baswa BPHC', 'source': 'OpenGovernmentData'}}"
"{'type': 'node', 'id': 7199769998, 'lat': 25.3551837, 'lon': 88.1379927, 'tags': {'addr:district': 'Uttar Dinajpur', 'addr:full': 'Marnai Road, Near Marnai Sarat Chandra High School, Rajkot', 'addr:postcode': '733128', 'addr:state': 'West Bengal', 'addr:subdistrict': 'Itahar', 'description': 'Primary Health Centre', 'healthcare': 'centre', 'name': 'PHC, Marnai', 'source': 'OpenGovernmentData'}}"
"{'type': 'node', 'id': 7199770011, 'lat': 24.7355921, 'lon': 88.0354682, 'tags': {'addr:district': 'Maldah', 'addr:full': 'Kumbhira Road, Near Kumbhira High School, Kumbhira', 'addr:postcode': '732201', 'addr:state': 'West Bengal', 'addr:subdistrict': 'Kaliachak - III', 'description': 'Primary Health Centre', 'healthcare': 'centre', 'name': 'PHC, Kumbhira', 'source': 'OpenGovernmentData'}}"
"{'type': 'node', 'id': 7199770097, 'lat': 25.332415, 'lon': 88.444039, 'tags': {'addr:district': 'Dakhshin Dinajpur', 'addr:full': 'Near Chenchra Post Office, Rampara Chenchra', 'addr:postcode': '733124', 'addr:state': 'West Bengal', 'addr:subdistrict': 'Tapan', 'description': 'Primary Health Centre', 'healthcare': 'centre', 'name': 'PHC, Rampara Chenchra', 'source': 'OpenGovernmentData'}}"
"{'type': 'node', 'id': 7199770207, 'lat': 24.2393138, 'lon': 88.2547443, 'tags': {'addr:district': 'Murshidabad', 'addr:full': 'Jiaganj-azimganj Municipality, Azimganj', 'addr:state': 'West Bengal', 'addr:subdistrict': 'Murshidabad Jiaganj', 'description': 'Primary Health Centre', 'healthcare': 'centre', 'name': 'Ajimganj P.H.C.', 'source': 'OpenGovernmentData'}}"
"{'type': 'node', 'id': 7199770208, 'lat': 25.1241874, 'lon': 88.3980693, 'tags': {'addr:district': 'Maldah', 'addr:full': 'Kashimpur', 'addr:postcode': '732138', 'addr:state': 'West Bengal', 'addr:subdistrict': 'Bamangola', 'description': 'Primary Health Centre', 'healthcare': 'centre', 'name': 'Kasimpur PHC', 'source': 'OpenGovernmentData'}}"
"{'type': 'node', 'id': 7199770253, 'lat': 25.2112159, 'lon': 88.0598598, 'tags': {'addr:district': 'Maldah', 'addr:full': 'Kumarganj', 'addr:postcode': '732102', 'addr:state': 'West Bengal', 'addr:subdistrict': 'Ratua - II', 'description': 'Primary Health Centre', 'healthcare': 'centre', 'name': 'Kumarganj PHC', 'source': 'OpenGovernmentData'}}"
"{'type': 'node', 'id': 7199770254, 'lat': 25.0305409, 'lon': 88.1386734, 'tags': {'addr:district': 'Maldah', 'addr:full': 'Bachamari, Old Malda Road', 'addr:postcode': '732128', 'addr:state': 'West Bengal', 'addr:subdistrict': 'Maldah (Old)', 'amenity': 'hospital', 'name': 'Moulpur Rural Hospital', 'source': 'OpenGovernmentData'}}"
"{'type': 'node', 'id': 7199770346, 'lat': 24.5797078, 'lon': 88.0170266, 'tags': {'addr:district': 'Murshidabad', 'addr:full': 'NH 34, Mahesail', 'addr:postcode': '742201', 'addr:state': 'West Bengal', 'addr:subdistrict': 'Suti - II', 'amenity': 'hospital', 'healthcare': 'centre', 'name': 'Mahesail Rural Hospital', 'source': 'OpenGovernmentData'}}"
"{'type': 'node', 'id': 7199770347, 'lat': 24.0664201, 'lon': 88.0110893, 'tags': {'addr:district': 'Murshidabad', 'addr:full': 'Margram PHC Road', 'addr:postcode': '742159', 'addr:state': 'West Bengal', 'addr:subdistrict': 'Khargram', 'description': 'Primary Health Centre', 'healthcare': 'centre', 'name': 'Margram P.H.C.', 'source': 'OpenGovernmentData'}}"
"{'type': 'node', 'id': 7199770360, 'lat': 25.2865125, 'lon': 87.8728478, 'tags': {'addr:district': 'Maldah', 'addr:full': 'Bhaluka Bazar, Bhaluka', 'addr:postcode': '732125', 'addr:state': 'West Bengal', 'addr:subdistrict': 'Harischandrapur - II', 'amenity': 'clinic', 'description': 'Primary Health Centre', 'healthcare': 'centre', 'name': 'Bhaluka PHC', 'source': 'OpenGovernmentData'}}"
"{'type': 'node', 'id': 7199770365, 'lat': 24.4653213, 'lon': 87.8974045, 'tags': {'addr:district': 'Birbhum', 'addr:full': 'Kathia Edrakpur Road, Near Kathia Primary School, Kathia', 'addr:postcode': '731221', 'addr:state': 'West Bengal', 'addr:subdistrict': 'MURAROI - II', 'amenity': 'hospital', 'name': 'Kathia Edrakpur Hospital', 'source': 'OpenGovernmentData'}}"
"{'type': 'node', 'id': 7199770372, 'lat': 24.2379564, 'lon': 87.6917826, 'tags': {'addr:district': 'Birbhum', 'addr:full': 'Hospital Lane, Near Gram Panchayat, Narayanpur', 'addr:postcode': '731223', 'addr:state': 'West Bengal', 'addr:subdistrict': 'RAMPURHAT - I', 'description': 'Primary Health Centre', 'healthcare': 'centre', 'name': 'PHC, Narayanpur', 'source': 'OpenGovernmentData'}}"
"{'type': 'node', 'id': 7199770385, 'lat': 25.315078, 'lon': 88.798899, 'tags': {'addr:district': 'Dakhshin Dinajpur', 'addr:full': 'Near Post Office, Nazirpur', 'addr:postcode': '733133', 'addr:state': 'West Bengal', 'addr:subdistrict': 'Balurghat', 'amenity': 'hospital', 'name': 'Nazirpur Hospital', 'source': 'OpenGovernmentData'}}"
"{'type': 'node', 'id': 7199770387, 'lat': 25.3494661, 'lon': 88.8163734, 'tags': {'addr:district': 'Dakhshin Dinajpur', 'addr:full': 'Near Batun F.P. School, Kumarganj, Batun', 'addr:postcode': '733133', 'addr:state': 'West Bengal', 'addr:subdistrict': 'Kumarganj', 'description': 'Primary Health Centre', 'healthcare': 'centre', 'name': 'PHC, Batun', 'source': 'OpenGovernmentData'}}"
"{'type': 'node', 'id': 7199770457, 'lat': 24.0441438, 'lon': 88.1113038, 'tags': {'addr:district': 'Murshidabad', 'addr:full': 'Beside Kandi-Berhampore Road, Gokarna', 'addr:postcode': '742136', 'addr:state': 'West Bengal', 'addr:subdistrict': 'Kandi', 'description': 'Block Primary Health Centre', 'healthcare': 'centre', 'name': 'Gokarna BPHC', 'source': 'OpenGovernmentData'}}"
"{'type': 'node', 'id': 7199770471, 'lat': 24.7175426, 'lon': 87.9329788, 'tags': {'addr:district': 'Murshidabad', 'addr:full': 'Arjunpur', 'addr:postcode': '742202', 'addr:state': 'West Bengal', 'addr:subdistrict': 'Farakka', 'description': 'Primary Health Centre', 'healthcare': 'centre', 'name': 'Arjunpur P.H.C.', 'source': 'OpenGovernmentData'}}"
"{'type': 'node', 'id': 7199770503, 'lat': 24.1978258, 'lon': 88.0100745, 'tags': {'addr:district': 'Murshidabad', 'addr:full': 'Badshahi Road, Near Post Office, Panchgram', 'addr:postcode': '742184', 'addr:state': 'West Bengal', 'addr:subdistrict': 'Nabagram', 'description': 'Primary Health Centre', 'healthcare': 'centre', 'name': 'PHC, Panchgram', 'source': 'OpenGovernmentData'}}"
"{'type': 'node', 'id': 7199770510, 'lat': 24.0260572, 'lon': 88.1754608, 'tags': {'addr:district': 'Murshidabad', 'addr:full': 'Karnasubarna', 'addr:postcode': '742405', 'addr:state': 'West Bengal', 'addr:subdistrict': 'Berhampore', 'description': 'Block Primary Health Centre', 'healthcare': 'centre', 'name': 'Karna Subarna B.P.H.C.', 'source': 'OpenGovernmentData'}}"
"{'type': 'node', 'id': 7199770527, 'lat': 24.1207748, 'lon': 87.7038232, 'tags': {'addr:district': 'Birbhum', 'addr:full': 'Salbadra-Mollarpur Road, Near Primary School, Kasthagara', 'addr:postcode': '731216', 'addr:state': 'West Bengal', 'addr:subdistrict': 'RAMPURHAT - I', 'description': 'Primary Health Centre', 'healthcare': 'centre', 'name': 'PHC, Kasthagara', 'source': 'OpenGovernmentData'}}"
"{'type': 'node', 'id': 7199770562, 'lat': 24.2323165, 'lon': 87.9739455, 'tags': {'addr:district': 'Birbhum', 'addr:full': 'Near High School, Shitalgram, Atkulia', 'addr:postcode': '731237', 'addr:state': 'West Bengal', 'addr:subdistrict': 'NALHATI - II', 'description': 'Primary Health Centre', 'healthcare': 'centre', 'name': 'PHC, Shitalgram', 'source': 'OpenGovernmentData'}}"
"{'type': 'node', 'id': 7199770563, 'lat': 25.2901986, 'lon': 88.7476539, 'tags': {'addr:district': 'Dakhshin Dinajpur', 'addr:full': 'Near Boaldar Gram Panchayat, Khaspur', 'addr:postcode': '733102', 'addr:state': 'West Bengal', 'addr:subdistrict': 'Balurghat', 'amenity': 'hospital', 'healthcare': 'hospital', 'name': 'Khaspur Rural Hospital', 'source': 'OpenGovernmentData'}}"
"{'type': 'node', 'id': 7199770596, 'lat': 24.2655146, 'lon': 88.4658857, 'tags': {'addr:district': 'Murshidabad', 'addr:full': 'Near Benkibagan Primary School, Durgapur', 'addr:postcode': '742304', 'addr:state': 'West Bengal', 'addr:subdistrict': 'Raninagar - I', 'description': 'Primary Health Centre', 'healthcare': 'centre', 'name': 'PHC, Hurshi', 'source': 'OpenGovernmentData'}}"
"{'type': 'node', 'id': 7199770676, 'lat': 24.188535, 'lon': 87.793113, 'tags': {'addr:district': 'Birbhum', 'addr:full': 'Babla Kali Temple, National Highway 60, Rampurhat', 'addr:postcode': '731224', 'addr:state': 'West Bengal', 'addr:subdistrict': 'RAMPURHAT - I', 'amenity': 'hospital', 'description': 'District Hospital', 'name': 'Rampurhat District Hospital', 'source': 'OpenGovernmentData', 'wikidata': 'Q61454035'}}"
"{'type': 'node', 'id': 7199770677, 'lat': 25.110008, 'lon': 87.899697, 'tags': {'addr:district': 'Maldah', 'addr:full': 'Mathurapur', 'addr:postcode': '732203', 'addr:state': 'West Bengal', 'addr:subdistrict': 'Manikchak', 'description': 'Primary Health Centre', 'healthcare': 'centre', 'name': 'Mathurapur PHC', 'source': 'OpenGovernmentData'}}"
"{'type': 'node', 'id': 7199770693, 'lat': 24.116995, 'lon': 88.5570057, 'tags': {'addr:district': 'Murshidabad', 'addr:full': 'Domkal-Jalangi Road, Opp. PT Rasulpur Post Office, Joyrampur', 'addr:postcode': '742303', 'addr:state': 'West Bengal', 'addr:subdistrict': 'Domkal', 'amenity': 'hospital', 'description': 'Sub-District Hospital', 'name': 'Domkal Sub Divisional Hospital', 'source': 'OpenGovernmentData'}}"
"{'type': 'node', 'id': 7199770694, 'lat': 24.300213, 'lon': 87.953632, 'tags': {'addr:district': 'Birbhum', 'addr:full': 'Lohapur (Near Bdo Office), Lohapur', 'addr:postcode': '731237', 'addr:state': 'West Bengal', 'addr:subdistrict': 'NALHATI - II', 'description': 'Block Primary Health Centre', 'healthcare': 'centre', 'name': 'Lohapur BPHC', 'source': 'OpenGovernmentData'}}"
"{'type': 'node', 'id': 7199770706, 'lat': 24.3398054, 'lon': 88.0308092, 'tags': {'addr:district': 'Murshidabad', 'addr:full': 'Beside Suryapur SSK School, Suryapur', 'addr:postcode': '742226', 'addr:state': 'West Bengal', 'addr:subdistrict': 'Sagardighi', 'description': 'Primary Health Centre', 'healthcare': 'centre', 'name': 'Suryapur P.H.C.', 'source': 'OpenGovernmentData'}}"
"{'type': 'node', 'id': 7199770707, 'lat': 24.02866, 'lon': 87.535854, 'tags': {'addr:district': 'Birbhum', 'addr:full': 'Infront Of Rampur G. P, Srikanta Pur More, MD Bazar Block, Sector - Rampur, Srikantapur', 'addr:postcode': '731127', 'addr:state': 'West Bengal', 'addr:subdistrict': 'Mohammad Bazar', 'amenity': 'hospital', 'name': 'Srikantapur Hospital', 'source': 'OpenGovernmentData'}}"
"{'type': 'node', 'id': 7199770708, 'lat': 24.5433618, 'lon': 87.8589065, 'tags': {'addr:district': 'Birbhum', 'addr:full': 'Near St. Joseph School, Ambhua, Rajgram', 'addr:postcode': '731222', 'addr:state': 'West Bengal', 'addr:subdistrict': 'MURAROI - I', 'amenity': 'clinic', 'description': 'Primary Health Centre', 'healthcare': 'centre', 'name': 'PHC, Rajgram', 'source': 'OpenGovernmentData'}}"
"{'type': 'node', 'id': 7199770827, 'lat': 24.2371023, 'lon': 88.0703645, 'tags': {'addr:district': 'Murshidabad', 'addr:full': 'Mozammel Ohab Haque Road, Near High School, Nimgram Beluri', 'addr:postcode': '742226', 'addr:state': 'West Bengal', 'addr:subdistrict': 'Nabagram', 'description': 'Primary Health Centre', 'healthcare': 'centre', 'name': 'PHC, Amirabad', 'source': 'OpenGovernmentData'}}"
"{'type': 'node', 'id': 7199770833, 'lat': 25.3066379, 'lon': 88.5646832, 'tags': {'addr:district': 'Dakhshin Dinajpur', 'addr:full': 'Near Tapan Chowrangi, Kajibag, Tapan', 'addr:postcode': '733127', 'addr:state': 'West Bengal', 'addr:subdistrict': 'Tapan', 'amenity': 'hospital', 'name': 'Tapan Rural Hospital', 'source': 'OpenGovernmentData'}}"
"{'type': 'node', 'id': 7199770855, 'lat': 24.5102104, 'lon': 88.0266705, 'tags': {'addr:district': 'Murshidabad', 'addr:full': 'Back Side Of Block Development Office, Ahiran Namupara', 'addr:postcode': '742225', 'addr:state': 'West Bengal', 'addr:subdistrict': 'Suti - I', 'amenity': 'clinic', 'description': 'Block Primary Health Centre', 'healthcare': 'centre', 'name': 'Ahiran B.P.H.C.', 'source': 'OpenGovernmentData'}}"
"{'type': 'node', 'id': 7199770872, 'lat': 24.2116044, 'lon': 88.2529352, 'tags': {'addr:district': 'Murshidabad', 'addr:full': 'Elahiganj-Azimganj Road, Aminabazar, Lalkuthi', 'addr:postcode': '742104', 'addr:state': 'West Bengal', 'addr:subdistrict': 'Murshidabad Jiaganj', 'description': 'Primary Health Centre', 'healthcare': 'centre', 'name': 'PHC, Lalkuthi', 'source': 'OpenGovernmentData'}}"
"{'type': 'node', 'id': 7199770879, 'lat': 24.398252, 'lon': 88.1275452, 'tags': {'addr:district': 'Murshidabad', 'addr:full': 'Rajanagar Road, Near Kali Mandir, Mohammadpur', 'addr:postcode': '742227', 'addr:state': 'West Bengal', 'addr:subdistrict': 'Raghunathganj - II', 'description': 'Primary Health Centre', 'healthcare': 'centre', 'name': 'PHC, Mohammadpur', 'source': 'OpenGovernmentData'}}"
"{'type': 'node', 'id': 7199770897, 'lat': 24.4426224, 'lon': 87.848884, 'tags': {'addr:district': 'Birbhum', 'addr:full': 'Near Webel Computer Centre, Murarai', 'addr:postcode': '731219', 'addr:state': 'West Bengal', 'addr:subdistrict': 'MURAROI - I', 'amenity': 'hospital', 'name': 'Murarai Rural Hospital', 'source': 'OpenGovernmentData', 'wikidata': 'Q61452222'}}"
"{'type': 'node', 'id': 7199770903, 'lat': 24.8485231, 'lon': 88.1261748, 'tags': {'addr:district': 'Maldah', 'addr:full': 'Mahadipur Sub Centre, Mahadipur', 'addr:postcode': '732103', 'addr:state': 'West Bengal', 'addr:subdistrict': 'English Bazar', 'description': 'Primary Health Centre', 'healthcare': 'centre', 'name': 'Mahadipur PHC', 'source': 'OpenGovernmentData'}}"
"{'type': 'node', 'id': 7199770908, 'lat': 25.3529476, 'lon': 87.8709899, 'tags': {'addr:district': 'Maldah', 'addr:full': 'Hardamnagar', 'addr:postcode': '732125', 'addr:state': 'West Bengal', 'addr:subdistrict': 'Harischandrapur - II', 'description': 'Primary Health Centre', 'healthcare': 'centre', 'name': 'Hardamnagar PHC', 'source': 'OpenGovernmentData'}}"
"{'type': 'node', 'id': 7199770929, 'lat': 24.77681, 'lon': 87.924827, 'tags': {'addr:district': 'Murshidabad', 'addr:full': 'Opp. Post Office, Benia Gram', 'addr:postcode': '742212', 'addr:state': 'West Bengal', 'addr:subdistrict': 'Farakka', 'description': 'Primary Health Centre', 'healthcare': 'centre', 'name': 'PHC, Beniagram', 'source': 'OpenGovernmentData'}}"
"{'type': 'node', 'id': 7199770975, 'lat': 25.3290388, 'lon': 88.1066243, 'tags': {'addr:district': 'Maldah', 'addr:full': 'Chandrapara', 'addr:postcode': '732126', 'addr:state': 'West Bengal', 'addr:subdistrict': 'Chanchal - II', 'description': 'Primary Health Centre', 'healthcare': 'centre', 'name': 'Chandapara PHC', 'source': 'OpenGovernmentData'}}"
"{'type': 'node', 'id': 7199771082, 'lat': 24.0304669, 'lon': 88.4452846, 'tags': {'addr:district': 'Murshidabad', 'addr:full': 'Berhampore-Amtala Road, Near Police Station, Hariharpara, Choa', 'addr:postcode': '742166', 'addr:state': 'West Bengal', 'addr:subdistrict': 'Hariharpara', 'description': 'Primary Health Centre', 'healthcare': 'centre', 'name': 'PHC, Choa', 'source': 'OpenGovernmentData'}}"
"{'type': 'node', 'id': 7199771132, 'lat': 24.185923, 'lon': 88.152967, 'tags': {'addr:district': 'Murshidabad', 'addr:full': 'Lalbagh-Palsanda Road, Near Post Office, Palsanda', 'addr:postcode': '742238', 'addr:state': 'West Bengal', 'addr:subdistrict': 'Nabagram', 'description': 'Primary Health Centre', 'healthcare': 'centre', 'name': 'PHC, Palsanda', 'source': 'OpenGovernmentData'}}"
"{'type': 'node', 'id': 7199771149, 'lat': 24.2661567, 'lon': 87.7822849, 'tags': {'addr:district': 'Birbhum', 'addr:full': 'Near SP High School, Sonarkunda', 'addr:postcode': '731243', 'addr:state': 'West Bengal', 'addr:subdistrict': 'NALHATI - I', 'amenity': 'hospital', 'name': 'Sonarkunda Hospital', 'source': 'OpenGovernmentData'}}"
"{'type': 'node', 'id': 7199771150, 'lat': 25.0793273, 'lon': 87.8964847, 'tags': {'addr:district': 'Maldah', 'addr:full': 'Manikchak Rural Hospital, Koriasultanpur, Koriasultanpur', 'addr:postcode': '732202', 'addr:state': 'West Bengal', 'addr:subdistrict': 'Manikchak', 'amenity': 'hospital', 'name': 'Manikchak RH', 'source': 'OpenGovernmentData'}}"
"{'type': 'node', 'id': 7199771249, 'lat': 25.0343144, 'lon': 87.9922794, 'tags': {'addr:district': 'Maldah', 'addr:full': 'Shyampur Colony, Milki', 'addr:postcode': '732211', 'addr:state': 'West Bengal', 'addr:subdistrict': 'English Bazar', 'description': 'Block Primary Health Centre', 'healthcare': 'centre', 'name': 'Milky BPHC', 'source': 'OpenGovernmentData'}}"
"{'type': 'node', 'id': 7199771250, 'lat': 24.409268, 'lon': 88.251351, 'tags': {'addr:district': 'Murshidabad', 'addr:full': 'Lalgola', 'addr:postcode': '742185', 'addr:state': 'West Bengal', 'addr:subdistrict': 'Lalgola', 'amenity': 'hospital', 'name': 'Krishnapur Rural Hospital', 'source': 'OpenGovernmentData'}}"
"{'type': 'node', 'id': 7199771251, 'lat': 24.6773818, 'lon': 87.9498427, 'tags': {'addr:district': 'Murshidabad', 'addr:full': 'Near Police Station', 'addr:postcode': '742202', 'addr:state': 'West Bengal', 'addr:subdistrict': 'Samserganj', 'description': 'Block Primary Health Centre', 'healthcare': 'centre', 'name': 'Anupnagar BPHC', 'source': 'OpenGovernmentData'}}"
"{'type': 'node', 'id': 7199771304, 'lat': 24.3300309, 'lon': 88.2508838, 'tags': {'addr:district': 'Murshidabad', 'addr:full': 'Berhampore-Lalgola Road, Near Orahar Bridge, Upar Orahar', 'addr:postcode': '742151', 'addr:state': 'West Bengal', 'addr:subdistrict': 'Bhagawangola - I', 'description': 'Primary Health Centre', 'healthcare': 'centre', 'name': 'PHC, Upar Orahar', 'source': 'OpenGovernmentData'}}"
"{'type': 'node', 'id': 7199771321, 'lat': 24.474199, 'lon': 87.946198, 'tags': {'addr:district': 'Birbhum', 'addr:full': 'Jajigram Road, Near Panchahar Bus Stand, Jagigram', 'addr:postcode': '731221', 'addr:state': 'West Bengal', 'addr:subdistrict': 'MURAROI - II', 'description': 'Primary Health Centre', 'healthcare': 'centre', 'name': 'Jajigram', 'source': 'OpenGovernmentData'}}"
"{'type': 'node', 'id': 7199771339, 'lat': 24.2480651, 'lon': 87.8677086, 'tags': {'addr:district': 'Birbhum', 'addr:full': 'Sardha-Kurumgram Road, Near Mitrabhum High School, Kurumgram', 'addr:postcode': '731242', 'addr:state': 'West Bengal', 'addr:subdistrict': 'NALHATI - I', 'description': 'Primary Health Centre', 'healthcare': 'centre', 'name': 'PHC, Kurumgram', 'source': 'OpenGovernmentData'}}"
"{'type': 'node', 'id': 7199771357, 'lat': 25.1330135, 'lon': 87.8345018, 'tags': {'addr:district': 'Maldah', 'addr:full': 'Chabimajitola', 'addr:postcode': '732203', 'addr:state': 'West Bengal', 'addr:subdistrict': 'Manikchak', 'description': 'Primary Health Centre', 'healthcare': 'centre', 'name': 'Bhutni Diara PHC', 'source': 'OpenGovernmentData'}}"
"{'type': 'node', 'id': 7199771366, 'lat': 24.2222848, 'lon': 88.7001964, 'tags': {'addr:district': 'Murshidabad', 'addr:full': 'Sagarpara Road, Near Balika Vidyalaya, Sagarpara', 'addr:postcode': '742306', 'addr:state': 'West Bengal', 'addr:subdistrict': 'Jalangi', 'description': 'Primary Health Centre', 'healthcare': 'centre', 'name': 'Sagarpara PHC', 'operator': 'Government', 'source': 'OpenGovernmentData'}}"
"{'type': 'node', 'id': 7199771389, 'lat': 24.1020542, 'lon': 87.8093996, 'tags': {'addr:district': 'Birbhum', 'addr:full': 'Sandhyajole Road, Opp. Tarapur Primary School, Besic', 'addr:postcode': '731233', 'addr:state': 'West Bengal', 'addr:subdistrict': 'RAMPURHAT - II', 'amenity': 'hospital', 'name': 'Tarapur Hospital', 'source': 'OpenGovernmentData'}}"
"{'type': 'node', 'id': 7199771391, 'lat': 24.9172891, 'lon': 88.0915078, 'tags': {'addr:district': 'Maldah', 'addr:full': 'Badshahi Road, Near Madhughat Power Station, Sujapur', 'addr:postcode': '732206', 'addr:state': 'West Bengal', 'addr:subdistrict': 'Kaliachak - I', 'description': 'Primary Health Centre', 'healthcare': 'centre', 'name': 'PHC, Sujapur', 'source': 'OpenGovernmentData'}}"
"{'type': 'node', 'id': 7199771392, 'lat': 24.383541, 'lon': 87.88769, 'tags': {'addr:district': 'Birbhum', 'addr:full': 'Chatra Hiyatnagar Road, Near Saddam Telecom, Rudranagar', 'addr:postcode': '731238', 'addr:state': 'West Bengal', 'addr:subdistrict': 'MURAROI - II', 'description': 'Primary Health Centre', 'healthcare': 'centre', 'name': 'PHC, Rudranagar', 'source': 'OpenGovernmentData'}}"
"{'type': 'node', 'id': 7199771393, 'lat': 25.2450383, 'lon': 87.8574141, 'tags': {'addr:district': 'Maldah', 'addr:full': 'Nakkati Ghat Bridge Road, Near Udaypur Primary School, Sahanagar', 'addr:postcode': '732125', 'addr:state': 'West Bengal', 'addr:subdistrict': 'Ratua - I', 'description': 'Primary Health Centre', 'healthcare': 'centre', 'name': 'PHC, Mahanandatola', 'source': 'OpenGovernmentData'}}"
"{'type': 'node', 'id': 7199771394, 'lat': 24.199019, 'lon': 87.723284, 'tags': {'addr:district': 'Birbhum', 'addr:full': 'Hospital, Chakmondala', 'addr:postcode': '731223', 'addr:state': 'West Bengal', 'addr:subdistrict': 'RAMPURHAT - I', 'description': 'Block Primary Health Centre', 'healthcare': 'centre', 'name': 'Chakmondala BPHC', 'source': 'OpenGovernmentData'}}"
"{'type': 'node', 'id': 7199771400, 'lat': 24.433402, 'lon': 88.089824, 'tags': {'addr:district': 'Murshidabad', 'addr:full': 'Near Maldova High School, Maldova, Rajnagar G.P', 'addr:postcode': '742227', 'addr:state': 'West Bengal', 'addr:subdistrict': 'Raghunathganj - I', 'description': 'Block Primary Health Centre', 'healthcare': 'centre', 'name': 'Rajnagar B.P.H.C.', 'source': 'OpenGovernmentData'}}"
"{'type': 'node', 'id': 7199771472, 'lat': 25.137121, 'lon': 88.0322347, 'tags': {'addr:district': 'Maldah', 'addr:full': 'Near Achintala Bridge, Sultanganj, Pukhuria', 'addr:postcode': '732213', 'addr:state': 'West Bengal', 'addr:subdistrict': 'Ratua - II', 'description': 'Primary Health Centre', 'healthcare': 'centre', 'name': 'PHC, Sultanganj', 'source': 'OpenGovernmentData'}}"
"{'type': 'node', 'id': 7199771511, 'lat': 24.9748632, 'lon': 88.0052215, 'tags': {'addr:district': 'Maldah', 'addr:full': 'Kashimbazar, Jot Anantapur', 'addr:postcode': '732207', 'addr:state': 'West Bengal', 'addr:subdistrict': 'Kaliachak - II', 'amenity': 'hospital', 'name': 'Bangitala Rural Hospital', 'source': 'OpenGovernmentData'}}"
"{'type': 'node', 'id': 7199771521, 'lat': 24.1717512, 'lon': 88.2772444, 'tags': {'addr:district': 'Murshidabad', 'addr:full': 'Lalbagh College Road, Opp. Bus Stand, Lalbagh', 'addr:postcode': '742149', 'addr:state': 'West Bengal', 'amenity': 'hospital', 'description': 'Sub-District Hospital', 'name': 'Lalbagh Sub Divisional Hospital', 'source': 'OpenGovernmentData'}}"
"{'type': 'node', 'id': 7199771535, 'lat': 25.247381, 'lon': 88.7816331, 'tags': {'addr:district': 'Dakhshin Dinajpur', 'addr:full': 'Near Balurghat Stadium, Balurghat', 'addr:postcode': '733103', 'addr:state': 'West Bengal', 'amenity': 'hospital', 'description': 'District Hospital', 'healthcare': 'hospital', 'name': 'Balurghat District Hospital', 'source': 'OpenGovernmentData'}}"
"{'type': 'node', 'id': 7199771581, 'lat': 24.2718137, 'lon': 88.5695338, 'tags': {'addr:district': 'Murshidabad', 'addr:full': 'Domkal, Katlamari, Raninagar, west Bengal', 'addr:postcode': '742308', 'addr:state': 'West Bengal', 'addr:subdistrict': 'Raninagar - II', 'description': 'Primary Health Centre', 'healthcare': 'centre', 'name': 'Katlamari PHC', 'source': 'OpenGovernmentData'}}"
"{'type': 'node', 'id': 7199771624, 'lat': 24.1557814, 'lon': 88.4702536, 'tags': {'addr:district': 'Murshidabad', 'addr:full': 'Islampur', 'addr:postcode': '742304', 'addr:state': 'West Bengal', 'addr:subdistrict': 'Raninagar - I', 'amenity': 'hospital', 'name': 'Islampur Rural Hospital', 'source': 'OpenGovernmentData'}}"
"{'type': 'node', 'id': 7199771728, 'lat': 24.1302287, 'lon': 87.804596, 'tags': {'addr:district': 'Birbhum', 'addr:full': 'Near Bhadrakali Temple, Udaipur', 'addr:postcode': '731233', 'addr:state': 'West Bengal', 'addr:subdistrict': 'RAMPURHAT - I', 'description': 'Primary Health Centre', 'healthcare': 'centre', 'name': 'PHC, Udaipur', 'source': 'OpenGovernmentData'}}"
"{'type': 'node', 'id': 7199771730, 'lat': 24.9840254, 'lon': 88.2481478, 'tags': {'addr:district': 'Maldah', 'addr:full': 'Bulbulchandi', 'addr:postcode': '732122', 'addr:state': 'West Bengal', 'addr:subdistrict': 'Habibpur', 'amenity': 'hospital', 'name': 'R.N.Ray Rural Hospital', 'source': 'OpenGovernmentData'}}"
"{'type': 'node', 'id': 7199771746, 'lat': 24.3041863, 'lon': 88.2959999, 'tags': {'addr:district': 'Murshidabad', 'addr:full': 'Kanapukur', 'addr:postcode': '742135', 'addr:state': 'West Bengal', 'addr:subdistrict': 'Bhagawangola - I', 'amenity': 'hospital', 'name': 'Kanapukur Rural Hospital', 'source': 'OpenGovernmentData'}}"
"{'type': 'node', 'id': 7199771780, 'lat': 24.083555, 'lon': 88.493041, 'tags': {'addr:district': 'Murshidabad', 'addr:full': 'Murshidabad, Near Gram Panchayat, Bhagirathpur', 'addr:postcode': '742303', 'addr:state': 'West Bengal', 'addr:subdistrict': 'Domkal', 'description': 'Primary Health Centre', 'healthcare': 'centre', 'name': 'PHC, Bhagirathpur', 'source': 'OpenGovernmentData'}}"
"{'type': 'node', 'id': 7199771782, 'lat': 24.028703, 'lon': 88.623048, 'tags': {'addr:district': 'Murshidabad', 'addr:postcode': '742133', 'addr:state': 'West Bengal', 'addr:subdistrict': 'Domkal', 'description': 'Primary Health Centre', 'healthcare': 'centre', 'name': 'Garaimari PHC', 'source': 'OpenGovernmentData'}}"
"{'type': 'node', 'id': 7199771814, 'lat': 24.3225976, 'lon': 88.3456612, 'tags': {'addr:district': 'Murshidabad', 'addr:full': 'Habaspur Road, Near Post Office, Habaspur', 'addr:postcode': '742135', 'addr:state': 'West Bengal', 'addr:subdistrict': 'Bhagawangola - I', 'amenity': 'hospital', 'name': 'Habaspur Rural Hospital', 'source': 'OpenGovernmentData'}}"
"{'type': 'node', 'id': 7199771816, 'lat': 24.9334808, 'lon': 88.0353333, 'tags': {'addr:district': 'Maldah', 'addr:full': 'Kaliachak-II Block office, Mothabari', 'addr:postcode': '732207', 'addr:state': 'West Bengal', 'addr:subdistrict': 'Kaliachak - II', 'description': 'Primary Health Centre', 'healthcare': 'centre', 'name': 'Mothabari PHC', 'source': 'OpenGovernmentData'}}"
"{'type': 'node', 'id': 7199771848, 'lat': 24.1611634, 'lon': 88.6262518, 'tags': {'addr:district': 'Murshidabad', 'addr:full': 'Foridpur, Pakurdiar', 'addr:postcode': '742303', 'addr:state': 'West Bengal', 'addr:subdistrict': 'Jalangi', 'description': 'Primary Health Centre', 'healthcare': 'centre', 'name': 'Faridpur P.H.C.', 'source': 'OpenGovernmentData'}}"
"{'type': 'node', 'id': 7199771879, 'lat': 24.4528023, 'lon': 88.1306634, 'tags': {'addr:district': 'Murshidabad', 'addr:full': 'Near Khamra Bhabki High School, Teghari,Po-Rajput Teghari, Schoolpara', 'addr:postcode': '742213', 'addr:state': 'West Bengal', 'addr:subdistrict': 'Raghunathganj - II', 'description': 'Block Primary Health Centre', 'healthcare': 'centre', 'name': 'Teghari BPHC', 'source': 'OpenGovernmentData'}}"
"{'type': 'node', 'id': 7199771898, 'lat': 24.3048588, 'lon': 88.1945583, 'tags': {'addr:district': 'Murshidabad', 'addr:full': 'Sinheswari Gauripur Road, Near Post Office, Gouripur', 'addr:postcode': '742122', 'addr:state': 'West Bengal', 'addr:subdistrict': 'Sagardighi', 'amenity': 'hospital', 'name': 'Gouripur Hospital', 'source': 'OpenGovernmentData'}}"
"{'type': 'node', 'id': 7199771934, 'lat': 24.8700986, 'lon': 87.972082, 'tags': {'addr:district': 'Maldah', 'addr:full': 'Hamidpur', 'addr:postcode': '732207', 'addr:state': 'West Bengal', 'addr:subdistrict': 'Kaliachak - II', 'description': 'Primary Health Centre', 'healthcare': 'centre', 'name': 'Hamidpur PHC', 'source': 'OpenGovernmentData'}}"
"{'type': 'node', 'id': 7199771947, 'lat': 25.1791098, 'lon': 88.1544802, 'tags': {'addr:district': 'Maldah', 'addr:full': 'Near Hatimari High School', 'addr:postcode': '732124', 'addr:state': 'West Bengal', 'addr:subdistrict': 'Gazole', 'amenity': 'hospital', 'name': 'HatimariRural Hospital', 'source': 'OpenGovernmentData'}}"
"{'type': 'node', 'id': 7199772025, 'lat': 24.266123, 'lon': 87.9467081, 'tags': {'addr:district': 'Birbhum', 'addr:full': 'Bhadrapur (Near Bhadrapur Bus Stand)', 'addr:postcode': '731237', 'addr:state': 'West Bengal', 'addr:subdistrict': 'NALHATI - II', 'amenity': 'hospital', 'name': 'Bhadrapur Hospital', 'source': 'OpenGovernmentData'}}"
"{'type': 'node', 'id': 7466357790, 'lat': 25.0400989, 'lon': 88.7599456, 'tags': {'addr:city': 'Nazipur, Patnitala, Naogaon', 'addr:postcode': '6540', 'amenity': 'clinic', 'healthcare': 'clinic', 'healthcare:speciality': 'general;clinic', 'name': 'পদ্মা ক্লিনিক এন্ড পদ্মা ডায়াগনস্টিক সেন্টার', 'name:en': 'Padma Clinic and Padma Diagnostic Center'}}"
"{'type': 'node', 'id': 7466368470, 'lat': 25.0412078, 'lon': 88.760964, 'tags': {'addr:city': 'Nazipur, Patnitala, Naogaon', 'addr:postcode': '6540', 'amenity': 'clinic', 'healthcare': 'clinic', 'healthcare:speciality': 'general', 'name': 'The Square Diagnostic Center', 'name:bn': 'দি স্কয়ার ডায়াগনস্টিক সেন্টার'}}"
"{'type': 'node', 'id': 7466401004, 'lat': 25.0402418, 'lon': 88.7599962, 'tags': {'addr:city': 'Nazipur, Patnitala, Naogaon', 'addr:postcode': '6540', 'amenity': 'clinic', 'healthcare': 'clinic', 'healthcare:speciality': 'general', 'name': 'Holy Diagnostic Center'}}"
"{'type': 'node', 'id': 7466450456, 'lat': 25.0407818, 'lon': 88.7599653, 'tags': {'addr:city': 'Nazipur, Patnitala, Naogaon', 'addr:postcode': '6540', 'amenity': 'clinic', 'healthcare': 'clinic', 'healthcare:speciality': 'general', 'name': 'পপুলার ডায়াগনস্টিক এন্ড কনসালটেশন সেন্টার'}}"
"{'type': 'node', 'id': 7666886936, 'lat': 25.194401, 'lon': 88.267735, 'tags': {'addr:district': 'Malda', 'addr:full': 'Purbba Ranipur', 'addr:postcode': '732138', 'addr:state': 'West Bengal', 'amenity': 'hospital', 'name': 'Ranipur Hospital', 'source': 'Local Knowledge'}}"
"{'type': 'node', 'id': 7666886938, 'lat': 25.309245, 'lon': 88.314868, 'tags': {'addr:district': 'Dakshin Dinajpur', 'addr:full': 'Kismat Kasba', 'addr:postcode': '733125', 'addr:state': 'West Bengal', 'amenity': 'hospital', 'name': 'Christian Mission Hospital', 'source': 'Local Knowledge'}}"
"{'type': 'node', 'id': 7666886940, 'lat': 24.995359, 'lon': 88.14662, 'tags': {'addr:district': 'Malda', 'addr:full': 'R.K Mission Ghat, South Baluchar, Mokdumpur', 'addr:postcode': '732101', 'addr:state': 'West Bengal', 'amenity': 'hospital', 'name': 'Urban Primary Health Centre', 'source': 'Local Knowledge'}}"
"{'type': 'node', 'id': 7666886948, 'lat': 25.2206078, 'lon': 88.4201314, 'tags': {'addr:district': 'Malda', 'addr:full': 'Haripur', 'addr:postcode': '732147', 'addr:state': 'West Bengal', 'amenity': 'hospital', 'name': 'Haripur Mini Hospital', 'source': 'Local Knowledge'}}"
"{'type': 'node', 'id': 7666886950, 'lat': 25.2283166, 'lon': 88.7769522, 'tags': {'addr:district': 'Dakshin Dinajpur', 'addr:full': 'Surya Sen Sarani, Chakbhabani, Balurghat', 'addr:postcode': '733101', 'addr:state': 'West Bengal', 'amenity': 'hospital', 'healthcare': 'hospital', 'name': 'Red Cross Eye Hospital', 'source': 'Local Knowledge'}}"
"{'type': 'node', 'id': 7666886952, 'lat': 25.1240491, 'lon': 88.3676874, 'tags': {'addr:district': 'Malda', 'addr:full': 'Salalpur', 'addr:postcode': '732138', 'addr:state': 'West Bengal', 'amenity': 'hospital', 'name': 'Jogomaya Polyclinic', 'source': 'Local Knowledge'}}"
"{'type': 'node', 'id': 7666886962, 'lat': 25.045419, 'lon': 87.9759589, 'tags': {'addr:district': 'Malda', 'addr:full': 'Sovanagar', 'addr:postcode': '732209', 'addr:state': 'West Bengal', 'amenity': 'clinic', 'name': 'Razia Clinic', 'source': 'Local Knowledge'}}"
"{'type': 'node', 'id': 7666886963, 'lat': 25.1262025, 'lon': 88.3683755, 'tags': {'addr:district': 'Malda', 'addr:full': 'Jaitan', 'addr:postcode': '732138', 'addr:state': 'West Bengal', 'amenity': 'hospital', 'name': 'Pakuahat Getanjali Hospital', 'source': 'Local Knowledge'}}"
"{'type': 'node', 'id': 7666886965, 'lat': 24.9814238, 'lon': 88.2449488, 'tags': {'addr:district': 'Malda', 'addr:full': 'Bulbulchandi', 'addr:postcode': '732122', 'addr:state': 'West Bengal', 'amenity': 'hospital', 'name': 'R.N. Roy Rural Hospital', 'source': 'Local Knowledge'}}"
"{'type': 'node', 'id': 7666886966, 'lat': 25.247626, 'lon': 88.784433, 'tags': {'addr:district': 'Dakshin Dinajpur', 'addr:full': 'West Dinajpur, Balurghat', 'addr:postcode': '733103', 'addr:state': 'West Bengal', 'amenity': 'hospital', 'healthcare': 'hospital', 'name': 'Super Speciality Hospital', 'source': 'Local Knowledge'}}"
"{'type': 'node', 'id': 7666886968, 'lat': 25.1307743, 'lon': 87.8338549, 'tags': {'addr:district': 'Malda', 'addr:full': 'Paschim Chandipur', 'addr:postcode': '732203', 'addr:state': 'West Bengal', 'amenity': 'hospital', 'name': 'Bhutni Hospital', 'source': 'Local Knowledge'}}"
"{'type': 'node', 'id': 7666886977, 'lat': 25.044561, 'lon': 88.136114, 'tags': {'addr:district': 'Malda', 'addr:full': 'Old Malda Road', 'addr:postcode': '732128', 'addr:state': 'West Bengal', 'description': 'Urban Primary Health Centre', 'healthcare': 'centre', 'name': 'Urban Primary Health Cente', 'source': 'Local Knowledge'}}"
"{'type': 'node', 'id': 7666886978, 'lat': 25.2598109, 'lon': 88.4217533, 'tags': {'addr:district': 'Malda', 'addr:full': 'Nalagola', 'addr:postcode': '733124', 'addr:state': 'West Bengal', 'amenity': 'hospital', 'name': 'Nalagola Hospital', 'source': 'Local Knowledge'}}"
"{'type': 'node', 'id': 7666886980, 'lat': 24.9994853, 'lon': 88.1488532, 'tags': {'addr:district': 'Malda', 'addr:full': 'South Baluchar, English Bazar', 'addr:postcode': '732101', 'addr:state': 'West Bengal', 'amenity': 'hospital', 'name': 'Edific Health Care Hospital', 'source': 'Local Knowledge'}}"
"{'type': 'node', 'id': 7666886981, 'lat': 25.285638, 'lon': 88.661344, 'tags': {'addr:district': 'Dakshin Dinajpur', 'addr:full': 'Badsankair Bazar Road', 'addr:postcode': '733127', 'addr:state': 'West Bengal', 'description': 'Subcentre', 'healthcare': 'centre', 'name': 'Sub Health Centre', 'source': 'Local Knowledge'}}"
"{'type': 'node', 'id': 7666886983, 'lat': 25.1188059, 'lon': 87.8240007, 'tags': {'addr:district': 'Malda', 'addr:full': 'Sukdev Tola, Bhutni', 'addr:postcode': '732203', 'addr:state': 'West Bengal', 'amenity': 'hospital', 'name': 'Umesh Ghosh Tola Hospital', 'source': 'Local Knowledge'}}"
"{'type': 'node', 'id': 7666886985, 'lat': 25.134883, 'lon': 88.149879, 'tags': {'addr:district': 'Malda', 'addr:full': 'Adina', 'addr:postcode': '732128', 'addr:state': 'West Bengal', 'amenity': 'hospital', 'name': 'Pandua Parthomick Hospital', 'source': 'Local Knowledge'}}"
"{'type': 'node', 'id': 7666886992, 'lat': 24.9955435, 'lon': 88.1482531, 'tags': {'addr:district': 'Malda', 'addr:full': 'Mission Ghat South Baluchar, South Baluchar', 'addr:postcode': '732101', 'addr:state': 'West Bengal', 'amenity': 'hospital', 'name': 'Mission Ghat Hospital', 'source': 'Local Knowledge'}}"
"{'type': 'node', 'id': 7666886994, 'lat': 24.9876461, 'lon': 88.140994, 'tags': {'addr:district': 'Malda', 'addr:full': 'Mokdumpur', 'addr:postcode': '732101', 'addr:state': 'West Bengal', 'amenity': 'hospital', 'name': 'Varanasi Hospital', 'source': 'Local Knowledge'}}"
"{'type': 'node', 'id': 7667435428, 'lat': 24.4444865, 'lon': 87.8561801, 'tags': {'addr:district': 'Birbhum', 'addr:full': 'Murarai', 'addr:postcode': '731219', 'addr:state': 'West Bengal', 'amenity': 'hospital', 'name': 'Care Nursing Home', 'source': 'Local Knowledge'}}"
"{'type': 'node', 'id': 7667435435, 'lat': 24.1818264, 'lon': 87.7917653, 'tags': {'addr:district': 'Birbhum', 'addr:full': 'Bharsala, Rampurhat', 'addr:postcode': '731224', 'addr:state': 'West Bengal', 'amenity': 'clinic', 'name': 'Savier Nursing Home', 'source': 'Local Knowledge'}}"
"{'type': 'node', 'id': 7667435438, 'lat': 24.1043203, 'lon': 88.2753676, 'tags': {'addr:district': 'Murshidabad', 'addr:full': 'Near Karbala Road, Chalpatti More, Raninagar, Radhikanagar, Berhampore', 'addr:postcode': '742101', 'addr:state': 'West Bengal', 'amenity': 'hospital', 'name': 'Glocal Hospital', 'source': 'Local Knowledge'}}"
"{'type': 'node', 'id': 7667435440, 'lat': 24.5043617, 'lon': 88.070677, 'tags': {'addr:district': 'Murshidabad', 'addr:full': 'Raghunathganj, Lal Khandiar', 'addr:postcode': '742213', 'addr:state': 'West Bengal', 'amenity': 'clinic', 'name': 'Misba Clinic', 'source': 'Local Knowledge'}}"
"{'type': 'node', 'id': 7667435441, 'lat': 24.1848353, 'lon': 87.79246, 'tags': {'addr:district': 'Birbhum', 'addr:full': 'Rampurhat', 'addr:postcode': '731224', 'addr:state': 'West Bengal', 'amenity': 'hospital', 'name': 'Mohor Medimart Hospital', 'source': 'Local Knowledge'}}"
"{'type': 'node', 'id': 7667435442, 'lat': 24.1865462, 'lon': 87.7922149, 'tags': {'addr:district': 'Birbhum', 'addr:full': 'Rampurhat', 'addr:postcode': '731202', 'addr:state': 'West Bengal', 'amenity': 'clinic', 'name': 'Loknath Nursing Home', 'source': 'Local Knowledge'}}"
"{'type': 'node', 'id': 7667435445, 'lat': 24.0952155, 'lon': 88.2547001, 'tags': {'addr:district': 'Murshidabad', 'addr:full': 'Rabindranath Tagore Road, Berhampore', 'addr:postcode': '742101', 'addr:state': 'West Bengal', 'amenity': 'hospital', 'healthcare': 'hospital', 'name': 'Disha Eye Hospital', 'source': 'Local Knowledge'}}"
"{'type': 'node', 'id': 7667435450, 'lat': 24.170622, 'lon': 88.282025, 'tags': {'addr:district': 'Murshidabad', 'addr:full': 'Lalbagh, Murshidabad', 'addr:postcode': '742149', 'addr:state': 'West Bengal', 'amenity': 'hospital', 'name': 'Fortune Hospital', 'source': 'Local Knowledge'}}"
"{'type': 'node', 'id': 7667435457, 'lat': 24.8025778, 'lon': 87.910341, 'tags': {'addr:district': 'Murshidabad', 'addr:full': 'Farakka', 'addr:postcode': '742212', 'addr:state': 'West Bengal', 'amenity': 'hospital', 'name': 'Farakka Barrage Hospital', 'source': 'Local Knowledge'}}"
"{'type': 'node', 'id': 7667435459, 'lat': 24.101283, 'lon': 88.249218, 'tags': {'addr:district': 'Murshidabad', 'addr:full': 'KN Road, Khagra, Berhampore', 'addr:postcode': '742101', 'addr:state': 'West Bengal', 'amenity': 'hospital', 'name': 'Berhampore Mental Hospital', 'source': 'Local Knowledge'}}"
"{'type': 'node', 'id': 7667435462, 'lat': 24.0796662, 'lon': 88.2552677, 'tags': {'addr:district': 'Murshidabad', 'addr:full': 'Sri Guru Pathsala, Near Maankumari Road, Raninagar, Gora Bazar, Berhampore', 'addr:postcode': '742101', 'addr:state': 'West Bengal', 'amenity': 'hospital', 'name': 'Berhampore City Hospital', 'source': 'Local Knowledge'}}"
"{'type': 'node', 'id': 7667435466, 'lat': 24.0919745, 'lon': 88.2644403, 'tags': {'addr:district': 'Murshidabad', 'addr:full': 'Berhampore, Kalikapore Road, Station Road Shilpa Taluk', 'addr:postcode': '742101', 'addr:state': 'West Bengal', 'amenity': 'clinic', 'name': 'Manmohini Health Care', 'opening_hours': '24/7', 'source': 'Local Knowledge'}}"
"{'type': 'node', 'id': 7667435467, 'lat': 24.779244, 'lon': 87.9107005, 'tags': {'addr:district': 'Murshidabad', 'addr:full': 'Chauki', 'addr:postcode': '742236', 'addr:state': 'West Bengal', 'amenity': 'hospital', 'name': 'TTS Hospital', 'source': 'Local Knowledge'}}"
"{'type': 'node', 'id': 7667435469, 'lat': 24.7786136, 'lon': 87.9135798, 'tags': {'addr:district': 'Murshidabad', 'addr:full': 'Farakka', 'addr:postcode': '742236', 'addr:state': 'West Bengal', 'health_facility:type': 'dispensary', 'healthcare': 'centre', 'name': 'ESI Dispensary', 'source': 'Local Knowledge'}}"
"{'type': 'node', 'id': 7667435471, 'lat': 24.2469723, 'lon': 88.2824196, 'tags': {'addr:district': 'Murshidabad', 'addr:full': 'Bagdahar, Jiaganj, Berhampore-Lalgola Road, Jiaganj', 'addr:postcode': '742123', 'addr:state': 'West Bengal', 'amenity': 'clinic', 'name': 'Astha Health Care', 'source': 'Local Knowledge'}}"
"{'type': 'node', 'id': 7667435472, 'lat': 24.180989, 'lon': 87.781239, 'tags': {'addr:district': 'Birbhum', 'addr:full': 'Rampurhat', 'addr:postcode': '731224', 'addr:state': 'West Bengal', 'amenity': 'hospital', 'name': 'True Pati Hospital', 'source': 'Local Knowledge'}}"
"{'type': 'node', 'id': 7673228899, 'lat': 24.472583, 'lon': 87.7774898, 'tags': {'addr:district': 'Pakur', 'addr:full': 'Chapgawan', 'addr:postcode': '816106', 'addr:state': 'Jharkhand', 'amenity': 'hospital', 'name': 'Maheshpur Hospital', 'source': 'Local Knowledge'}}"
"{'type': 'node', 'id': 7673228901, 'lat': 24.8857004, 'lon': 87.6106314, 'tags': {'addr:district': 'Sahibganj', 'addr:full': 'Barhat Barharwa Road, Berhait', 'addr:postcode': '816102', 'addr:state': 'Jharkhand', 'amenity': 'clinic', 'name': 'Healthcare Clinic', 'source': 'Local Knowledge'}}"
"{'type': 'node', 'id': 7673228908, 'lat': 24.639852, 'lon': 87.850125, 'tags': {'addr:district': 'Pakur', 'addr:full': 'Tanti Para, Pakur', 'addr:postcode': '816107', 'addr:state': 'Jharkhand', 'amenity': 'hospital', 'name': 'Anand Nursing Home', 'source': 'Local Knowledge'}}"
"{'type': 'node', 'id': 7673228909, 'lat': 25.2420891, 'lon': 87.6376682, 'tags': {'addr:district': 'Sahibganj', 'addr:full': 'Sahibganj', 'addr:state': 'Jharkhand', 'amenity': 'hospital', 'name': 'Al Shifa Eye & ENT Care Hospital', 'source': 'Local Knowledge'}}"
"{'type': 'node', 'id': 7673228918, 'lat': 25.0489845, 'lon': 87.8368156, 'tags': {'addr:district': 'Sahibganj', 'addr:full': 'Sahibganj', 'addr:postcode': '816108', 'addr:state': 'Jharkhand', 'amenity': 'clinic', 'name': ""Dr. Gufran's Clinic"", 'source': 'Local Knowledge'}}"
"{'type': 'node', 'id': 7673228925, 'lat': 25.0757066, 'lon': 87.7456252, 'tags': {'addr:district': 'Sahibganj', 'addr:full': 'Main Road, Lamatia', 'addr:postcode': '816108', 'addr:state': 'Jharkhand', 'amenity': 'clinic', 'name': 'Azharul Islam Clinic', 'source': 'Local Knowledge'}}"
"{'type': 'node', 'id': 7673228931, 'lat': 25.2420424, 'lon': 87.6323117, 'tags': {'addr:district': 'Sahibganj', 'addr:full': 'Sahibganj', 'addr:postcode': '816109', 'addr:state': 'Jharkhand', 'amenity': 'hospital', 'name': 'Old Sadar Hospital', 'source': 'Local Knowledge'}}"
"{'type': 'node', 'id': 7673228936, 'lat': 24.8554348, 'lon': 87.7672844, 'tags': {'addr:district': 'Sahibganj', 'addr:full': 'Jhiktia', 'addr:postcode': '816101', 'addr:state': 'Jharkhand', 'amenity': 'hospital', 'name': 'Barharwa Sardar Hospital', 'source': 'Local Knowledge'}}"
"{'type': 'node', 'id': 7673228942, 'lat': 25.2416425, 'lon': 87.6312288, 'tags': {'addr:district': 'Sahibganj', 'addr:full': 'J N Roy Road, Sahibganj', 'addr:postcode': '816109', 'addr:state': 'Jharkhand', 'amenity': 'clinic', 'name': 'Verma Eye Clinic', 'source': 'Local Knowledge'}}"
"{'type': 'node', 'id': 7673228944, 'lat': 24.8552408, 'lon': 87.7686915, 'tags': {'addr:district': 'Sahibganj', 'addr:full': 'Barharwa', 'addr:postcode': '816110', 'addr:state': 'Jharkhand', 'amenity': 'clinic', 'name': 'Dr. K.D. Murmu Clinic', 'source': 'Local Knowledge'}}"
"{'type': 'node', 'id': 7673228946, 'lat': 24.7955326, 'lon': 87.8046485, 'tags': {'addr:district': 'Sahibganj', 'addr:full': 'Srikunth', 'addr:postcode': '816110', 'addr:state': 'Jharkhand', 'amenity': 'hospital', 'name': 'Al Shifa Hospital', 'source': 'Local Knowledge'}}"
"{'type': 'node', 'id': 7673228947, 'lat': 25.243574, 'lon': 87.630226, 'tags': {'addr:district': 'Sahibganj', 'addr:full': 'Sahibganj', 'addr:postcode': '816109', 'addr:state': 'Jharkhand', 'amenity': 'clinic', 'name': ""Jabbar's Clinic"", 'source': 'Local Knowledge'}}"
"{'type': 'node', 'id': 7673228959, 'lat': 25.0812952, 'lon': 87.7406144, 'tags': {'addr:district': 'Sahibganj', 'addr:full': 'Taljhari', 'addr:postcode': '816129', 'addr:state': 'Jharkhand', 'amenity': 'hospital', 'name': 'Divya Maternity Centre', 'source': 'Local Knowledge'}}"
"{'type': 'node', 'id': 7673228961, 'lat': 25.0498542, 'lon': 87.8344138, 'tags': {'addr:district': 'Sahibganj', 'addr:full': 'Hatpara Colony, Rajmahal', 'addr:postcode': '816108', 'addr:state': 'Jharkhand', 'amenity': 'clinic', 'name': 'Dr. Raj Kumar Eye Care Centre', 'source': 'Local Knowledge'}}"
"{'type': 'node', 'id': 7673228968, 'lat': 25.237771, 'lon': 87.637269, 'tags': {'addr:district': 'Sahibganj', 'addr:full': 'Mazhar Tola Road, Hatai Parisar, Sahibganj', 'addr:postcode': '816109', 'addr:state': 'Jharkhand', 'amenity': 'hospital', 'name': 'Railway Hospital, Sahibganj', 'source': 'Local Knowledge'}}"
"{'type': 'node', 'id': 7673228971, 'lat': 24.97704, 'lon': 87.779077, 'tags': {'addr:district': 'Sahibganj', 'addr:full': 'Jonka - Bakudi - Barharwa Road, Jonka', 'addr:postcode': '816108', 'addr:state': 'Jharkhand', 'amenity': 'hospital', 'name': 'Government Hospital', 'source': 'Local Knowledge'}}"
"{'type': 'node', 'id': 7673228973, 'lat': 24.905564, 'lon': 87.531319, 'tags': {'addr:district': 'Sahibganj', 'addr:full': 'Barabandh', 'addr:postcode': '816102', 'addr:state': 'Jharkhand', 'amenity': 'clinic', 'description': 'Primary Health Centre', 'healthcare': 'centre', 'name': 'Primary Health Centre', 'source': 'Local Knowledge'}}"
"{'type': 'node', 'id': 7673228974, 'lat': 25.054246, 'lon': 87.8309662, 'tags': {'addr:district': 'Sahibganj', 'addr:full': 'Rajmahal', 'addr:postcode': '816108', 'addr:state': 'Jharkhand', 'amenity': 'clinic', 'name': 'Fracture Clinic', 'source': 'Local Knowledge'}}"
"{'type': 'node', 'id': 7673228979, 'lat': 24.8543557, 'lon': 87.766984, 'tags': {'addr:district': 'Sahibganj', 'addr:full': 'Ratanpur', 'addr:postcode': '816101', 'addr:state': 'Jharkhand', 'amenity': 'clinic', 'name': 'Dr. A K Sinha Clinic', 'source': 'Local Knowledge'}}"
"{'type': 'node', 'id': 7828385398, 'lat': 24.1053359, 'lon': 88.2571913, 'tags': {'amenity': 'hospital', 'emergency': 'yes', 'healthcare': 'hospital', 'healthcare:speciality': 'general', 'name': 'LILA HOSPITAL'}}"
"{'type': 'node', 'id': 7845491846, 'lat': 24.0988065, 'lon': 88.2647493, 'tags': {'amenity': 'clinic', 'healthcare': 'clinic'}}"
"{'type': 'node', 'id': 7871087888, 'lat': 25.2696149, 'lon': 87.4925899, 'tags': {'addr:district': 'Bhagalpur', 'addr:full': 'Fauzdari', 'addr:postcode': '813208', 'addr:state': 'Bihar', 'amenity': 'health_post', 'description': 'SubCentre', 'healthcare': 'centre', 'name': 'SubCentre, Fauzdari', 'source': 'Local Knowledge'}}"
"{'type': 'node', 'id': 7877114225, 'lat': 25.3322539, 'lon': 87.5098599, 'tags': {'addr:district': 'Bhagalpur', 'addr:full': 'Bakharpur', 'addr:postcode': '816109', 'addr:state': 'Bihar', 'description': 'SubCentre', 'healthcare': 'centre', 'name': 'SubCentre, Bakharpur', 'source': 'Local Knowledge'}}"
"{'type': 'node', 'id': 7889637406, 'lat': 24.2224904, 'lon': 87.7787004, 'tags': {'addr:full': 'Dadpur', 'addr:postcode': '731243', 'addr:state': 'West Bengal', 'description': 'SubCentre', 'healthcare': 'centre', 'name': 'SubCentre, Dadpur', 'source': 'Local Knowledge'}}"
"{'type': 'node', 'id': 7889662063, 'lat': 24.3552582, 'lon': 87.8826186, 'tags': {'addr:district': 'Birbhum', 'addr:full': 'Jogai', 'addr:postcode': '731238', 'addr:state': 'West Bengal', 'description': 'SubCentre', 'healthcare': 'centre', 'name': 'SubCentre Jogai', 'source': 'Local Knowledge'}}"
"{'type': 'node', 'id': 7889742376, 'lat': 24.2908407, 'lon': 87.9177314, 'tags': {'addr:district': 'Birbhum', 'addr:full': 'kaitha', 'addr:postcode': '731220', 'addr:state': 'West Bengal', 'description': 'SubCentre', 'healthcare': 'centre', 'name': 'SubCentre, Kaitha', 'source': 'Local Knowledge'}}"
"{'type': 'node', 'id': 7889841404, 'lat': 24.1066337, 'lon': 87.5993049, 'tags': {'addr:district': 'Birbhum', 'addr:full': 'Hatgachha', 'addr:postcode': '731216', 'addr:state': 'West Bengal', 'description': 'SubCentre', 'healthcare': 'centre', 'name': 'SubCentre, Hatgachha', 'source': 'Local Knowledge'}}"
"{'type': 'node', 'id': 7889926248, 'lat': 24.108626, 'lon': 87.8208219, 'tags': {'addr:district': 'Birbhum', 'addr:full': 'Sahapur', 'addr:postcode': '731233', 'addr:state': 'West Bengal', 'description': 'SubCentre', 'healthcare': 'centre', 'name': 'SubCentre, Sahapur', 'source': 'Local Knowledge'}}"
"{'type': 'node', 'id': 7891804618, 'lat': 24.4180823, 'lon': 87.9055421, 'tags': {'addr:district': 'Birbhum', 'addr:full': 'Kalikapur', 'addr:postcode': '731221', 'addr:state': 'West Bengal', 'description': 'SubCentre', 'healthcare': 'centre', 'name': 'SubCentre, Kalikapur', 'source': 'Local Knowledge'}}"
"{'type': 'node', 'id': 7891886647, 'lat': 24.2762839, 'lon': 88.0011803, 'tags': {'addr:district': 'Birbhum', 'addr:full': 'Nowapara', 'addr:postcode': '731237', 'addr:state': 'West Bengal', 'description': 'SubCentre', 'healthcare': 'centre', 'name': 'SubCentre,Nowapara', 'source': 'Local Knowledge'}}"
"{'type': 'node', 'id': 8006005445, 'lat': 25.356266, 'lon': 87.7553407, 'tags': {'addr:district': 'Katihar', 'addr:full': 'Jamra', 'addr:postcode': '854112', 'addr:state': 'Bihar', 'description': 'SubCentre', 'healthcare': 'centre', 'name': 'SubCentre, Jamra', 'source': 'Local Knowledge'}}"
"{'type': 'node', 'id': 8006306863, 'lat': 25.3271583, 'lon': 87.7203074, 'tags': {'addr:district': 'Katihar', 'addr:full': 'Kishanpur', 'addr:postcode': '854112', 'addr:state': 'Bihar', 'description': 'SubCentre', 'healthcare': 'centre', 'name': 'SubCentre, Kishanpur', 'source': 'Local Knowledge'}}"
"{'type': 'node', 'id': 8008894785, 'lat': 25.2887085, 'lon': 87.8237143, 'tags': {'addr:district': 'Katihar', 'addr:full': 'Durgapur', 'addr:postcode': '854112', 'addr:state': 'Bihar', 'description': 'SubCentre', 'healthcare': 'centre', 'name': 'SubCentre, Durgapur', 'source': 'Local Knowledge'}}"
"{'type': 'node', 'id': 8008980685, 'lat': 25.3524372, 'lon': 87.7434864, 'tags': {'addr:district': 'Katihar', 'addr:full': 'Gauripur', 'addr:postcode': '854112', 'addr:state': 'Bihar', 'description': 'SubCentre', 'healthcare': 'centre', 'name': 'SubCentre, Gauripur', 'source': 'Local Knowledge'}}"
"{'type': 'node', 'id': 8011990785, 'lat': 25.3374503, 'lon': 87.766493, 'tags': {'addr:district': 'Katihar', 'addr:full': 'Bairiya', 'addr:postcode': '854112', 'addr:state': 'Bihar', 'description': 'SubCentre', 'healthcare': 'centre', 'name': 'SubCentre, Bairiya', 'source': 'Local Knowledge'}}"
"{'type': 'node', 'id': 8012712046, 'lat': 25.3364061, 'lon': 87.6781357, 'tags': {'addr:district': 'Katihar', 'addr:full': 'Kantakosh', 'addr:postcode': '854113', 'addr:state': 'Bihar', 'description': 'SubCentre', 'healthcare': 'centre', 'name': 'SubCentre, Kantakosh', 'source': 'Local Knowledge'}}"
"{'type': 'node', 'id': 8012799809, 'lat': 25.2664171, 'lon': 87.8231594, 'tags': {'addr:district': 'Katihar', 'addr:full': 'Bhawanipur Khatti', 'addr:postcode': '854112', 'addr:state': 'Bihar', 'amenity': 'health_post', 'description': 'SubCentre', 'healthcare': 'centre', 'name': 'SubCentre, Bhawanipur Khatti', 'source': 'Local Knowledge'}}"
