OSM_Data
"{'type': 'node', 'id': 1765888158, 'lat': 34.2008935, 'lon': 117.1866488, 'tags': {'amenity': 'pharmacy', 'healthcare': 'pharmacy', 'name': '同康药店'}}"
"{'type': 'node', 'id': 2784779714, 'lat': 34.2140775, 'lon': 117.1317304, 'tags': {'amenity': 'hospital', 'name': '南湖校医务室'}}"
"{'type': 'node', 'id': 3276543216, 'lat': 33.6435771, 'lon': 116.9711344, 'tags': {'amenity': 'hospital', 'name': '宿州协和医院'}}"
"{'type': 'node', 'id': 3276543218, 'lat': 33.6407762, 'lon': 116.976304, 'tags': {'amenity': 'hospital', 'name': '宿州市第三医院'}}"
"{'type': 'node', 'id': 4393273749, 'lat': 33.6329692, 'lon': 116.9766639, 'tags': {'amenity': 'pharmacy'}}"
"{'type': 'node', 'id': 4394408831, 'lat': 33.6451372, 'lon': 116.9744611, 'tags': {'amenity': 'hospital', 'name': '宿州信美口腔医院'}}"
"{'type': 'node', 'id': 4511501474, 'lat': 34.2879755, 'lon': 117.1856258, 'tags': {'amenity': 'clinic', 'healthcare': 'clinic', 'name': '清云诊所'}}"
"{'type': 'node', 'id': 4511501848, 'lat': 34.2885705, 'lon': 117.1855664, 'tags': {'amenity': 'pharmacy', 'dispensing': 'yes', 'healthcare': 'pharmacy', 'name': '恒昌药店', 'wheelchair': 'no'}}"
"{'type': 'node', 'id': 4532638837, 'lat': 34.2645404, 'lon': 117.1716724, 'tags': {'amenity': 'pharmacy', 'drive_through': 'no', 'healthcare': 'pharmacy'}}"
"{'type': 'node', 'id': 5570993221, 'lat': 34.2491182, 'lon': 117.1998497, 'tags': {'amenity': 'hospital', 'healthcare': 'hospital', 'name': '徐医附三院'}}"
"{'type': 'node', 'id': 6185650143, 'lat': 34.4395151, 'lon': 118.2445387, 'tags': {'amenity': 'hospital', 'healthcare': 'hospital', 'name': '郯城第三人民医院'}}"
"{'type': 'node', 'id': 7413947103, 'lat': 34.2641582, 'lon': 117.1661726, 'tags': {'amenity': 'hospital', 'healthcare': 'hospital', 'name': '徐州市建筑工人医院'}}"
"{'type': 'node', 'id': 7426020301, 'lat': 34.2572518, 'lon': 117.2333166, 'tags': {'healthcare': 'yes', 'name': '云龙区黄山社区卫生服务中心'}}"
"{'type': 'node', 'id': 7426213631, 'lat': 34.2584924, 'lon': 117.226808, 'tags': {'healthcare': 'yes', 'name': '梅园社区卫生服务站'}}"
"{'type': 'node', 'id': 7456211419, 'lat': 34.2854575, 'lon': 117.1831407, 'tags': {'amenity': 'clinic', 'healthcare': 'clinic', 'name': '鼓楼区妇幼保健所'}}"
"{'type': 'node', 'id': 8440793267, 'lat': 33.3623426, 'lon': 118.0347671, 'tags': {'amenity': 'hospital', 'healthcare': 'hospital', 'name': '上塘仁和医院'}}"
"{'type': 'node', 'id': 8565089669, 'lat': 33.9843415, 'lon': 118.2143927, 'tags': {'amenity': 'hospital', 'name': '董坝卫生院'}}"
"{'type': 'node', 'id': 8820921453, 'lat': 34.2660499, 'lon': 117.19683, 'tags': {'amenity': 'hospital', 'healthcare': 'hospital', 'name': '徐州市公共卫生医疗中心门诊部'}}"
"{'type': 'node', 'id': 8829914202, 'lat': 33.9490594, 'lon': 118.2197248, 'tags': {'amenity': 'clinic', 'healthcare': 'clinic', 'healthcare:speciality': 'community', 'name': '苏州宿迁工业园区明日社区卫生服务站'}}"
"{'type': 'node', 'id': 8829914205, 'lat': 33.963941, 'lon': 118.225933, 'tags': {'amenity': 'hospital', 'healthcare': 'hospital', 'name': '河滨医院'}}"
"{'type': 'node', 'id': 8940453449, 'lat': 34.2632907, 'lon': 117.150505, 'tags': {'amenity': 'hospital', 'healthcare': 'hospital', 'name': '段庄街道卫生服务中心'}}"
"{'type': 'node', 'id': 9009732212, 'lat': 33.9593482, 'lon': 118.2497106, 'tags': {'addr:city': '宿迁市', 'addr:district': '宿城区', 'addr:housenumber': '88号', 'addr:postcode': '223800', 'addr:province': '江苏省', 'addr:street': '洪泽湖西路', 'amenity': 'hospital', 'email': 'pr@rich-healthcare.com', 'emergency': 'no', 'healthcare': 'hospital', 'healthcare:speciality': 'general', 'internet_access': 'yes', 'internet_access:fee': 'customers', 'name': '宿迁瑞慈体检中心', 'operator': '上海瑞慈医疗投资集团有限公司', 'operator:type': 'private', 'phone': '+86 400 168 8188', 'website': 'https://www.rich-healthcare.com', 'wheelchair': 'yes'}}"
"{'type': 'node', 'id': 9324954676, 'lat': 33.9083229, 'lon': 118.2217444, 'tags': {'amenity': 'clinic', 'healthcare': 'clinic', 'healthcare:speciality': 'community', 'name': '古楚社区王梨园居委会卫生服务站'}}"
"{'type': 'node', 'id': 9352637432, 'lat': 33.9433436, 'lon': 118.2393477, 'tags': {'amenity': 'dentist', 'healthcare': 'dentist', 'name': '西楚牙科'}}"
"{'type': 'node', 'id': 9355144870, 'lat': 33.9206651, 'lon': 118.1587859, 'tags': {'amenity': 'clinic', 'healthcare': 'clinic', 'name': '大同卫生室'}}"
"{'type': 'node', 'id': 9365537488, 'lat': 33.9389608, 'lon': 118.2437344, 'tags': {'addr:city': '宿迁市', 'addr:district': '宿城区', 'addr:housenumber': '600号', 'addr:postcode': '223800', 'addr:province': '江苏省', 'addr:street': '西湖路', 'amenity': 'hospital', 'healthcare': 'hospital', 'healthcare:speciality': 'orthopaedics', 'name': '骨伤科医院'}}"
"{'type': 'node', 'id': 9365557491, 'lat': 33.9344248, 'lon': 118.2460772, 'tags': {'amenity': 'clinic', 'healthcare': 'clinic', 'name': '枣园卫生服务站'}}"
"{'type': 'node', 'id': 10132733832, 'lat': 33.94708, 'lon': 118.2056814, 'tags': {'amenity': 'hospital', 'healthcare': 'hospital', 'healthcare:speciality': 'community', 'name': '苏州宿迁工业园区社区卫生服务中心'}}"
"{'type': 'node', 'id': 10203929073, 'lat': 34.0632182, 'lon': 118.0764404, 'tags': {'amenity': 'hospital', 'healthcare': 'hospital', 'name': '滨河医院'}}"
"{'type': 'node', 'id': 10282134224, 'lat': 34.0435553, 'lon': 118.1046849, 'tags': {'amenity': 'hospital', 'healthcare': 'hospital', 'name': '皂河医院'}}"
"{'type': 'node', 'id': 10282134513, 'lat': 34.0062913, 'lon': 118.2530483, 'tags': {'amenity': 'clinic', 'healthcare': 'clinic', 'name': '洋河滩居委会卫生室'}}"
"{'type': 'node', 'id': 10282135017, 'lat': 34.1629259, 'lon': 118.1844871, 'tags': {'amenity': 'clinic', 'healthcare': 'clinic', 'name': '戴场村卫生室'}}"
"{'type': 'node', 'id': 10537965146, 'lat': 33.9792933, 'lon': 118.2352421, 'tags': {'amenity': 'clinic', 'healthcare': 'clinic', 'healthcare:speciality': 'community', 'name': '康堡小区社区卫生服务站'}}"
"{'type': 'node', 'id': 10537965151, 'lat': 33.9042791, 'lon': 118.2449815, 'tags': {'amenity': 'clinic', 'healthcare': 'clinic', 'healthcare:speciality': 'community', 'name': '古楚社区朱圩卫生服务站'}}"
"{'type': 'node', 'id': 10537965168, 'lat': 33.9031321, 'lon': 118.242945, 'tags': {'amenity': 'clinic', 'healthcare': 'clinic', 'healthcare:speciality': 'community', 'name': '罗土塘居委会卫生服务站'}}"
"{'type': 'node', 'id': 10594144655, 'lat': 33.9476601, 'lon': 118.2390986, 'tags': {'amenity': 'clinic', 'healthcare': 'clinic', 'healthcare:speciality': 'community', 'name': '双庄街道双庄社区卫生室'}}"
"{'type': 'node', 'id': 10742705075, 'lat': 33.9118921, 'lon': 118.1797701, 'tags': {'amenity': 'pharmacy', 'healthcare': 'pharmacy', 'name': '为民药房'}}"
"{'type': 'node', 'id': 10836555111, 'lat': 33.9594852, 'lon': 118.1350456, 'tags': {'amenity': 'clinic', 'healthcare': 'clinic', 'name': '蔡集镇徐洼村卫生室'}}"
"{'type': 'node', 'id': 11072746095, 'lat': 33.9630231, 'lon': 118.2397314, 'tags': {'amenity': 'hospital', 'healthcare': 'hospital', 'healthcare:speciality': 'dentist', 'name': '宿迁口腔医院第二门诊', 'operator': '宿迁口腔医院'}}"
"{'type': 'node', 'id': 11072746096, 'lat': 33.9558287, 'lon': 118.2354716, 'tags': {'amenity': 'hospital', 'healthcare': 'hospital', 'healthcare:speciality': 'dentist', 'name': '宿迁口腔医院（西院区）', 'operator': '宿迁口腔医院'}}"
"{'type': 'node', 'id': 11135426591, 'lat': 33.9149832, 'lon': 118.2026496, 'tags': {'amenity': 'clinic', 'healthcare': 'clinic', 'healthcare:speciality': 'community', 'name': '赵庄卫生服务站'}}"
"{'type': 'node', 'id': 11135426593, 'lat': 33.9744949, 'lon': 118.1670972, 'tags': {'amenity': 'clinic', 'healthcare': 'clinic', 'healthcare:speciality': 'community', 'name': '蔡集镇樊湾社区卫生服务站'}}"
"{'type': 'node', 'id': 11135426601, 'lat': 33.9435056, 'lon': 118.2457276, 'tags': {'amenity': 'clinic', 'healthcare': 'clinic', 'healthcare:speciality': 'community', 'name': '双庄街道魏井社区卫生室'}}"
"{'type': 'node', 'id': 11135458605, 'lat': 33.9887523, 'lon': 118.2063804, 'tags': {'amenity': 'clinic', 'healthcare': 'clinic', 'healthcare:speciality': 'community', 'name': '支口街道支口社区卫生室'}}"
"{'type': 'node', 'id': 11135458606, 'lat': 33.9652773, 'lon': 118.1897941, 'tags': {'amenity': 'clinic', 'healthcare': 'clinic', 'healthcare:speciality': 'community', 'name': '蔡集镇朱李社区卫生服务站'}}"
"{'type': 'node', 'id': 11135516233, 'lat': 33.8608145, 'lon': 118.2053721, 'tags': {'amenity': 'clinic', 'healthcare': 'clinic', 'healthcare:speciality': 'community', 'name': '杨圩村卫生室'}}"
"{'type': 'node', 'id': 11135516234, 'lat': 33.8716132, 'lon': 118.2521064, 'tags': {'amenity': 'clinic', 'healthcare': 'clinic', 'healthcare:speciality': 'community', 'name': '三树居委会卫生室'}}"
"{'type': 'node', 'id': 11135516243, 'lat': 33.8717101, 'lon': 118.2504585, 'tags': {'amenity': 'hospital', 'healthcare': 'hospital', 'healthcare:speciality': 'community', 'name': '宿迁经济技术开发区社区卫生服务中心'}}"
"{'type': 'node', 'id': 11275452605, 'lat': 33.9482357, 'lon': 118.2502966, 'tags': {'amenity': 'clinic', 'healthcare': 'clinic', 'healthcare:speciality': 'fertility', 'name': '宿城区妇幼保健所'}}"
"{'type': 'node', 'id': 11275452628, 'lat': 33.9507674, 'lon': 118.2497291, 'tags': {'amenity': 'clinic', 'healthcare': 'clinic', 'name': '门诊'}}"
"{'type': 'node', 'id': 11279111417, 'lat': 33.9437978, 'lon': 118.2355475, 'tags': {'amenity': 'pharmacy', 'healthcare': 'pharmacy', 'name': '卫民药房'}}"
"{'type': 'node', 'id': 11374917106, 'lat': 33.939901, 'lon': 118.2358032, 'tags': {'amenity': 'clinic', 'healthcare': 'clinic', 'name': '双庄医院门诊部'}}"
"{'type': 'node', 'id': 11374917107, 'lat': 33.9429656, 'lon': 118.2355923, 'tags': {'amenity': 'clinic', 'healthcare': 'clinic', 'name': '张勇诊所'}}"
"{'type': 'node', 'id': 11653411618, 'lat': 33.9615396, 'lon': 118.211505, 'tags': {'amenity': 'clinic', 'healthcare': 'clinic', 'healthcare:speciality': 'community', 'name': '许利源诊所'}}"
"{'type': 'node', 'id': 11653411633, 'lat': 33.9628781, 'lon': 118.2113368, 'tags': {'amenity': 'pharmacy', 'healthcare': 'pharmacy', 'name': '福安堂大药房'}}"
"{'type': 'node', 'id': 11708018109, 'lat': 33.9442353, 'lon': 118.2355315, 'tags': {'amenity': 'pharmacy', 'healthcare': 'pharmacy', 'name': '长青树大药房'}}"
"{'type': 'node', 'id': 11708018112, 'lat': 33.9450795, 'lon': 118.2354569, 'tags': {'amenity': 'pharmacy', 'healthcare': 'pharmacy', 'name': '旺顺堂大药房'}}"
"{'type': 'node', 'id': 11825004123, 'lat': 33.9149014, 'lon': 118.1861242, 'tags': {'amenity': 'clinic', 'healthcare': 'clinic', 'name': '耿车中医诊所'}}"
"{'type': 'node', 'id': 11825004139, 'lat': 33.9145855, 'lon': 118.1853979, 'tags': {'amenity': 'clinic', 'healthcare': 'clinic', 'name': '耿车村卫生室'}}"
"{'type': 'node', 'id': 11891607405, 'lat': 33.9737818, 'lon': 118.1118734, 'tags': {'amenity': 'clinic', 'healthcare': 'clinic', 'name': '仝李村卫生室'}}"
"{'type': 'node', 'id': 12039453125, 'lat': 33.9500913, 'lon': 118.2430991, 'tags': {'amenity': 'clinic', 'healthcare': 'clinic', 'name': '家天下门诊部'}}"
