OSM_Data
"{'type': 'node', 'id': 287298542, 'lat': 41.9894798, 'lon': 24.0873308, 'tags': {'addr:city': 'Ракитово', 'addr:postcode': '4640', 'addr:street': 'Васил Левски', 'amenity': 'pharmacy', 'brand': 'Медея', 'brand:wikidata': 'Q108852067', 'healthcare': 'pharmacy', 'name': 'Медея', 'name:en': 'Medeya'}}"
"{'type': 'node', 'id': 1129942990, 'lat': 42.1379102, 'lon': 24.7396593, 'tags': {'amenity': 'pharmacy', 'health_facility:type': 'pharmacy', 'medical_system:western': 'yes'}}"
"{'type': 'node', 'id': 1174857047, 'lat': 42.1407249, 'lon': 24.7946538, 'tags': {'amenity': 'pharmacy', 'health_facility:type': 'pharmacy', 'healthcare': 'pharmacy', 'medical_system:western': 'yes', 'name': 'Найден 99 ЕООД', 'name:en': 'Naiden 99 Ltd.'}}"
"{'type': 'node', 'id': 1174860418, 'lat': 42.1395362, 'lon': 24.7563811, 'tags': {'amenity': 'pharmacy', 'health_facility:type': 'pharmacy', 'healthcare': 'pharmacy', 'medical_system:western': 'yes', 'name': 'Millenium', 'opening_hours': '24/7'}}"
"{'type': 'node', 'id': 1213631456, 'lat': 42.1989443, 'lon': 25.3244519, 'tags': {'amenity': 'pharmacy'}}"
"{'type': 'node', 'id': 1213631797, 'lat': 42.2003575, 'lon': 25.3294526, 'tags': {'amenity': 'pharmacy'}}"
"{'type': 'node', 'id': 1223343311, 'lat': 41.574229, 'lon': 24.7159705, 'tags': {'amenity': 'pharmacy', 'opening_hours': '24/7'}}"
"{'type': 'node', 'id': 1224505197, 'lat': 41.5766087, 'lon': 24.7071675, 'tags': {'amenity': 'hospital', 'healthcare': 'hospital', 'name': 'Стоматология', 'name:en': 'Stomatology'}}"
"{'type': 'node', 'id': 1350379920, 'lat': 42.1402549, 'lon': 24.7597836, 'tags': {'amenity': 'pharmacy', 'healthcare': 'pharmacy', 'name': 'Пълдин'}}"
"{'type': 'node', 'id': 1355261275, 'lat': 42.1862803, 'lon': 24.5682905, 'tags': {'amenity': 'pharmacy'}}"
"{'type': 'node', 'id': 1359071216, 'lat': 42.1910461, 'lon': 24.3291181, 'tags': {'amenity': 'pharmacy', 'healthcare': 'pharmacy', 'int_name': 'Pharmacy Mareshky', 'name': 'Аптека Марешки', 'wheelchair': 'limited'}}"
"{'type': 'node', 'id': 1381797563, 'lat': 42.1403133, 'lon': 24.7515136, 'tags': {'amenity': 'doctors', 'healthcare': 'doctor', 'name': 'МБАЛ ""Тримонцуим""', 'wheelchair': 'yes'}}"
"{'type': 'node', 'id': 1381797567, 'lat': 42.1402004, 'lon': 24.7513371, 'tags': {'addr:city': 'Пловдив', 'addr:housenumber': '17', 'addr:postcode': '4000', 'addr:street': 'Крали Марко', 'amenity': 'pharmacy', 'healthcare': 'pharmacy', 'name': 'Аптека Тримона', 'opening_hours': 'Mo-Fr 08:00-24:00', 'phone': '+359 32 620 401', 'wheelchair': 'yes'}}"
"{'type': 'node', 'id': 1391113308, 'lat': 42.1588682, 'lon': 24.738225, 'tags': {'amenity': 'dentist', 'healthcare': 'dentist'}}"
"{'type': 'node', 'id': 1391113319, 'lat': 42.1582729, 'lon': 24.7335027, 'tags': {'amenity': 'pharmacy', 'name': 'Ленинград', 'opening_hours': '24/7'}}"
"{'type': 'node', 'id': 1391113325, 'lat': 42.1589028, 'lon': 24.7385881, 'tags': {'amenity': 'doctors', 'healthcare': 'doctor', 'name': 'Хипократ-Н'}}"
"{'type': 'node', 'id': 1391113326, 'lat': 42.1588847, 'lon': 24.7382718, 'tags': {'amenity': 'pharmacy', 'contact:facebook': 'https://www.facebook.com/apteki366/', 'contact:phone': '+359 32 941 406', 'contact:website': 'https://366.bg/', 'healthcare': 'pharmacy', 'name': '36.6 Маджаров', 'opening_hours': 'Mo-Sa 08:00-21:00;Su 09:00-20:00', 'operator': 'RV 2007'}}"
"{'type': 'node', 'id': 1487707888, 'lat': 42.1478223, 'lon': 24.7328545, 'tags': {'amenity': 'hospital', 'emergency': 'yes', 'healthcare': 'hospital', 'name': '2-ро ДКЦ', 'toilets:wheelchair': 'yes', 'wheelchair': 'yes'}}"
"{'type': 'node', 'id': 1496406577, 'lat': 42.1448069, 'lon': 24.7559099, 'tags': {'amenity': 'pharmacy', 'brand': 'Subra', 'brand:wikidata': 'Q118120555', 'healthcare': 'pharmacy', 'name': 'Subra', 'name:bg': 'Субра', 'opening_hours': '24/7'}}"
"{'type': 'node', 'id': 1517555771, 'lat': 42.1360313, 'lon': 24.7626039, 'tags': {'amenity': 'pharmacy', 'healthcare': 'pharmacy', 'opening_hours': '24/7'}}"
"{'type': 'node', 'id': 1547586382, 'lat': 42.1261506, 'lon': 24.7335331, 'tags': {'amenity': 'pharmacy', 'brand': 'SOpharmacy', 'brand:wikidata': 'Q108852081', 'dispensing': 'yes', 'drive_through': 'no', 'healthcare': 'pharmacy', 'name': 'SOpharmacy'}}"
"{'type': 'node', 'id': 1548499320, 'lat': 42.1244257, 'lon': 24.7387587, 'tags': {'amenity': 'pharmacy', 'brand': 'Betty', 'brand:wikidata': 'Q121912842', 'healthcare': 'pharmacy', 'opening_hours': '24/7'}}"
"{'type': 'node', 'id': 1578474000, 'lat': 42.0297169, 'lon': 24.2986298, 'tags': {'amenity': 'pharmacy'}}"
"{'type': 'node', 'id': 1615898773, 'lat': 42.1286897, 'lon': 24.7803171, 'tags': {'amenity': 'pharmacy', 'contact:facebook': 'https://www.facebook.com/apteki366/', 'contact:phone': '+359 32 686 028', 'contact:website': 'https://366.bg/', 'healthcare': 'pharmacy', 'name': 'Аптека 36.6 Детски свят', 'opening_hours': 'Mo-Su 09:00-21:00', 'operator': 'ALPHARMASY'}}"
"{'type': 'node', 'id': 1619368584, 'lat': 42.1394325, 'lon': 24.736981, 'tags': {'amenity': 'hospital', 'healthcare': 'hospital', 'name': 'ДКЦ Свети Георги', 'wheelchair': 'yes'}}"
"{'type': 'node', 'id': 1798288106, 'lat': 42.1901026, 'lon': 24.3336162, 'tags': {'amenity': 'dentist', 'healthcare': 'dentist', 'wheelchair': 'limited'}}"
"{'type': 'node', 'id': 1798420740, 'lat': 42.131427, 'lon': 24.7449019, 'tags': {'amenity': 'dentist', 'healthcare': 'dentist'}}"
"{'type': 'node', 'id': 1798420765, 'lat': 42.1312958, 'lon': 24.7448337, 'tags': {'amenity': 'pharmacy', 'brand': 'Марешки', 'brand:wikidata': 'Q108852051', 'healthcare': 'pharmacy', 'name': 'Марешки', 'name:en': 'Mareshki'}}"
"{'type': 'node', 'id': 2031661421, 'lat': 42.159312, 'lon': 24.7426925, 'tags': {'amenity': 'pharmacy', 'name': 'Денонощен аптечен комплекс', 'opening_hours': '24/7', 'phone': '+359 32 953 373'}}"
"{'type': 'node', 'id': 2031661842, 'lat': 42.1610524, 'lon': 24.7415502, 'tags': {'amenity': 'pharmacy', 'brand': 'Марешки', 'brand:wikidata': 'Q108852051', 'healthcare': 'pharmacy', 'name': 'Марешки', 'name:en': 'Mareshki'}}"
"{'type': 'node', 'id': 2042338958, 'lat': 42.1435967, 'lon': 24.7589836, 'tags': {'amenity': 'dentist', 'healthcare': 'dentist'}}"
"{'type': 'node', 'id': 2147630318, 'lat': 42.1508178, 'lon': 24.7432272, 'tags': {'amenity': 'hospital', 'healthcare': 'hospital', 'name': 'Торакс', 'wheelchair': 'yes'}}"
"{'type': 'node', 'id': 2149261968, 'lat': 42.1277862, 'lon': 24.7481961, 'tags': {'amenity': 'pharmacy', 'dispensing': 'no', 'name': 'МаксФарма'}}"
"{'type': 'node', 'id': 2149261980, 'lat': 42.1304549, 'lon': 24.7512063, 'tags': {'amenity': 'pharmacy', 'dispensing': 'no'}}"
"{'type': 'node', 'id': 2387114181, 'lat': 42.1364585, 'lon': 24.7560076, 'tags': {'amenity': 'pharmacy', 'healthcare': 'pharmacy'}}"
"{'type': 'node', 'id': 2994732806, 'lat': 42.1318615, 'lon': 24.7140247, 'tags': {'addr:housename': 'Аптека - 31', 'addr:housenumber': '6', 'addr:postcode': '4001', 'addr:street': 'Солунска', 'amenity': 'pharmacy', 'name': 'Аптека - 31'}}"
"{'type': 'node', 'id': 2995826150, 'lat': 42.1323054, 'lon': 24.7026967, 'tags': {'amenity': 'pharmacy'}}"
"{'type': 'node', 'id': 2995831769, 'lat': 42.1311198, 'lon': 24.7028362, 'tags': {'amenity': 'pharmacy'}}"
"{'type': 'node', 'id': 3005693384, 'lat': 42.1333289, 'lon': 24.7122392, 'tags': {'amenity': 'pharmacy'}}"
"{'type': 'node', 'id': 3057601128, 'lat': 41.5805115, 'lon': 24.6869111, 'tags': {'amenity': 'pharmacy', 'healthcare': 'pharmacy'}}"
"{'type': 'node', 'id': 3158451160, 'lat': 42.2002301, 'lon': 25.3278611, 'tags': {'amenity': 'pharmacy'}}"
"{'type': 'node', 'id': 3268035932, 'lat': 40.935769, 'lon': 24.4069879, 'tags': {'addr:city': 'Καβάλα', 'addr:housenumber': '9', 'addr:postcode': '65403', 'addr:street': 'Φιλικής Εταιρείας', 'amenity': 'pharmacy', 'healthcare': 'pharmacy', 'name': 'Τσιρκινίδου Σοφία', 'phone': '+302510222014'}}"
"{'type': 'node', 'id': 3268045522, 'lat': 40.9359363, 'lon': 24.4088618, 'tags': {'addr:city': 'Καβάλα', 'addr:housenumber': '1', 'addr:postcode': '65403', 'addr:street': 'Φιλικής Εταιρείας', 'amenity': 'pharmacy', 'healthcare': 'pharmacy', 'name': 'Μελίδου Χιτοπούλα', 'phone': '+302510832484'}}"
"{'type': 'node', 'id': 3268048861, 'lat': 40.936056, 'lon': 24.4088822, 'tags': {'addr:city': 'Καβάλα', 'addr:housenumber': '2Α', 'addr:postcode': '65403', 'addr:street': 'Φιλικής Εταιρείας', 'amenity': 'pharmacy', 'healthcare': 'pharmacy', 'name': 'Τσιλογεώργης Σωτήριος', 'phone': '+302510227610'}}"
"{'type': 'node', 'id': 3270051751, 'lat': 40.9358465, 'lon': 24.4077275, 'tags': {'addr:city': 'Καβάλα', 'addr:housenumber': '5', 'addr:postcode': '65403', 'addr:street': 'Φιλικής Εταιρείας', 'amenity': 'pharmacy', 'healthcare': 'pharmacy', 'name': 'Μπανιώτης Χρήστος'}}"
"{'type': 'node', 'id': 3270051752, 'lat': 40.9358435, 'lon': 24.4076873, 'tags': {'addr:city': 'Καβάλα', 'addr:postcode': '65403', 'addr:street': 'Φιλικής Εταιρείας', 'amenity': 'pharmacy', 'healthcare': 'pharmacy', 'name': 'Μπούλη Άννα'}}"
"{'type': 'node', 'id': 3278006645, 'lat': 40.9361729, 'lon': 24.4069941, 'tags': {'addr:city': 'Καβάλα', 'addr:housenumber': '10', 'addr:postcode': '65403', 'addr:street': 'Μητροπόλεως', 'amenity': 'pharmacy', 'healthcare': 'pharmacy', 'name': 'Αντωνιάδου Θεοδώρα', 'phone': '+302510221996'}}"
"{'type': 'node', 'id': 3278010928, 'lat': 40.9362, 'lon': 24.408349, 'tags': {'addr:city': 'Καβάλα', 'addr:housenumber': '6', 'addr:street': 'Μητροπολίτου Χρυσοστόμου', 'amenity': 'pharmacy', 'healthcare': 'pharmacy', 'name': 'Ζαμπούλης Βασίλης', 'phone': '+302510229257'}}"
"{'type': 'node', 'id': 3278059520, 'lat': 40.9360288, 'lon': 24.4084821, 'tags': {'addr:city': 'Καβάλα', 'addr:housenumber': '4', 'addr:postcode': '65403', 'addr:street': 'Φιλικής Εταιρείας', 'amenity': 'pharmacy', 'healthcare': 'pharmacy', 'name': 'Κοκκινάκη Ελένη', 'phone': '+302510620027'}}"
"{'type': 'node', 'id': 3278060967, 'lat': 40.9369013, 'lon': 24.4093058, 'tags': {'addr:city': 'Καβάλα', 'addr:housenumber': '2', 'addr:postcode': '65302', 'addr:street': 'Αβέρωφ', 'amenity': 'pharmacy', 'healthcare': 'pharmacy', 'name': 'Γουργιώτης Δημήτριος', 'phone': '+302510222798'}}"
"{'type': 'node', 'id': 3282470907, 'lat': 40.9369772, 'lon': 24.4067738, 'tags': {'addr:city': 'Καβάλα', 'addr:housenumber': '30Α', 'addr:postcode': '65403', 'addr:street': 'Ελευθερίου Βενιζέλου', 'amenity': 'pharmacy', 'healthcare': 'pharmacy', 'name': 'Πατεράκη Μαρία - Τούλη Κωνσταντίνα', 'phone': '+302510223750'}}"
"{'type': 'node', 'id': 3284704144, 'lat': 40.9371493, 'lon': 24.4094043, 'tags': {'addr:city': 'Καβάλα', 'addr:housenumber': '28', 'addr:postcode': '65302', 'addr:street': 'Ελευθερίου Βενιζέλου', 'amenity': 'pharmacy', 'healthcare': 'pharmacy', 'name': 'Γεωργιάδου Γεωργία - Σαρλότ'}}"
"{'type': 'node', 'id': 3285718961, 'lat': 40.9369576, 'lon': 24.4051446, 'tags': {'addr:city': 'Καβάλα', 'addr:housenumber': '34', 'addr:postcode': '65403', 'addr:street': 'Ελευθερίου Βενιζέλου', 'amenity': 'pharmacy', 'healthcare': 'pharmacy', 'name': 'Τάτση Χριστίνα', 'phone': '+302510222408'}}"
"{'type': 'node', 'id': 3285862006, 'lat': 40.9369151, 'lon': 24.4062357, 'tags': {'addr:city': 'Καβάλα', 'addr:housenumber': '30Γ', 'addr:postcode': '65403', 'addr:street': 'Ελευθερίου Βενιζέλου', 'amenity': 'pharmacy', 'healthcare': 'pharmacy', 'name': 'Σεραφειμίδης Χαράλαμπος', 'phone': '+302510223733'}}"
"{'type': 'node', 'id': 3285867950, 'lat': 40.9369543, 'lon': 24.4056035, 'tags': {'addr:city': 'Καβάλα', 'addr:housenumber': '32', 'addr:postcode': '65403', 'addr:street': 'Ελευθερίου Βενιζέλου', 'amenity': 'pharmacy', 'healthcare': 'pharmacy', 'name': 'Γεωργιάδης Χαράλαμπος - Μικαέλα Βασιλική Γεωργιάδου', 'phone': '+302510836640'}}"
"{'type': 'node', 'id': 3290140246, 'lat': 40.9361405, 'lon': 24.4018852, 'tags': {'addr:city': 'Καβάλα', 'addr:housenumber': '1', 'addr:postcode': '65403', 'addr:street': 'Βελισσαρίου', 'amenity': 'clinic', 'healthcare': 'clinic', 'name': 'Κλινική Λητώ', 'phone': '+302510228555', 'website': 'https://www.kliniki-lito.gr/'}}"
"{'type': 'node', 'id': 3292543677, 'lat': 40.9397936, 'lon': 24.407653, 'tags': {'addr:city': 'Καβάλα', 'addr:housenumber': '30', 'addr:postcode': '65403', 'addr:street': 'Δαγκλή', 'amenity': 'pharmacy', 'healthcare': 'pharmacy', 'name': 'Ζάννας Ζήσης', 'phone': '+302510227683'}}"
"{'type': 'node', 'id': 3292609438, 'lat': 40.9366991, 'lon': 24.4127071, 'tags': {'addr:city': 'Καβάλα', 'addr:housenumber': '20', 'addr:postcode': '65302', 'addr:street': 'Δοϊράνης', 'amenity': 'pharmacy', 'healthcare': 'pharmacy', 'name': 'Καρεμφύλη Σοφία', 'phone': '+302510222251'}}"
"{'type': 'node', 'id': 3294005274, 'lat': 40.9367512, 'lon': 24.4039922, 'tags': {'addr:city': 'Καβάλα', 'addr:housenumber': '55', 'addr:postcode': '65403', 'addr:street': 'Ελευθερίου Βενιζέλου', 'amenity': 'pharmacy', 'healthcare': 'pharmacy', 'name': 'Κουσουλίδου Τζούλια', 'phone': '+302510833803'}}"
"{'type': 'node', 'id': 3296803917, 'lat': 40.9359999, 'lon': 24.4140236, 'tags': {'addr:city': 'Καβάλα', 'addr:housenumber': '20', 'addr:postcode': '65201', 'addr:street': 'Κουντουριώτου', 'amenity': 'pharmacy', 'healthcare': 'pharmacy', 'name': 'Γεωργιάδου Ναζλού', 'phone': '+302510837812'}}"
"{'type': 'node', 'id': 3298148757, 'lat': 40.9402325, 'lon': 24.4034313, 'tags': {'addr:city': 'Καβάλα', 'amenity': 'pharmacy', 'healthcare': 'pharmacy', 'operator': 'Αναστασία Νικολαϊδου', 'phone': '+302510223619'}}"
"{'type': 'node', 'id': 3302287955, 'lat': 40.9362897, 'lon': 24.4065849, 'tags': {'addr:city': 'Καβάλα', 'addr:housenumber': '11', 'addr:postcode': '65403', 'addr:street': 'Ερυθρού Σταυρού', 'amenity': 'pharmacy', 'healthcare': 'pharmacy', 'name': 'Εμμανουηλίδης Σπυρίδων', 'phone': '+302510221700'}}"
"{'type': 'node', 'id': 3303954014, 'lat': 40.936877, 'lon': 24.409928, 'tags': {'addr:city': 'Καβάλα', 'addr:housenumber': '33', 'addr:postcode': '65302', 'addr:street': 'Ελευθερίου Βενιζέλου', 'amenity': 'pharmacy', 'healthcare': 'pharmacy', 'name': 'Σκλάβη - Λίτση Αγλαΐα'}}"
"{'type': 'node', 'id': 3305938312, 'lat': 40.9363843, 'lon': 24.3961649, 'tags': {'addr:city': 'Καβάλα', 'addr:housenumber': '50', 'addr:postcode': '65403', 'addr:street': 'Βουλγαροκτόνου', 'amenity': 'pharmacy', 'healthcare': 'pharmacy', 'name': 'Μαρκάτου Παρασκευή', 'phone': '+302510250944'}}"
"{'type': 'node', 'id': 3307252661, 'lat': 40.9378842, 'lon': 24.4100148, 'tags': {'addr:city': 'Καβάλα', 'addr:housenumber': '27', 'addr:postcode': '65302', 'addr:street': 'Μεγάλου Αλεξάνδρου', 'amenity': 'pharmacy', 'healthcare': 'pharmacy', 'name': 'Χατζηκυριάκος Χαράλαμπος', 'phone': '+302510836231'}}"
"{'type': 'node', 'id': 3307259856, 'lat': 40.9383467, 'lon': 24.411318, 'tags': {'addr:city': 'Καβάλα', 'addr:housenumber': '70', 'addr:street': 'Ομόνοιας', 'amenity': 'pharmacy', 'healthcare': 'pharmacy', 'name': 'Ρακιτζή Σίσσυ - Παπαφωτίου Γεώργιος', 'phone': '+302510228706'}}"
"{'type': 'node', 'id': 3307615635, 'lat': 40.9391414, 'lon': 24.4070445, 'tags': {'addr:city': 'Καβάλα', 'addr:housenumber': '22', 'addr:postcode': '65403', 'addr:street': 'Δαγκλή', 'amenity': 'pharmacy', 'healthcare': 'pharmacy', 'name': 'Κοντονίκου Μαρία', 'phone': '+302510839259'}}"
"{'type': 'node', 'id': 3307630367, 'lat': 40.9394504, 'lon': 24.4083309, 'tags': {'addr:city': 'Καβάλα', 'addr:housenumber': '127', 'addr:postcode': '65403', 'addr:street': 'Ομόνοιας', 'amenity': 'pharmacy', 'healthcare': 'pharmacy', 'name': 'Νούλα - Τσελέπη Αικατερίνη', 'phone': '+302510222860'}}"
"{'type': 'node', 'id': 3309423261, 'lat': 40.9630026, 'lon': 24.3593483, 'tags': {'amenity': 'pharmacy', 'healthcare': 'pharmacy'}}"
"{'type': 'node', 'id': 3312916616, 'lat': 40.9364465, 'lon': 24.4087636, 'tags': {'addr:city': 'Καβάλα', 'addr:housenumber': '1', 'addr:postcode': '65403', 'addr:street': 'Ερυθρού Σταυρού', 'amenity': 'pharmacy', 'healthcare': 'pharmacy', 'name': 'Πασχαλίδου Κωνσταντίνα', 'phone': '+302510836902'}}"
"{'type': 'node', 'id': 3337336513, 'lat': 40.9356547, 'lon': 24.4018247, 'tags': {'amenity': 'pharmacy', 'healthcare': 'pharmacy', 'name': 'Αναστασιάδη Αντιγόνη', 'phone': '+302510838800'}}"
"{'type': 'node', 'id': 3337337892, 'lat': 40.9351052, 'lon': 24.3968624, 'tags': {'addr:city': 'Καβάλα', 'addr:housenumber': '18', 'addr:postcode': '65403', 'addr:street': 'Χρυσοστόμου Σμύρνης', 'amenity': 'pharmacy', 'healthcare': 'pharmacy', 'name': 'Κουρτσοπούλου Άννα - Μαρία', 'phone': '+302510250371'}}"
"{'type': 'node', 'id': 3338535162, 'lat': 40.9373976, 'lon': 24.4107699, 'tags': {'amenity': 'pharmacy', 'healthcare': 'pharmacy', 'name': 'Μανάφη Αναστασία - Μανάφη Στεφανία'}}"
"{'type': 'node', 'id': 3357347872, 'lat': 42.1490659, 'lon': 24.7501551, 'tags': {'amenity': 'hospital', 'emergency': 'yes', 'name': '4D Medical Д-р Троянчев Фетална морфология'}}"
"{'type': 'node', 'id': 3359215756, 'lat': 42.1471228, 'lon': 25.2025686, 'tags': {'amenity': 'hospital', 'name': 'Здравна служба'}}"
"{'type': 'node', 'id': 3370858874, 'lat': 40.9402914, 'lon': 24.3933932, 'tags': {'addr:city': 'Καβάλα', 'addr:housenumber': '90', 'addr:street': 'Εβδόμης Μεραρχίας', 'amenity': 'pharmacy', 'healthcare': 'pharmacy', 'name': 'Δουκούρη Παναγιώτα', 'phone': '+302510247173'}}"
"{'type': 'node', 'id': 3399662437, 'lat': 41.1956103, 'lon': 24.7038598, 'tags': {'addr:city': 'Σταυρούπολη', 'addr:postcode': '67062', 'amenity': 'hospital', 'healthcare': 'hospital', 'name': 'Κέντρο Υγείας Σταυρούπολης', 'name:el': 'Κέντρο Υγείας Σταυρούπολης', 'name:en': 'Stavroupoli Health Center', 'phone': '+302542350000'}}"
"{'type': 'node', 'id': 3409112456, 'lat': 40.9102994, 'lon': 24.2528774, 'tags': {'addr:city': 'Ελευθερούπολη', 'addr:housenumber': '73', 'addr:postcode': '64100', 'addr:street': 'Εγνατίας', 'amenity': 'clinic', 'healthcare': 'clinic', 'healthcare:speciality': 'general;cardiology;pediatrics;dentist', 'name': 'Κέντρο Υγείας Ελευθερούπολης', 'name:el': 'Κέντρο Υγείας Ελευθερούπολης', 'name:en': 'Eleftheroupoli health center', 'phone': '+302592350100'}}"
"{'type': 'node', 'id': 3411588545, 'lat': 40.9392618, 'lon': 24.3984961, 'tags': {'addr:city': 'Καβάλα', 'addr:housenumber': '27', 'addr:postcode': '65403', 'addr:street': 'Υψηλάντου', 'amenity': 'pharmacy', 'healthcare': 'pharmacy', 'name': 'Χαραλαμπίδης Χαράλαμπος', 'phone': '+302510833652'}}"
"{'type': 'node', 'id': 3426383518, 'lat': 40.9358527, 'lon': 24.4078198, 'tags': {'addr:city': 'Καβάλα', 'addr:housenumber': '5', 'addr:postcode': '65403', 'addr:street': 'Φιλικής Εταιρείας', 'amenity': 'doctors', 'healthcare': 'laboratory', 'healthcare:speciality': 'microbiology', 'level': '1', 'name': 'Χάρης Καραχριστιανίδης', 'name:el': 'Χάρης Καραχριστιανίδης', 'name:en': 'Haris Karachristianidis', 'opening_hours': 'Mo, Tu 07:30-14:00, 18:00-20:00; We 07:30-14:00; Th, Fr 07:30-14:00, 18:00-20:00; PH off', 'operator': 'Χάρης Καραχριστιανίδης', 'payment:american_express': 'no', 'payment:cash': 'yes', 'payment:maestro': 'yes', 'payment:mastercard': 'yes', 'payment:visa': 'yes', 'phone': '+302510620630', 'start_date': '2005', 'website': 'https://www.mikroviologos.gr'}}"
"{'type': 'node', 'id': 3439828787, 'lat': 40.937202, 'lon': 24.401076, 'tags': {'addr:city': 'Καβάλα', 'addr:housenumber': '36', 'addr:street': 'Κομνηνών', 'amenity': 'pharmacy', 'healthcare': 'pharmacy', 'name': 'Βλυσνάκη Μιρέλλα'}}"
"{'type': 'node', 'id': 3444605927, 'lat': 40.9377703, 'lon': 24.4119557, 'tags': {'addr:city': 'Καβάλα', 'addr:housenumber': '73', 'addr:street': 'Ομόνοιας', 'amenity': 'pharmacy', 'healthcare': 'pharmacy', 'name': 'Αργυρόπουλος Οδυσσέας', 'phone': '+302510223156'}}"
"{'type': 'node', 'id': 3455596911, 'lat': 40.9385949, 'lon': 24.3953785, 'tags': {'addr:city': 'Καβάλα', 'addr:housenumber': '58', 'addr:postcode': '65403', 'addr:street': 'Εβδόμης Μεραρχίας', 'amenity': 'pharmacy', 'healthcare': 'pharmacy', 'name': 'Κρυονερίτου Ζωή', 'phone': '+302510243751'}}"
"{'type': 'node', 'id': 3457037469, 'lat': 41.7425832, 'lon': 24.3986555, 'tags': {'amenity': 'pharmacy', 'healthcare': 'pharmacy'}}"
"{'type': 'node', 'id': 3457039519, 'lat': 41.7432577, 'lon': 24.398067, 'tags': {'amenity': 'pharmacy', 'name': 'Диове фарм'}}"
"{'type': 'node', 'id': 3457041856, 'lat': 41.7429201, 'lon': 24.394068, 'tags': {'amenity': 'pharmacy'}}"
"{'type': 'node', 'id': 3478807961, 'lat': 40.9374197, 'lon': 24.4106289, 'tags': {'addr:city': 'Καβάλα', 'addr:postcode': '65302', 'addr:street': 'Παύλου Μελά', 'amenity': 'pharmacy', 'healthcare': 'pharmacy', 'name': 'Καμάμη Ανδρομάχη', 'phone': '+302510220042'}}"
"{'type': 'node', 'id': 3521736264, 'lat': 40.9390467, 'lon': 24.4093079, 'tags': {'addr:city': 'Καβάλα', 'addr:housenumber': '94', 'addr:postcode': '65302', 'addr:street': 'Ομονοίας', 'amenity': 'pharmacy', 'healthcare': 'pharmacy', 'name': 'Μαντζουράνη Ιάσμη', 'phone': '+302510224517'}}"
"{'type': 'node', 'id': 3530912708, 'lat': 40.9364165, 'lon': 24.4124033, 'tags': {'addr:city': 'Καβάλα', 'addr:housenumber': '3', 'addr:postcode': '65302', 'addr:street': 'Ύδρας', 'amenity': 'pharmacy', 'healthcare': 'pharmacy', 'name': 'Κραββαρίτης Αθανάσιος', 'phone': '+302510226813'}}"
"{'type': 'node', 'id': 3531789137, 'lat': 42.1354896, 'lon': 24.742714, 'tags': {'amenity': 'pharmacy', 'healthcare': 'pharmacy', 'level': '0', 'name': 'Адонис', 'name:en': 'Adonis', 'name:pl': 'Adonis', 'opening_hours': 'Mo-Su 06:00-01:00', 'wheelchair': 'yes'}}"
"{'type': 'node', 'id': 3562936701, 'lat': 42.1307203, 'lon': 24.7495556, 'tags': {'amenity': 'pharmacy', 'name': '36.6'}}"
"{'type': 'node', 'id': 3562936702, 'lat': 42.1308342, 'lon': 24.750882, 'tags': {'amenity': 'pharmacy', 'brand': 'Марешки', 'brand:wikidata': 'Q108852051', 'healthcare': 'pharmacy', 'name': 'Марешки', 'name:en': 'Mareshki'}}"
"{'type': 'node', 'id': 3563692651, 'lat': 42.122214, 'lon': 24.7466939, 'tags': {'amenity': 'hospital', 'name': 'МБАЛ Св. Каридад'}}"
"{'type': 'node', 'id': 3598793504, 'lat': 40.9362249, 'lon': 24.3997313, 'tags': {'addr:city': 'Καβάλα', 'addr:housenumber': '7', 'addr:postcode': '65403', 'addr:street': '7ης Μεραρχίας', 'amenity': 'pharmacy', 'healthcare': 'pharmacy', 'name': 'Καλπάκης Σπυρίδων', 'phone': '+302510246006'}}"
"{'type': 'node', 'id': 3676255850, 'lat': 42.1449547, 'lon': 24.7502038, 'tags': {'addr:city': 'Пловдив', 'addr:country': 'BG', 'addr:housenumber': '26', 'addr:postcode': '4000', 'addr:street': 'Отец Паисий', 'amenity': 'pharmacy', 'contact:phone': '+359 88 584 8828', 'contact:website': 'http://www.gustobg.com/', 'delivery': 'yes', 'healthcare': 'pharmacy', 'int_name': 'Avenue', 'name': 'Авеню', 'wheelchair': 'no'}}"
"{'type': 'node', 'id': 3679241173, 'lat': 41.5051555, 'lon': 24.7313379, 'tags': {'amenity': 'doctors', 'healthcare': 'doctor', 'name': 'Здравпункт'}}"
"{'type': 'node', 'id': 3803708365, 'lat': 41.151303, 'lon': 24.1470278, 'tags': {'addr:city': 'Δράμα', 'addr:housenumber': '20', 'addr:postcode': '66100', 'addr:street': 'Λαμπριανίδου', 'amenity': 'pharmacy', 'healthcare': 'pharmacy', 'name': 'Γιακουμής'}}"
"{'type': 'node', 'id': 3804004663, 'lat': 41.150791, 'lon': 24.1498821, 'tags': {'addr:housenumber': '40', 'addr:street': 'Γεωργίου Παπανδρέου', 'amenity': 'pharmacy', 'healthcare': 'pharmacy', 'name': 'Φαντής'}}"
"{'type': 'node', 'id': 3804874748, 'lat': 41.1505956, 'lon': 24.1479557, 'tags': {'addr:city': 'Δράμα', 'addr:housenumber': '2', 'addr:postcode': '66100', 'addr:street': 'Παππά Εμμανουήλ', 'amenity': 'pharmacy', 'healthcare': 'pharmacy', 'name': 'Σεφερίδου Μελισσινού Μαρία Σ.'}}"
"{'type': 'node', 'id': 3804880457, 'lat': 41.1502706, 'lon': 24.1471537, 'tags': {'addr:street': 'Πλατεία Ελευθερίας', 'amenity': 'pharmacy', 'healthcare': 'pharmacy', 'name': 'Παπαθεοδώρου U.'}}"
"{'type': 'node', 'id': 3804905517, 'lat': 41.1503607, 'lon': 24.1455883, 'tags': {'addr:street': 'Ελευθερίου Βενιζέλου', 'amenity': 'pharmacy', 'healthcare': 'pharmacy', 'name': 'Καραμπουγιουκίδη'}}"
"{'type': 'node', 'id': 3805528523, 'lat': 41.1495004, 'lon': 24.148543, 'tags': {'addr:city': 'Δράμα', 'addr:housenumber': '49', 'addr:postcode': '66100', 'addr:street': 'Βεργίνας', 'amenity': 'pharmacy', 'healthcare': 'pharmacy', 'name': 'Χριστόπουλος Στέργιος'}}"
"{'type': 'node', 'id': 3805536160, 'lat': 41.1498915, 'lon': 24.1477906, 'tags': {'addr:housenumber': '26-28', 'addr:street': 'Βεργίνας', 'amenity': 'pharmacy', 'healthcare': 'pharmacy', 'name': 'Γιώργος Οικονόμου'}}"
"{'type': 'node', 'id': 3805539322, 'lat': 41.1499809, 'lon': 24.1476828, 'tags': {'addr:city': 'Δράμα', 'addr:housenumber': '2', 'addr:postcode': '66100', 'addr:street': 'Γεωργίου Παπανδρέου', 'amenity': 'pharmacy', 'healthcare': 'pharmacy', 'name': 'Ζαχαριάδου - Μαντιού'}}"
"{'type': 'node', 'id': 3805565673, 'lat': 41.1515281, 'lon': 24.1475025, 'tags': {'addr:city': 'Δράμα', 'addr:housenumber': '37', 'addr:postcode': '66100', 'addr:street': 'Αγαμέμνονος', 'amenity': 'pharmacy', 'healthcare': 'pharmacy', 'name': 'Γεώργιος Παπαδόπουλος'}}"
"{'type': 'node', 'id': 3805565675, 'lat': 41.1517436, 'lon': 24.1474791, 'tags': {'addr:housenumber': '6', 'amenity': 'clinic', 'healthcare': 'clinic', 'name': 'Παναγία'}}"
"{'type': 'node', 'id': 3805565676, 'lat': 41.1517265, 'lon': 24.14755, 'tags': {'addr:housenumber': '4', 'addr:street': 'Ερυθρού Σταυρού', 'amenity': 'pharmacy', 'healthcare': 'pharmacy', 'name': 'Καζη'}}"
"{'type': 'node', 'id': 3805627895, 'lat': 41.1510998, 'lon': 24.1475447, 'tags': {'addr:city': 'Δράμα', 'addr:housenumber': '4Α', 'addr:postcode': '66100', 'addr:street': 'Πτολεμαίων', 'amenity': 'pharmacy', 'healthcare': 'pharmacy', 'name': 'Λεμονίδης'}}"
"{'type': 'node', 'id': 3805647978, 'lat': 41.1507739, 'lon': 24.1487782, 'tags': {'amenity': 'pharmacy', 'healthcare': 'pharmacy', 'name': 'Γ. Π. Θεοδοσίου'}}"
"{'type': 'node', 'id': 3805653553, 'lat': 41.1505304, 'lon': 24.1491584, 'tags': {'amenity': 'pharmacy', 'healthcare': 'pharmacy', 'name': 'Σοφία Τζέλη - Δεληγιώργη'}}"
"{'type': 'node', 'id': 3805674704, 'lat': 41.1493678, 'lon': 24.148194, 'tags': {'amenity': 'pharmacy', 'healthcare': 'pharmacy', 'name': 'Πέτρου Π. Δίγλα'}}"
"{'type': 'node', 'id': 3805726522, 'lat': 41.1498244, 'lon': 24.1473922, 'tags': {'amenity': 'pharmacy', 'healthcare': 'pharmacy', 'name': 'Σιδηρόπουλου Φρόσω'}}"
"{'type': 'node', 'id': 3813862429, 'lat': 41.1504435, 'lon': 24.1505669, 'tags': {'addr:housenumber': '30', 'amenity': 'pharmacy', 'healthcare': 'pharmacy', 'name': 'Ζουρνατζόγλου Γεώργιος'}}"
"{'type': 'node', 'id': 3815457909, 'lat': 41.1521475, 'lon': 24.1480035, 'tags': {'addr:city': 'Δράμα', 'addr:housenumber': '17', 'addr:postcode': '66100', 'addr:street': 'Παλαιολόγου Κωνσταντίνου', 'amenity': 'pharmacy', 'healthcare': 'pharmacy', 'name': 'Κωνσταντίνος Στέφου'}}"
"{'type': 'node', 'id': 3815457910, 'lat': 41.1513164, 'lon': 24.1483844, 'tags': {'addr:city': 'Δράμα', 'addr:housenumber': '40', 'addr:street': 'Άρμεν', 'amenity': 'pharmacy', 'healthcare': 'pharmacy', 'name': 'Βαρανού Αικατερίνη'}}"
"{'type': 'node', 'id': 3815457912, 'lat': 41.1518011, 'lon': 24.147622, 'tags': {'amenity': 'pharmacy', 'healthcare': 'pharmacy', 'name': 'Δήμητρα Σπυροπούλου'}}"
"{'type': 'node', 'id': 3815457913, 'lat': 41.151434, 'lon': 24.1485297, 'tags': {'addr:city': 'Δράμα', 'addr:housenumber': '46', 'addr:postcode': '66100', 'addr:street': 'Άρμεν', 'amenity': 'pharmacy', 'healthcare': 'pharmacy', 'name': 'Τσαπακίδου Δέσποινα'}}"
"{'type': 'node', 'id': 3815457916, 'lat': 41.1517161, 'lon': 24.1484343, 'tags': {'addr:city': 'Δράμα', 'addr:housenumber': '5', 'addr:postcode': '66100', 'addr:street': 'Φωκίωνος', 'amenity': 'pharmacy', 'healthcare': 'pharmacy', 'name': 'Σοφία Χατζηθεοδωρίδου Σεμερτζίδου'}}"
"{'type': 'node', 'id': 3815457917, 'lat': 41.1512131, 'lon': 24.1482704, 'tags': {'amenity': 'pharmacy', 'healthcare': 'pharmacy'}}"
"{'type': 'node', 'id': 3815858459, 'lat': 41.1508864, 'lon': 24.1481234, 'tags': {'addr:city': 'Δράμα', 'addr:housenumber': '49', 'addr:postcode': '66100', 'addr:street': 'Γεωργίου Ζερβού', 'amenity': 'pharmacy', 'healthcare': 'pharmacy', 'name': 'Σαλτίδου Γ. Αναστασία'}}"
"{'type': 'node', 'id': 3815862384, 'lat': 41.1510097, 'lon': 24.1477637, 'tags': {'amenity': 'pharmacy', 'healthcare': 'pharmacy', 'name': 'Αλεξιάδης'}}"
"{'type': 'node', 'id': 3816609218, 'lat': 42.1407394, 'lon': 24.7553425, 'tags': {'amenity': 'pharmacy', 'name': 'Delta', 'opening_hours': 'Mo-Su 08:00-23:00'}}"
"{'type': 'node', 'id': 3816615531, 'lat': 42.1450406, 'lon': 24.7566756, 'tags': {'amenity': 'pharmacy', 'healthcare': 'pharmacy', 'name': 'Авеню'}}"
"{'type': 'node', 'id': 3816615541, 'lat': 42.1444909, 'lon': 24.7665924, 'tags': {'amenity': 'pharmacy', 'name': 'Гален'}}"
"{'type': 'node', 'id': 3816615559, 'lat': 42.1407557, 'lon': 24.7628419, 'tags': {'amenity': 'pharmacy', 'brand': 'Фрамар', 'brand:wikidata': 'Q108852095', 'healthcare': 'pharmacy', 'name': 'Фрамар', 'name:en': 'Framar', 'opening_hours': '24/7'}}"
"{'type': 'node', 'id': 3816770642, 'lat': 42.1533804, 'lon': 24.7620494, 'tags': {'amenity': 'pharmacy', 'contact:facebook': 'https://www.facebook.com/apteki366/', 'contact:phone': '+359 32 207 150', 'contact:website': 'https://366.bg/', 'healthcare': 'pharmacy', 'name': 'Аптека 36.6 Билла Марица', 'opening_hours': '09:00-21:00', 'operator': 'RV 2007'}}"
"{'type': 'node', 'id': 3817108196, 'lat': 42.1422731, 'lon': 24.7333965, 'tags': {'amenity': 'pharmacy', 'check_date': '2021', 'healthcare': 'pharmacy', 'name': 'Аптека Мальовица', 'opening_hours': '24/7'}}"
"{'type': 'node', 'id': 3821331316, 'lat': 42.1420088, 'lon': 24.756372, 'tags': {'amenity': 'pharmacy', 'drive_through': 'no', 'healthcare': 'pharmacy', 'name': 'Argentinum'}}"
"{'type': 'node', 'id': 3821331355, 'lat': 42.1454252, 'lon': 24.7604041, 'tags': {'amenity': 'dentist', 'healthcare': 'dentist'}}"
"{'type': 'node', 'id': 3826154205, 'lat': 41.1495236, 'lon': 24.1518059, 'tags': {'amenity': 'pharmacy', 'healthcare': 'pharmacy', 'name': 'Λαμπριανίδη Θ. Αναστασίου'}}"
"{'type': 'node', 'id': 3826664396, 'lat': 41.153021, 'lon': 24.1467812, 'tags': {'addr:housenumber': '117', 'addr:street': 'Μεγάλου Αλεξάνδρου', 'amenity': 'pharmacy', 'healthcare': 'pharmacy', 'name': 'Χρυσάφη Κατερίνα'}}"
"{'type': 'node', 'id': 3829334677, 'lat': 42.1467385, 'lon': 24.7546952, 'tags': {'amenity': 'pharmacy', 'healthcare': 'pharmacy'}}"
"{'type': 'node', 'id': 3829334697, 'lat': 42.149364, 'lon': 24.7560894, 'tags': {'amenity': 'pharmacy'}}"
"{'type': 'node', 'id': 3829334716, 'lat': 42.1502988, 'lon': 24.7551375, 'tags': {'amenity': 'dentist', 'healthcare': 'dentist'}}"
"{'type': 'node', 'id': 3829334755, 'lat': 42.1522794, 'lon': 24.7563124, 'tags': {'amenity': 'pharmacy', 'name': 'Гален'}}"
"{'type': 'node', 'id': 3835973215, 'lat': 42.2047958, 'lon': 24.1350125, 'tags': {'amenity': 'pharmacy'}}"
"{'type': 'node', 'id': 3841520954, 'lat': 42.1431862, 'lon': 24.7466159, 'tags': {'amenity': 'dentist', 'healthcare': 'dentist'}}"
"{'type': 'node', 'id': 3841521109, 'lat': 42.1438085, 'lon': 24.7494279, 'tags': {'addr:housenumber': '6', 'addr:street': 'ген. Гурко', 'amenity': 'pharmacy', 'check_date': '2023-05-21', 'contact:facebook': 'https://www.facebook.com/apteki366/', 'contact:phone': '+359 32 262 035', 'contact:website': 'https://366.bg/', 'healthcare': 'pharmacy', 'internet_access': 'no', 'name': 'Аптека 36.6 Център', 'opening_hours': 'Mo-Su 09:00-21:00', 'operator': 'Фарматрейдинг ЕООД', 'payment:credit_cards': 'yes', 'payment:debit_cards': 'yes', 'wheelchair': 'no'}}"
"{'type': 'node', 'id': 3841534927, 'lat': 41.1423849, 'lon': 24.148738, 'tags': {'amenity': 'pharmacy', 'healthcare': 'pharmacy', 'name': 'Κατερίνα Καλαϊτζίδου'}}"
"{'type': 'node', 'id': 3854085753, 'lat': 41.1493504, 'lon': 24.146648, 'tags': {'amenity': 'pharmacy', 'healthcare': 'pharmacy'}}"
"{'type': 'node', 'id': 3854085754, 'lat': 41.1491276, 'lon': 24.1458786, 'tags': {'addr:city': 'Δράμα', 'addr:housenumber': '12', 'addr:postcode': '66100', 'addr:street': 'Κύπρου', 'amenity': 'pharmacy', 'healthcare': 'pharmacy', 'name': 'Σωτηριάδης'}}"
"{'type': 'node', 'id': 3854085756, 'lat': 41.1512499, 'lon': 24.1463232, 'tags': {'amenity': 'pharmacy', 'healthcare': 'pharmacy'}}"
"{'type': 'node', 'id': 3854090064, 'lat': 41.1484568, 'lon': 24.1448129, 'tags': {'addr:city': 'Δράμα', 'addr:postcode': '66100', 'addr:street': 'Βίτσι', 'amenity': 'pharmacy', 'healthcare': 'pharmacy', 'name': 'Πηγάδα Τζέγα Ευδοκία / Ελένη'}}"
"{'type': 'node', 'id': 3857076961, 'lat': 42.1480566, 'lon': 24.7477257, 'tags': {'amenity': 'pharmacy', 'healthcare': 'pharmacy', 'name': 'Джумаята'}}"
"{'type': 'node', 'id': 3858637183, 'lat': 42.0779332, 'lon': 24.7555329, 'tags': {'amenity': 'pharmacy', 'healthcare': 'pharmacy'}}"
"{'type': 'node', 'id': 3860798003, 'lat': 41.1481132, 'lon': 24.147407, 'tags': {'addr:city': 'Δράμα', 'addr:postcode': '66100', 'addr:street': 'Εθνικής Αμύνης', 'amenity': 'pharmacy', 'healthcare': 'pharmacy', 'name': 'Θεόδωρος Φετφατζίδης'}}"
"{'type': 'node', 'id': 3860798004, 'lat': 41.1520136, 'lon': 24.1483399, 'tags': {'addr:city': 'Δράμα', 'addr:housenumber': '22', 'addr:postcode': '66100', 'addr:street': 'Κωνσταντίνου Παλαιολόγου', 'amenity': 'pharmacy', 'healthcare': 'pharmacy'}}"
"{'type': 'node', 'id': 3860798005, 'lat': 41.1480429, 'lon': 24.1483378, 'tags': {'addr:city': 'Δράμα', 'addr:postcode': '66100', 'amenity': 'pharmacy', 'healthcare': 'pharmacy', 'name': 'Καχριμανίδου'}}"
"{'type': 'node', 'id': 3868822741, 'lat': 42.0742373, 'lon': 24.6625474, 'tags': {'amenity': 'pharmacy', 'healthcare': 'pharmacy'}}"
"{'type': 'node', 'id': 3868822742, 'lat': 42.0754188, 'lon': 24.664087, 'tags': {'amenity': 'pharmacy', 'healthcare': 'pharmacy', 'name': 'Ремира'}}"
"{'type': 'node', 'id': 3876264871, 'lat': 41.152229, 'lon': 24.1411636, 'tags': {'addr:city': 'Δράμα', 'addr:postcode': '66100', 'addr:street': 'Ελευθερίου Βενιζέλου', 'amenity': 'pharmacy', 'healthcare': 'pharmacy', 'name': 'Ανέστη Μαλαμίδη'}}"
"{'type': 'node', 'id': 3876264875, 'lat': 41.1481329, 'lon': 24.1490883, 'tags': {'amenity': 'pharmacy', 'healthcare': 'pharmacy', 'name': 'Χατζηγρηγορίου Παναγιώτης'}}"
"{'type': 'node', 'id': 3876264882, 'lat': 41.1509955, 'lon': 24.1441949, 'tags': {'amenity': 'pharmacy', 'healthcare': 'pharmacy'}}"
"{'type': 'node', 'id': 3881466218, 'lat': 41.4856621, 'lon': 24.8470638, 'tags': {'healthcare': 'rehabilitation'}}"
"{'type': 'node', 'id': 3881466223, 'lat': 41.4871161, 'lon': 24.8487215, 'tags': {'amenity': 'pharmacy', 'healthcare': 'pharmacy'}}"
"{'type': 'node', 'id': 3908927942, 'lat': 40.9373012, 'lon': 24.4117573, 'tags': {'addr:city': 'Καβάλα', 'addr:housenumber': '6', 'addr:street': 'Μεγάλου Αλεξάνδρου', 'amenity': 'pharmacy', 'healthcare': 'pharmacy', 'name': 'Αντώνης Γιαμαλίδης'}}"
"{'type': 'node', 'id': 3908928766, 'lat': 40.9379409, 'lon': 24.4128058, 'tags': {'addr:city': 'Καβάλα', 'addr:housenumber': '4Α', 'addr:postcode': '65302', 'addr:street': 'Ίωνος Δραγούμη', 'amenity': 'pharmacy', 'healthcare': 'pharmacy', 'name': 'Μιχαήλ Πακαταρίδης', 'phone': '+302510229432'}}"
"{'type': 'node', 'id': 3917350884, 'lat': 41.5731331, 'lon': 24.7818336, 'tags': {'addr:city': 'Смолян', 'addr:postcode': '4700', 'addr:street': 'Тракия', 'amenity': 'pharmacy', 'brand': 'Марешки', 'brand:wikidata': 'Q108852051', 'healthcare': 'pharmacy', 'name': 'Марешки', 'name:en': 'Mareshki'}}"
"{'type': 'node', 'id': 3942981350, 'lat': 42.131283, 'lon': 24.7899076, 'tags': {'addr:street': 'Съединение', 'amenity': 'pharmacy', 'healthcare': 'pharmacy', 'name': 'Аптека Вега'}}"
"{'type': 'node', 'id': 3943130471, 'lat': 42.213634, 'lon': 24.1274723, 'tags': {'addr:city': 'Септември', 'addr:postcode': '4490', 'addr:street': 'бул. България', 'amenity': 'pharmacy'}}"
"{'type': 'node', 'id': 3945894989, 'lat': 41.1476285, 'lon': 24.1519637, 'tags': {'addr:street': 'Φιλίππου', 'amenity': 'pharmacy', 'healthcare': 'pharmacy', 'name': 'Παπαδήμα'}}"
"{'type': 'node', 'id': 3946486515, 'lat': 41.1517771, 'lon': 24.1513017, 'tags': {'amenity': 'pharmacy', 'healthcare': 'pharmacy', 'name': 'Πιταράκη'}}"
"{'type': 'node', 'id': 3981176725, 'lat': 41.1465937, 'lon': 24.1493723, 'tags': {'addr:street': 'Μακεδονίας', 'amenity': 'pharmacy', 'healthcare': 'pharmacy'}}"
"{'type': 'node', 'id': 3985566001, 'lat': 41.1465638, 'lon': 24.1483418, 'tags': {'amenity': 'pharmacy', 'healthcare': 'pharmacy', 'name': 'Στέφανος Ανθόπουλος'}}"
"{'type': 'node', 'id': 3985810892, 'lat': 42.0301524, 'lon': 24.3005991, 'tags': {'amenity': 'pharmacy'}}"
"{'type': 'node', 'id': 4004491503, 'lat': 42.0106453, 'lon': 24.8791667, 'tags': {'amenity': 'pharmacy', 'healthcare': 'pharmacy', 'name': 'Аптеката'}}"
"{'type': 'node', 'id': 4004634918, 'lat': 42.0055696, 'lon': 24.8749683, 'tags': {'amenity': 'pharmacy', 'healthcare': 'pharmacy', 'opening_hours': '8:00-19:00'}}"
"{'type': 'node', 'id': 4004634919, 'lat': 42.0088241, 'lon': 24.8729181, 'tags': {'amenity': 'pharmacy', 'brand': 'Марешки', 'brand:wikidata': 'Q108852051', 'healthcare': 'pharmacy', 'name': 'Марешки', 'name:en': 'Mareshki', 'opening_hours': '8:00-20:00'}}"
"{'type': 'node', 'id': 4004634920, 'lat': 42.009414, 'lon': 24.8706374, 'tags': {'amenity': 'pharmacy', 'healthcare': 'pharmacy'}}"
"{'type': 'node', 'id': 4004634921, 'lat': 42.009416, 'lon': 24.8779669, 'tags': {'amenity': 'pharmacy', 'healthcare': 'pharmacy'}}"
"{'type': 'node', 'id': 4004634922, 'lat': 42.0116445, 'lon': 24.8731271, 'tags': {'amenity': 'pharmacy', 'healthcare': 'pharmacy'}}"
"{'type': 'node', 'id': 4004634923, 'lat': 42.0118024, 'lon': 24.8728097, 'tags': {'amenity': 'pharmacy', 'healthcare': 'pharmacy'}}"
"{'type': 'node', 'id': 4004634924, 'lat': 42.0150657, 'lon': 24.8791408, 'tags': {'amenity': 'pharmacy', 'healthcare': 'pharmacy', 'name': 'Денонощна аптека', 'opening_hours': '24/7'}}"
"{'type': 'node', 'id': 4004702647, 'lat': 42.0185635, 'lon': 24.861003, 'tags': {'amenity': 'pharmacy', 'healthcare': 'pharmacy'}}"
"{'type': 'node', 'id': 4020094673, 'lat': 42.1452516, 'lon': 24.7450644, 'tags': {'amenity': 'dentist', 'healthcare': 'dentist', 'name': 'Ortho Clinic'}}"
"{'type': 'node', 'id': 4023865025, 'lat': 42.1395551, 'lon': 24.7367488, 'tags': {'amenity': 'pharmacy', 'healthcare': 'pharmacy'}}"
"{'type': 'node', 'id': 4023865026, 'lat': 42.1395311, 'lon': 24.7376634, 'tags': {'amenity': 'pharmacy', 'healthcare': 'pharmacy'}}"
"{'type': 'node', 'id': 4023865032, 'lat': 42.1401134, 'lon': 24.7365606, 'tags': {'amenity': 'pharmacy', 'healthcare': 'pharmacy', 'name': '36.6'}}"
"{'type': 'node', 'id': 4023865037, 'lat': 42.1408195, 'lon': 24.7418757, 'tags': {'amenity': 'pharmacy', 'healthcare': 'pharmacy'}}"
"{'type': 'node', 'id': 4023865038, 'lat': 42.1414308, 'lon': 24.7437577, 'tags': {'amenity': 'dentist', 'healthcare': 'dentist'}}"
"{'type': 'node', 'id': 4023865056, 'lat': 42.1403221, 'lon': 24.7405856, 'tags': {'amenity': 'pharmacy', 'brand': 'Марешки', 'brand:wikidata': 'Q108852051', 'healthcare': 'pharmacy', 'name': 'Марешки', 'name:en': 'Mareshki'}}"
"{'type': 'node', 'id': 4023865059, 'lat': 42.1400346, 'lon': 24.7367167, 'tags': {'amenity': 'pharmacy', 'brand': 'Феникс', 'brand:wikidata': 'Q108852116', 'healthcare': 'pharmacy', 'name': 'Феникс', 'name:en': 'Feniks'}}"
"{'type': 'node', 'id': 4044590491, 'lat': 40.9417012, 'lon': 24.4236788, 'tags': {'addr:housenumber': '21', 'addr:street': 'Σύρου', 'amenity': 'pharmacy', 'healthcare': 'pharmacy', 'name': 'Γκάγκος Ιωάννης', 'phone': '+302510830270'}}"
"{'type': 'node', 'id': 4056835273, 'lat': 42.1436821, 'lon': 24.7475503, 'tags': {'amenity': 'pharmacy', 'healthcare': 'pharmacy'}}"
"{'type': 'node', 'id': 4056835275, 'lat': 42.1452588, 'lon': 24.7585039, 'tags': {'amenity': 'pharmacy', 'healthcare': 'pharmacy', 'name': 'Галения'}}"
"{'type': 'node', 'id': 4056835277, 'lat': 42.1408661, 'lon': 24.7391322, 'tags': {'amenity': 'clinic', 'name': 'Св. св. Константин и Елена - център по АГ'}}"
"{'type': 'node', 'id': 4066907627, 'lat': 41.1521672, 'lon': 24.1461345, 'tags': {'addr:housenumber': '14', 'addr:street': 'Βαρδουσίων', 'amenity': 'pharmacy', 'healthcare': 'pharmacy', 'name': 'Γαϊτάνου - Παπαδοπουλου'}}"
"{'type': 'node', 'id': 4105206593, 'lat': 42.1650347, 'lon': 24.737709, 'tags': {'amenity': 'pharmacy', 'contact:facebook': 'https://www.facebook.com/apteki366/', 'contact:phone': '+359 87 636 6119', 'contact:website': 'https://366.bg/', 'name': '36.6 Мега Марина', 'opening_hours': 'Mo-Sa 08:00-20:00;Su 09:00-19:00', 'operator': 'FARMATRADE'}}"
"{'type': 'node', 'id': 4105206594, 'lat': 42.1621814, 'lon': 24.7427518, 'tags': {'amenity': 'pharmacy', 'contact:facebook': 'https://www.facebook.com/apteki366/', 'contact:phone': '+359 87 636 6106', 'contact:website': 'https://366.bg/', 'name': 'Аптека 36.6 Билла Кършияка', 'opening_hours': 'Mo-Fr 08:00-21:00;Sa-Su 09:00-21:00', 'operator': 'FARMATRADE', 'shop': 'medical_supply'}}"
"{'type': 'node', 'id': 4105523114, 'lat': 42.1505933, 'lon': 24.7433819, 'tags': {'amenity': 'pharmacy', 'healthcare': 'pharmacy', 'name': 'Avenue'}}"
"{'type': 'node', 'id': 4105523115, 'lat': 42.1513042, 'lon': 24.7458844, 'tags': {'amenity': 'pharmacy', 'healthcare': 'pharmacy', 'name': 'Ceiba'}}"
"{'type': 'node', 'id': 4105523118, 'lat': 42.1507951, 'lon': 24.7450784, 'tags': {'amenity': 'pharmacy', 'healthcare': 'pharmacy', 'name': 'Sanita'}}"
"{'type': 'node', 'id': 4105536914, 'lat': 42.1482577, 'lon': 24.7355083, 'tags': {'amenity': 'dentist', 'healthcare': 'dentist', 'name': 'Величкови'}}"
"{'type': 'node', 'id': 4105536916, 'lat': 42.1508687, 'lon': 24.7453909, 'tags': {'amenity': 'pharmacy', 'healthcare': 'pharmacy'}}"
"{'type': 'node', 'id': 4105536917, 'lat': 42.1479833, 'lon': 24.7335275, 'tags': {'amenity': 'pharmacy', 'healthcare': 'pharmacy', 'name': 'Вита'}}"
"{'type': 'node', 'id': 4105536924, 'lat': 42.1471212, 'lon': 24.7316446, 'tags': {'amenity': 'pharmacy', 'brand': 'Марешки', 'brand:wikidata': 'Q108852051', 'healthcare': 'pharmacy', 'name': 'Марешки', 'name:en': 'Mareshki'}}"
"{'type': 'node', 'id': 4105536925, 'lat': 42.1507752, 'lon': 24.7449953, 'tags': {'amenity': 'pharmacy', 'brand': 'Марешки', 'brand:wikidata': 'Q108852051', 'healthcare': 'pharmacy', 'name': 'Марешки', 'name:en': 'Mareshki'}}"
"{'type': 'node', 'id': 4105536926, 'lat': 42.1512873, 'lon': 24.7458214, 'tags': {'amenity': 'pharmacy', 'brand': 'Марешки', 'brand:wikidata': 'Q108852051', 'healthcare': 'pharmacy', 'name': 'Марешки', 'name:en': 'Mareshki'}}"
"{'type': 'node', 'id': 4105536927, 'lat': 42.1515209, 'lon': 24.7468353, 'tags': {'amenity': 'pharmacy', 'healthcare': 'pharmacy', 'name': 'Марица', 'wikidata': 'Q64667849'}}"
"{'type': 'node', 'id': 4105536932, 'lat': 42.1487539, 'lon': 24.736482, 'tags': {'amenity': 'pharmacy', 'healthcare': 'pharmacy', 'name': 'Ренесанс', 'shop': 'optician'}}"
"{'type': 'node', 'id': 4105536938, 'lat': 42.1504243, 'lon': 24.7433618, 'tags': {'amenity': 'pharmacy', 'healthcare': 'pharmacy', 'name': 'Тримонциум'}}"
"{'type': 'node', 'id': 4105536939, 'lat': 42.1480419, 'lon': 24.7336254, 'tags': {'amenity': 'pharmacy', 'brand': 'Санита', 'healthcare': 'pharmacy', 'name': 'Санита', 'name:en': 'Sanita', 'operator': 'Софарма Трейдинг', 'operator:wikidata': 'Q117303338'}}"
"{'type': 'node', 'id': 4126450091, 'lat': 42.1883088, 'lon': 24.3323431, 'tags': {'addr:housenumber': '5', 'addr:postcode': '4400', 'addr:street': 'Патриарх Евтимий', 'amenity': 'pharmacy', 'description': 'Магазин за билки, храни за диабетици, диетични и био продукти', 'email': 'magazinbilka@mail.ru', 'healthcare': 'pharmacy', 'name': 'Магазин Билка', 'name:en': 'Herb shop', 'opening_hours': 'Mo-Fr 09:00-18:30; Sa-Su 09:30-13:30', 'phone': '+359 88 939 4944', 'website': 'https://www.magazinbilka.com'}}"
"{'type': 'node', 'id': 4139197636, 'lat': 41.1468298, 'lon': 24.1454872, 'tags': {'amenity': 'pharmacy', 'healthcare': 'pharmacy', 'name': 'Παραλή Γ. Μαρία'}}"
"{'type': 'node', 'id': 4144208591, 'lat': 41.634421, 'lon': 25.3780421, 'tags': {'amenity': 'pharmacy', 'brand': 'Марешки', 'brand:wikidata': 'Q108852051', 'healthcare': 'pharmacy', 'name': 'Марешки', 'name:en': 'Mareshki', 'opening_hours': 'Mo-Sa 08:00-20:00; Su 09:00-18:00'}}"
"{'type': 'node', 'id': 4151610316, 'lat': 42.1417576, 'lon': 24.7628861, 'tags': {'amenity': 'pharmacy', 'name': 'Изток'}}"
"{'type': 'node', 'id': 4187461257, 'lat': 42.0573764, 'lon': 24.5467363, 'tags': {'amenity': 'pharmacy', 'brand': 'Марешки', 'brand:wikidata': 'Q108852051', 'healthcare': 'pharmacy', 'name': 'Марешки', 'name:en': 'Mareshki'}}"
"{'type': 'node', 'id': 4202121889, 'lat': 42.1926263, 'lon': 24.3325396, 'tags': {'addr:housenumber': '3', 'addr:street': 'Иван Вазов', 'amenity': 'dentist', 'healthcare': 'dentist', 'name': 'Дентален кабинет Д-р Еди Хугасян', 'phone': '+359 89 850 3132'}}"
"{'type': 'node', 'id': 4226637538, 'lat': 41.6462352, 'lon': 25.3760641, 'tags': {'addr:city': 'Кърджали', 'addr:housenumber': '53', 'addr:postcode': '6600', 'addr:street': 'бул. Беломорски', 'amenity': 'clinic', 'healthcare': 'clinic', 'name': 'Спешна помощ', 'name:en': 'emergency medical care', 'opening_hours': '24/7'}}"
"{'type': 'node', 'id': 4227084522, 'lat': 41.6344989, 'lon': 25.3556582, 'tags': {'addr:city': 'Кърджали', 'addr:postcode': '6600', 'amenity': 'pharmacy', 'name': 'Meatsa 2'}}"
"{'type': 'node', 'id': 4227088502, 'lat': 41.6347954, 'lon': 25.3555204, 'tags': {'addr:city': 'Кърджали', 'addr:postcode': '6600', 'amenity': 'pharmacy', 'brand': 'Марешки', 'brand:wikidata': 'Q108852051', 'healthcare': 'pharmacy', 'name': 'Марешки', 'name:en': 'Mareshki'}}"
"{'type': 'node', 'id': 4227123199, 'lat': 41.6330943, 'lon': 25.3565516, 'tags': {'addr:city': 'Кърджали', 'addr:postcode': '6600', 'amenity': 'dentist', 'healthcare': 'dentist'}}"
"{'type': 'node', 'id': 4230419757, 'lat': 41.6394108, 'lon': 25.3711957, 'tags': {'addr:city': 'Кърджали', 'addr:postcode': '6600', 'amenity': 'dentist', 'healthcare': 'dentist', 'name': 'Isa Dent'}}"
"{'type': 'node', 'id': 4230591335, 'lat': 41.6424071, 'lon': 25.3671478, 'tags': {'addr:city': 'Кърджали', 'addr:postcode': '6600', 'amenity': 'pharmacy'}}"
"{'type': 'node', 'id': 4230862796, 'lat': 41.6443363, 'lon': 25.373538, 'tags': {'addr:city': 'Кърджали', 'addr:postcode': '6600', 'amenity': 'pharmacy', 'name': 'Meatsa'}}"
"{'type': 'node', 'id': 4230863650, 'lat': 41.644153, 'lon': 25.3735247, 'tags': {'addr:city': 'Кърджали', 'addr:postcode': '6600', 'amenity': 'pharmacy', 'name': 'M & L'}}"
"{'type': 'node', 'id': 4230863984, 'lat': 41.6447079, 'lon': 25.371504, 'tags': {'addr:city': 'Кърджали', 'addr:postcode': '6600', 'amenity': 'pharmacy', 'brand': 'Марешки', 'brand:wikidata': 'Q108852051', 'healthcare': 'pharmacy', 'name': 'Марешки', 'name:en': 'Mareshki'}}"
"{'type': 'node', 'id': 4230870233, 'lat': 41.6447241, 'lon': 25.3695519, 'tags': {'addr:city': 'Кърджали', 'addr:postcode': '6600', 'amenity': 'pharmacy', 'name': 'Supernova'}}"
"{'type': 'node', 'id': 4232129850, 'lat': 41.6369578, 'lon': 25.3553506, 'tags': {'addr:city': 'Кърджали', 'addr:postcode': '6600', 'amenity': 'pharmacy', 'name': 'Maritsa'}}"
"{'type': 'node', 'id': 4234576615, 'lat': 41.6345755, 'lon': 25.3766716, 'tags': {'addr:city': 'Кърджали', 'addr:postcode': '6600', 'amenity': 'pharmacy', 'name': 'AMS'}}"
"{'type': 'node', 'id': 4236220708, 'lat': 41.6234191, 'lon': 25.3777379, 'tags': {'addr:city': 'Кърджали', 'addr:postcode': '6600', 'amenity': 'pharmacy'}}"
"{'type': 'node', 'id': 4248507038, 'lat': 41.6453397, 'lon': 25.3729523, 'tags': {'addr:city': 'Кърджали', 'addr:postcode': '6600', 'amenity': 'pharmacy'}}"
"{'type': 'node', 'id': 4312420685, 'lat': 42.0113952, 'lon': 24.8725336, 'tags': {'addr:city': 'Асеновград', 'addr:housenumber': '5', 'addr:street': 'Освобождение', 'amenity': 'dentist', 'description': 'Зъболекарски кабинет Асеновград Д-р Антоанета Дайлерова', 'healthcare': 'dentist', 'name': 'ЕТ Д-р Антоанета Дайлерова АИ ПППДМ'}}"
"{'type': 'node', 'id': 4320875795, 'lat': 42.1453188, 'lon': 24.7657531, 'tags': {'addr:city': 'Пловдив', 'addr:housenumber': '4', 'addr:street': 'Братя Свещарови', 'amenity': 'hospital', 'description': 'Стоматологичен кабинет Д-р Намлиев приемане по спешност', 'emergency': 'yes', 'name': 'НАМЛИЕВ - ДЕНТАЛ ЕООД'}}"
"{'type': 'node', 'id': 4329865557, 'lat': 42.1496056, 'lon': 24.7280868, 'tags': {'addr:housenumber': '20 А', 'addr:postcode': '4002', 'addr:street': 'Младежка', 'amenity': 'dentist', 'description': 'Работи с НЗОК', 'email': 'disa_d@abv.bg', 'healthcare': 'dentist', 'int_name': 'Genoveva Dimitrova - Samardzhieva', 'internet_access': 'wlan', 'name': 'Геновева Димитрова - Самарджиева', 'name:bg': 'Геновева Димитрова - Самарджиева', 'opening_hours': 'Mo-Fr 09:00-12:30, 13:30-18:00', 'phone': '+359 89 784 8303'}}"
"{'type': 'node', 'id': 4331172859, 'lat': 42.1450468, 'lon': 24.7524788, 'tags': {'amenity': 'pharmacy', 'healthcare': 'pharmacy', 'name': 'DaRa'}}"
"{'type': 'node', 'id': 4331172873, 'lat': 42.1422208, 'lon': 24.7536039, 'tags': {'amenity': 'pharmacy', 'name': 'Здравец'}}"
"{'type': 'node', 'id': 4331172876, 'lat': 42.1451204, 'lon': 24.7527604, 'tags': {'amenity': 'pharmacy', 'brand': 'Санита', 'healthcare': 'pharmacy', 'name': 'Санита', 'name:en': 'Sanita', 'operator': 'Софарма Трейдинг', 'operator:wikidata': 'Q117303338'}}"
"{'type': 'node', 'id': 4340768031, 'lat': 41.5758441, 'lon': 24.7064831, 'tags': {'amenity': 'pharmacy', 'brand': 'Марешки', 'brand:wikidata': 'Q108852051', 'healthcare': 'pharmacy', 'name': 'Марешки', 'name:en': 'Mareshki', 'operator': 'Марешки'}}"
"{'type': 'node', 'id': 4394813791, 'lat': 42.1882508, 'lon': 24.3412611, 'tags': {'amenity': 'pharmacy', 'healthcare': 'pharmacy', 'name': 'аптека Марешки', 'name:bg': 'аптека Марешки'}}"
"{'type': 'node', 'id': 4420041015, 'lat': 42.1405718, 'lon': 24.7356477, 'tags': {'amenity': 'pharmacy', 'healthcare': 'pharmacy', 'name': 'Аптека 21'}}"
"{'type': 'node', 'id': 4420041021, 'lat': 42.1382766, 'lon': 24.7394832, 'tags': {'amenity': 'pharmacy', 'name': 'Централ Фарма'}}"
"{'type': 'node', 'id': 4434056401, 'lat': 41.0754712, 'lon': 24.2453007, 'tags': {'amenity': 'pharmacy', 'healthcare': 'pharmacy'}}"
"{'type': 'node', 'id': 4434391036, 'lat': 42.1203482, 'lon': 24.7329287, 'tags': {'addr:city': 'Пловдив', 'addr:housenumber': '20', 'addr:postcode': '4004', 'addr:street': 'Александър Стамболийски', 'amenity': 'pharmacy', 'ele': '0', 'healthcare': 'pharmacy', 'name': 'Аптека Марешки', 'operator': 'Марешки', 'website': 'http://mareshki.com/', 'wheelchair': 'limited'}}"
"{'type': 'node', 'id': 4441652493, 'lat': 41.6447495, 'lon': 24.1593103, 'tags': {'amenity': 'clinic', 'healthcare': 'clinic'}}"
"{'type': 'node', 'id': 4441660892, 'lat': 41.6449063, 'lon': 24.1588777, 'tags': {'amenity': 'dentist', 'healthcare': 'dentist'}}"
"{'type': 'node', 'id': 4441661992, 'lat': 41.600172, 'lon': 24.1801285, 'tags': {'amenity': 'pharmacy'}}"
"{'type': 'node', 'id': 4441702490, 'lat': 41.645308, 'lon': 24.1598056, 'tags': {'amenity': 'pharmacy', 'healthcare': 'pharmacy'}}"
"{'type': 'node', 'id': 4442914390, 'lat': 41.6463956, 'lon': 24.1593411, 'tags': {'amenity': 'pharmacy', 'healthcare': 'pharmacy'}}"
"{'type': 'node', 'id': 4443385125, 'lat': 41.0751128, 'lon': 24.2469501, 'tags': {'amenity': 'pharmacy', 'healthcare': 'pharmacy'}}"
"{'type': 'node', 'id': 4454645389, 'lat': 41.0760122, 'lon': 24.2451807, 'tags': {'amenity': 'pharmacy', 'healthcare': 'pharmacy'}}"
"{'type': 'node', 'id': 4461502048, 'lat': 42.1377512, 'lon': 24.7396103, 'tags': {'amenity': 'clinic', 'name': 'ДКЦ Филипополис'}}"
"{'type': 'node', 'id': 4461502049, 'lat': 42.1374419, 'lon': 24.740655, 'tags': {'amenity': 'dentist', 'healthcare': 'dentist', 'name': 'Дентетика'}}"
"{'type': 'node', 'id': 4461502050, 'lat': 42.1374842, 'lon': 24.7444951, 'tags': {'amenity': 'pharmacy', 'brand': 'Марешки', 'brand:wikidata': 'Q108852051', 'healthcare': 'pharmacy', 'name': 'Марешки', 'name:en': 'Mareshki'}}"
"{'type': 'node', 'id': 4469808768, 'lat': 42.1392424, 'lon': 24.7454808, 'tags': {'amenity': 'pharmacy', 'healthcare': 'pharmacy', 'name': 'Сити Фарм'}}"
"{'type': 'node', 'id': 4470330193, 'lat': 42.1369128, 'lon': 24.7413853, 'tags': {'amenity': 'pharmacy', 'healthcare': 'pharmacy', 'name': 'Агроаптека'}}"
"{'type': 'node', 'id': 4659408375, 'lat': 42.1391451, 'lon': 24.7509887, 'tags': {'amenity': 'dentist', 'healthcare': 'dentist'}}"
"{'type': 'node', 'id': 4697969964, 'lat': 42.1364529, 'lon': 24.7633682, 'tags': {'amenity': 'pharmacy', 'brand': 'Марешки', 'brand:wikidata': 'Q108852051', 'healthcare': 'pharmacy', 'name': 'Марешки', 'name:en': 'Mareshki', 'opening_hours': 'Mo-Su 08:00-20:00'}}"
"{'type': 'node', 'id': 4697969974, 'lat': 42.1417688, 'lon': 24.7865249, 'tags': {'amenity': 'pharmacy', 'healthcare': 'pharmacy', 'name': 'Тракия 22'}}"
"{'type': 'node', 'id': 4710433572, 'lat': 41.9885907, 'lon': 24.0922715, 'tags': {'addr:housenumber': '5', 'addr:postcode': '4640', 'addr:street': 'Георги Георгиев', 'amenity': 'hospital', 'healthcare': 'hospital', 'name': 'Поликлиника'}}"
"{'type': 'node', 'id': 4729118587, 'lat': 40.9382216, 'lon': 24.4139914, 'tags': {'addr:street': 'Αμύντα', 'amenity': 'pharmacy', 'healthcare': 'pharmacy', 'name': 'Λεοντιάδου Αναστασία'}}"
"{'type': 'node', 'id': 4730499233, 'lat': 42.1451339, 'lon': 24.7539297, 'tags': {'amenity': 'pharmacy', 'healthcare': 'pharmacy'}}"
"{'type': 'node', 'id': 4730499236, 'lat': 42.1440728, 'lon': 24.7482068, 'tags': {'amenity': 'pharmacy'}}"
"{'type': 'node', 'id': 4730896219, 'lat': 41.990428, 'lon': 24.0884697, 'tags': {'addr:city': 'Ракитово', 'addr:postcode': '4640', 'addr:street': '""Христо Ботев""', 'amenity': 'pharmacy', 'healthcare': 'pharmacy', 'name': 'СОЦИАЛНА Аптека'}}"
"{'type': 'node', 'id': 4758743871, 'lat': 40.9647546, 'lon': 24.3571864, 'tags': {'amenity': 'pharmacy', 'healthcare': 'pharmacy'}}"
"{'type': 'node', 'id': 4770132232, 'lat': 41.9897657, 'lon': 24.0909403, 'tags': {'addr:city': 'Ракитово', 'addr:housenumber': '5', 'addr:postcode': '4640', 'addr:street': 'Малина Тодорова', 'amenity': 'pharmacy', 'healthcare': 'pharmacy'}}"
"{'type': 'node', 'id': 4806065950, 'lat': 40.935827, 'lon': 24.4074495, 'tags': {'addr:street': 'Φιλικής Εταιρείας', 'amenity': 'doctors', 'healthcare': 'doctor', 'healthcare:speciality': 'cardiology', 'name': 'Θεόδωρος Μήτρας - Καρδιολόγος'}}"
"{'type': 'node', 'id': 4829395258, 'lat': 41.4985185, 'lon': 24.9427971, 'tags': {'amenity': 'pharmacy', 'healthcare': 'pharmacy'}}"
"{'type': 'node', 'id': 4968049563, 'lat': 42.1485244, 'lon': 24.7463219, 'tags': {'amenity': 'dentist', 'healthcare': 'dentist'}}"
"{'type': 'node', 'id': 4968049581, 'lat': 42.1520571, 'lon': 24.7459115, 'tags': {'amenity': 'pharmacy', 'brand': 'SOpharmacy', 'brand:wikidata': 'Q108852081', 'healthcare': 'pharmacy', 'name': 'SOpharmacy'}}"
"{'type': 'node', 'id': 4979656780, 'lat': 42.1570232, 'lon': 24.7474498, 'tags': {'addr:housenumber': '13', 'addr:street': 'Мария Кюри', 'amenity': 'dentist', 'healthcare': 'dentist', 'name': 'Изи Дент', 'opening_hours': '08:00-20:00', 'phone': '+359 32 940 941', 'website': 'www.izident.com'}}"
"{'type': 'node', 'id': 5026153033, 'lat': 42.1547385, 'lon': 24.7419029, 'tags': {'addr:housenumber': '57', 'addr:street': 'Марица', 'amenity': 'clinic', 'name': 'Лазерна терапия', 'phone': '+359 88 455 0034', 'website': 'https://lasertherapybg.com/'}}"
"{'type': 'node', 'id': 5096950753, 'lat': 42.1332282, 'lon': 24.939453, 'tags': {'amenity': 'pharmacy'}}"
"{'type': 'node', 'id': 5115594904, 'lat': 42.1580809, 'lon': 24.7427022, 'tags': {'amenity': 'pharmacy', 'brand': 'Фрамар', 'brand:wikidata': 'Q108852095', 'healthcare': 'pharmacy', 'name': 'Фрамар', 'name:en': 'Framar'}}"
"{'type': 'node', 'id': 5115594906, 'lat': 42.1566225, 'lon': 24.7436422, 'tags': {'amenity': 'pharmacy', 'brand': 'SOpharmacy', 'brand:wikidata': 'Q108852081', 'healthcare': 'pharmacy', 'name': 'SOpharmacy'}}"
"{'type': 'node', 'id': 5115594907, 'lat': 42.1564833, 'lon': 24.7439562, 'tags': {'amenity': 'pharmacy', 'healthcare': 'pharmacy', 'name': 'Anteka'}}"
"{'type': 'node', 'id': 5199758023, 'lat': 41.1504329, 'lon': 24.1489203, 'tags': {'amenity': 'dentist', 'healthcare': 'dentist'}}"
"{'type': 'node', 'id': 5199758221, 'lat': 41.1460884, 'lon': 24.1466674, 'tags': {'amenity': 'dentist', 'healthcare': 'dentist'}}"
"{'type': 'node', 'id': 5203024560, 'lat': 41.3806044, 'lon': 25.2550793, 'tags': {'amenity': 'doctors', 'healthcare': 'hospital', 'name': 'Доктор'}}"
"{'type': 'node', 'id': 5313591999, 'lat': 41.7261502, 'lon': 24.6845689, 'tags': {'amenity': 'hospital', 'healthcare': 'hospital'}}"
"{'type': 'node', 'id': 5365747410, 'lat': 41.1065699, 'lon': 24.0865137, 'tags': {'amenity': 'pharmacy', 'healthcare': 'pharmacy', 'name': 'Τσακίρης Γεώργιος'}}"
"{'type': 'node', 'id': 5414581506, 'lat': 41.2765139, 'lon': 24.9701744, 'tags': {'amenity': 'pharmacy', 'healthcare': 'pharmacy', 'name': 'Οβαλε'}}"
"{'type': 'node', 'id': 5426685991, 'lat': 42.1340486, 'lon': 24.7928655, 'tags': {'addr:city': 'Пловдив', 'addr:street': 'жк. Тракия, Търг. Ц-р Сани, 4023 кв. Търговски', 'amenity': 'dentist', 'healthcare': 'dentist', 'name': 'Бойка Маринова', 'phone': '+359 89 873 7763', 'website': 'http://www.dr-marinova.eu/'}}"
"{'type': 'node', 'id': 5442540283, 'lat': 42.1168012, 'lon': 24.7363227, 'tags': {'addr:city': 'Пловдив', 'addr:housenumber': '104', 'addr:postcode': '4004', 'addr:street': 'Macedonia', 'amenity': 'pharmacy', 'healthcare': 'pharmacy', 'name': 'West Pharmacy', 'name:bg': 'Аптека Запад', 'opening_hours': 'Mo-Fr 08:00-20:00', 'payment:cash': 'yes', 'payment:debit_cards': 'yes', 'phone': '+359 88 490 9887', 'website': 'https://www.aptekizapad.bg/blog/'}}"
"{'type': 'node', 'id': 5442593033, 'lat': 42.1202197, 'lon': 24.7332243, 'tags': {'amenity': 'pharmacy', 'healthcare': 'pharmacy', 'name': 'Pharmacy 1', 'name:bg': 'Аптека 1', 'payment:cash': 'yes'}}"
"{'type': 'node', 'id': 5442593035, 'lat': 42.1205491, 'lon': 24.7324088, 'tags': {'amenity': 'pharmacy', 'healthcare': 'pharmacy', 'name': 'Hubenova', 'name:bg': 'Хубенова'}}"
"{'type': 'node', 'id': 5480102070, 'lat': 42.1311036, 'lon': 24.7209032, 'tags': {'addr:city': 'Пловдив', 'addr:housenumber': '64', 'addr:street': 'София', 'amenity': 'doctors', 'description': 'Оперативно и консервативно лечение на сливици. Безкръвни операции с ултразвук. Затруднено носно дишане. Възпаления на ушите и гръкляна. Проблеми с гласа. Алергии. Пробиване на уши. Изследване на слуха. Безплатни слухови апарати. Пластични корекции на уши.', 'healthcare': 'doctor', 'name': 'Ринопластика Д-р Кулов', 'phone': '+359 89 926 2626'}}"
"{'type': 'node', 'id': 5604912305, 'lat': 42.1366309, 'lon': 24.7427265, 'tags': {'addr:city': 'Пловдив', 'addr:housenumber': '78', 'addr:street': 'Иван Вазов', 'amenity': 'hospital', 'description': 'Специализиран АГ кабинет с екип д-р Димитър Йончев и д-р Бонка Йончева Д-р Йончев е Началник на Отделение по Акушерство и гинекология към УМБАЛ ""Пловдив"" АД гр. Пловдив.', 'healthcare': 'hospital', 'name': 'Д-р Димитър А. Йончев', 'phone': '+359 32 627 140'}}"
"{'type': 'node', 'id': 5624309792, 'lat': 41.9347953, 'lon': 24.2695336, 'tags': {'amenity': 'pharmacy'}}"
"{'type': 'node', 'id': 5646001549, 'lat': 42.1489562, 'lon': 24.7474613, 'tags': {'amenity': 'pharmacy', 'brand': 'Subra', 'brand:wikidata': 'Q118120555', 'healthcare': 'pharmacy', 'name': 'Subra', 'name:bg': 'Субра', 'name:en': 'Subra'}}"
"{'type': 'node', 'id': 5702110221, 'lat': 41.2669192, 'lon': 24.5045606, 'tags': {'amenity': 'doctors', 'healthcare': 'doctor', 'name': 'Κ Υ Παρανεστίου'}}"
"{'type': 'node', 'id': 5714198512, 'lat': 42.1437409, 'lon': 24.7289024, 'tags': {'amenity': 'pharmacy', 'wheelchair': 'yes'}}"
"{'type': 'node', 'id': 5715805822, 'lat': 42.1516371, 'lon': 24.7356404, 'tags': {'addr:housenumber': '32', 'addr:street': 'Янко Сакъзов', 'amenity': 'clinic', 'name': 'Клиника Медидерма', 'name:en': 'Mediderma Clinic', 'opening_hours': 'Mo-Fr 14:30-18:30', 'operator': 'Assoc. Prof. Rumyana Yankova', 'phone': '+359 88 566 0866', 'website': 'https://www.mediderma.bg/'}}"
"{'type': 'node', 'id': 5839974599, 'lat': 41.576664, 'lon': 24.7021418, 'tags': {'amenity': 'dentist', 'healthcare': 'dentist', 'name': 'Др. Деянов'}}"
"{'type': 'node', 'id': 5848007885, 'lat': 42.141908, 'lon': 24.7319471, 'tags': {'addr:city': 'Пловдив', 'addr:housenumber': '11', 'addr:street': 'Георги Измрлиев', 'amenity': 'dentist', 'description': 'Лекар по дентална медицина.', 'healthcare': 'dentist', 'name': 'Стоматолог д-р Неделчо Мандажиев', 'phone': '+359 88 895 2537', 'website': 'https://dentist-5088.business.site/'}}"
"{'type': 'node', 'id': 5853813487, 'lat': 41.2770586, 'lon': 24.9701701, 'tags': {'amenity': 'pharmacy', 'healthcare': 'pharmacy'}}"
"{'type': 'node', 'id': 5864099786, 'lat': 42.1375514, 'lon': 24.5343262, 'tags': {'addr:city': 'Стамболийски', 'addr:postcode': '4210', 'amenity': 'hospital', 'healthcare': 'hospital'}}"
"{'type': 'node', 'id': 5879164364, 'lat': 42.1458207, 'lon': 24.7415421, 'tags': {'amenity': 'dentist', 'healthcare': 'dentist', 'name': 'Д-р Чавдар Георгиев'}}"
"{'type': 'node', 'id': 5881565230, 'lat': 42.1867177, 'lon': 24.3242836, 'tags': {'addr:city': 'Пазарджик', 'addr:housenumber': '60', 'addr:street': 'бул. България', 'amenity': 'hospital', 'description': 'Д-р Стоянка Ангелова е специалист по обща дентална медицина и има 40 години стаж в областта на ортодонтията.', 'healthcare': 'hospital', 'name': 'Ортодонт Д-р Стоянка Ангелова', 'phone': '+359 88 990 9748', 'website': 'http://zdravenportal.com/%D0%B4-%D1%80-%D1%81%D1%82%D0%BE%D1%8F%D0%BD%D0%BA%D0%B0-%D0%B0%D0%BD%D0%B3%D0%B5%D0%BB%D0%BE%D0%B2%D0%B0-%D0%BE%D1%80%D1%82%D0%BE%D0%B4%D0%BE%D0%BD%D1%82-%D0%B3%D1%80-%D0%BF%D0%B0%D0%B7%D0%B0'}}"
"{'type': 'node', 'id': 6038659592, 'lat': 41.5819841, 'lon': 25.1347002, 'tags': {'amenity': 'pharmacy', 'healthcare': 'pharmacy'}}"
"{'type': 'node', 'id': 6043441003, 'lat': 42.1201335, 'lon': 24.7309866, 'tags': {'addr:city': 'Пловдив', 'addr:postcode': '4004', 'amenity': 'hospital', 'healthcare': 'hospital', 'name': 'СБАЛ Св,Анна'}}"
"{'type': 'node', 'id': 6149286170, 'lat': 42.1398027, 'lon': 24.7420163, 'tags': {'addr:city': 'Пловдив', 'addr:housenumber': '35', 'addr:street': 'Драган Цанков', 'amenity': 'dentist', 'description': 'Стоматолог.', 'healthcare': 'dentist', 'name': 'Д-р Мария Костова - Art and Beuty', 'phone': '+359 88 709 3931', 'website': 'https://artdentbg.com/'}}"
"{'type': 'node', 'id': 6181345242, 'lat': 42.1325987, 'lon': 24.7164071, 'tags': {'amenity': 'pharmacy'}}"
"{'type': 'node', 'id': 6201595124, 'lat': 42.1381331, 'lon': 24.7234869, 'tags': {'amenity': 'pharmacy', 'name': '36.6'}}"
"{'type': 'node', 'id': 6205364637, 'lat': 42.1418364, 'lon': 24.7540051, 'tags': {'amenity': 'pharmacy', 'brand': 'SOpharmacy', 'brand:wikidata': 'Q108852081', 'healthcare': 'pharmacy', 'name': 'SOpharmacy'}}"
"{'type': 'node', 'id': 6205364646, 'lat': 42.146663, 'lon': 24.7605443, 'tags': {'amenity': 'pharmacy', 'healthcare': 'pharmacy', 'name': 'Премиум'}}"
"{'type': 'node', 'id': 6293188370, 'lat': 42.1299421, 'lon': 24.7811222, 'tags': {'amenity': 'hospital', 'healthcare': 'hospital', 'name': 'Раредис', 'website': 'https://medical.raredis.org/'}}"
"{'type': 'node', 'id': 6353415492, 'lat': 40.9358511, 'lon': 24.4077959, 'tags': {'amenity': 'pharmacy', 'healthcare': 'pharmacy', 'name': 'Βαϊδούλη Νικολέτα', 'phone': '+302510220166'}}"
"{'type': 'node', 'id': 6359922688, 'lat': 40.933634, 'lon': 24.3844463, 'tags': {'healthcare': 'doctor', 'healthcare:speciality': 'psychiatry', 'name': 'Κέντρο Ψυχικής Υγείας', 'phone': '+30 2510246233'}}"
"{'type': 'node', 'id': 6385249387, 'lat': 42.1237973, 'lon': 24.7230619, 'tags': {'addr:city': 'Пловдив', 'addr:housenumber': '107', 'addr:street': 'Александър Стамболийски', 'amenity': 'dentist', 'description': 'Протетично лечение ( израбоване на коронки,мостове,протези - тотални, частични и комбинирано протезиране;фасети). Можете да се възползвате от преглед, поставяне на диагноза и предлагане на най-подходящия за лечение план.', 'healthcare': 'dentist', 'name': 'СТОМАТОЛОГ Д-Р МАГДАЛИНА УРУМОВА', 'phone': '+359 88 790 9386', 'website': 'https://dentist-7125.business.site/'}}"
"{'type': 'node', 'id': 6388221086, 'lat': 42.1311512, 'lon': 24.7845565, 'tags': {'addr:housenumber': '4', 'addr:postcode': '4000', 'addr:street': 'Недялка Шилева', 'email': 'info@synevo.bg', 'healthcare': 'laboratory', 'name': 'Лаборатория Синево', 'name:en': 'Synevo Medical Laboratory', 'opening_hours': 'Mo-Fr 07:30-17:00, Sa-Su 08:00-13:00', 'operator': 'Medicover Group', 'phone': '+359 2 405 1999', 'website': 'https://www.synevo.bg'}}"
"{'type': 'node', 'id': 6402590372, 'lat': 42.1305786, 'lon': 24.7775964, 'tags': {'amenity': 'pharmacy', 'healthcare': 'pharmacy', 'name': 'Херц'}}"
"{'type': 'node', 'id': 6402590379, 'lat': 42.131427, 'lon': 24.783547, 'tags': {'amenity': 'dentist', 'healthcare': 'dentist', 'name': 'iDent'}}"
"{'type': 'node', 'id': 6402592091, 'lat': 42.1343719, 'lon': 24.7925109, 'tags': {'amenity': 'hospital', 'emergency': 'no', 'name': 'МЦ ""Димед""', 'phone': '+359 32 294 936', 'website': 'http://www.dimed.org'}}"
"{'type': 'node', 'id': 6418343143, 'lat': 40.9263814, 'lon': 24.3878017, 'tags': {'addr:city': 'Καβάλα', 'addr:housenumber': '19', 'addr:postcode': '65404', 'addr:street': 'Σοφοκλή Βενιζέλου', 'amenity': 'pharmacy', 'healthcare': 'pharmacy', 'name': 'Παρχαρίδης Σάββας', 'phone': '+302510247644'}}"
"{'type': 'node', 'id': 6419357556, 'lat': 42.1516738, 'lon': 24.7591616, 'tags': {'amenity': 'dentist', 'healthcare': 'dentist', 'name': 'Д-р Вардев'}}"
"{'type': 'node', 'id': 6448495385, 'lat': 41.6330707, 'lon': 25.3562227, 'tags': {'amenity': 'dentist', 'healthcare': 'dentist', 'name': 'Др.Самир Идриз', 'name:tr': 'Dr.Samir İdriz', 'opening_hours': 'Mo-Fr 09:00-12:05, 14:00-18:00', 'phone': '+359 89 797 1351'}}"
"{'type': 'node', 'id': 6472102808, 'lat': 42.1352909, 'lon': 24.7597524, 'tags': {'addr:city': 'Пловдив', 'addr:housenumber': '127', 'addr:street': 'Родопи', 'amenity': 'dentist', 'description': 'Дентални услуги. Кабинета работи с предварително записан час.', 'healthcare': 'dentist', 'name': 'Зъболекар д-р Кристина Христова', 'phone': '+359 88 833 4299'}}"
"{'type': 'node', 'id': 6479089486, 'lat': 42.160984, 'lon': 24.7358077, 'tags': {'addr:city': 'Пловдив', 'addr:country': 'BG', 'addr:housenumber': '2', 'addr:postcode': '4003', 'addr:street': 'Арабаконак', 'amenity': 'doctors', 'healthcare': 'doctor', 'healthcare:speciality': 'endocrinology;paediatrics;internal;family_medicine', 'name': 'Д-р Мечкарови', 'opening_hours': 'Mo-Th 08:00-18:00, Fr 08:00-13:00', 'operator': 'Д-р Мечкарови', 'phone': '+359 32 960 480'}}"
"{'type': 'node', 'id': 6512673608, 'lat': 42.139967, 'lon': 24.7567264, 'tags': {'addr:city': 'Пловдив', 'addr:housenumber': '63', 'addr:street': 'Славянска', 'amenity': 'dentist', 'description': 'Амбулатория за индивидуална практика за първична помощ по дентална медицина - Мимоза Дент"" ЕООД', 'healthcare': 'dentist', 'name': 'Д-р Мария Янкова', 'phone': '+359 88 991 5451'}}"
"{'type': 'node', 'id': 6512686539, 'lat': 42.1395988, 'lon': 24.7365147, 'tags': {'addr:city': 'Пловдив', 'addr:housenumber': '15', 'addr:street': 'Васил Априлов', 'amenity': 'dentist', 'description': 'Създаден от високо специализирани кадри Екипът на денталния център е създаден от високо специализирани кадри. Всеки работи само по своята профилна специалност, което дава възможност за подържане високото ниво на професионално усъвършенстване.', 'healthcare': 'dentist', 'name': 'Дентален център 2', 'phone': '+359 32 264 277', 'website': 'http://dentalencentar2.com/'}}"
"{'type': 'node', 'id': 6516430220, 'lat': 42.1361063, 'lon': 24.7574299, 'tags': {'amenity': 'pharmacy', 'contact:facebook': 'https://www.facebook.com/apteki366/', 'contact:phone': '+359 32 207 092', 'contact:website': 'https://366.bg/', 'healthcare': 'pharmacy', 'name': 'Аптека 36.6 Военна Болница', 'opening_hours': 'Mo-Fr 08:00-20:00;Sa-Su 09:00-18:00', 'operator': 'ALPHARMASY', 'shop': 'medical_supply'}}"
"{'type': 'node', 'id': 6516433490, 'lat': 42.1363515, 'lon': 24.7578091, 'tags': {'amenity': 'pharmacy', 'healthcare': 'pharmacy'}}"
"{'type': 'node', 'id': 6542337138, 'lat': 42.1378714, 'lon': 24.7512852, 'tags': {'addr:city': 'Пловдив', 'addr:housenumber': '5', 'addr:postcode': '4000', 'addr:street': 'Костаки Пеев', 'healthcare': 'psychotherapist', 'healthcare:speciality': 'psychotherapist', 'name': 'Консултативен център ""Светът е шарен""', 'website': 'https://www.psihologdobreva.com/'}}"
"{'type': 'node', 'id': 6592059915, 'lat': 40.9376876, 'lon': 24.4201599, 'tags': {'addr:housenumber': '81', 'addr:postcode': '65201', 'addr:street': 'Κολοκοτρώνη', 'amenity': 'pharmacy', 'healthcare': 'pharmacy', 'name': 'Θεοδωρίδης Βαλεντίνος', 'phone': '+302510232271'}}"
"{'type': 'node', 'id': 6594571667, 'lat': 42.1484528, 'lon': 24.7313833, 'tags': {'amenity': 'pharmacy', 'healthcare': 'pharmacy', 'name': 'Сигма'}}"
"{'type': 'node', 'id': 6594571669, 'lat': 42.1475713, 'lon': 24.7307413, 'tags': {'amenity': 'pharmacy', 'brand': 'SOpharmacy', 'brand:wikidata': 'Q108852081', 'healthcare': 'pharmacy', 'name': 'SOpharmacy'}}"
"{'type': 'node', 'id': 6594571672, 'lat': 42.1474813, 'lon': 24.7296955, 'tags': {'amenity': 'pharmacy', 'healthcare': 'pharmacy'}}"
"{'type': 'node', 'id': 6594581796, 'lat': 42.1460823, 'lon': 24.7213411, 'tags': {'amenity': 'pharmacy', 'name': 'Avenue'}}"
"{'type': 'node', 'id': 6594797064, 'lat': 40.9088494, 'lon': 24.657636, 'tags': {'amenity': 'pharmacy', 'healthcare': 'pharmacy'}}"
"{'type': 'node', 'id': 6615722707, 'lat': 42.1379467, 'lon': 24.7400537, 'tags': {'addr:city': 'Пловдив', 'addr:housenumber': '20', 'addr:street': 'Васил Априлов', 'amenity': 'doctors', 'healthcare': 'doctor', 'healthcare:speciality': 'urology', 'name': 'Д-р Васил Ангелов', 'phone': '+359 87 811 2088', 'website': 'https://dr-vasil-angelov.business.site/'}}"
"{'type': 'node', 'id': 6615742030, 'lat': 42.150767, 'lon': 24.7432498, 'tags': {'addr:city': 'Пловдив', 'addr:housenumber': '5', 'addr:street': 'Димитър Цончев', 'amenity': 'hospital', 'description': 'Д-р Юрий Асенов има 26 годишен трудов стаж, от които 21 години (1990 – 2011г.), посветени на пластичната хирургия. Завършил през 1984г. “Медицина” в Пловдивския медицинки институт.', 'healthcare': 'hospital', 'name': 'Д-р Юрий Асенов - Пластичен Хирург', 'phone': '+359 88 820 4506', 'website': 'https://dr-asenov.business.site/'}}"
"{'type': 'node', 'id': 6623018036, 'lat': 40.9387037, 'lon': 24.4105066, 'tags': {'addr:housenumber': '84', 'addr:street': 'Ομονοίας', 'amenity': 'pharmacy', 'healthcare': 'pharmacy', 'name': 'Τριανταφύλλου Μαρία', 'phone': '+302510838146'}}"
"{'type': 'node', 'id': 6623041934, 'lat': 40.9393445, 'lon': 24.4085285, 'tags': {'amenity': 'pharmacy', 'healthcare': 'pharmacy', 'name': 'Δημητρακούδη Σαπφώ', 'phone': '+302510222860'}}"
"{'type': 'node', 'id': 6640874660, 'lat': 40.9373917, 'lon': 24.414432, 'tags': {'addr:housenumber': '17', 'addr:postcode': '65201', 'addr:street': 'Γαλλικής Δημοκρατίας', 'amenity': 'pharmacy', 'healthcare': 'pharmacy', 'name': 'Μαροπούλου-Παπαχριστοδούλου', 'phone': '+302510831386'}}"
"{'type': 'node', 'id': 6640874661, 'lat': 40.936955, 'lon': 24.4143287, 'tags': {'addr:housenumber': '5', 'addr:postcode': '65302', 'addr:street': 'Γαλλικής Δημοκρατίας', 'amenity': 'pharmacy', 'healthcare': 'pharmacy', 'name': 'Νικολαΐδης Δημήτριος', 'phone': '+302510227271'}}"
"{'type': 'node', 'id': 6681985690, 'lat': 41.1376633, 'lon': 24.8895621, 'tags': {'addr:city': 'Ξάνθη', 'addr:postcode': '67100', 'addr:street': 'Μιχαήλ Καραολή', 'amenity': 'dentist', 'healthcare': 'dentist', 'healthcare:speciality': 'dentist', 'name': 'Simeonidis Christoforos - Dentist', 'phone': '+30 25410 28082'}}"
"{'type': 'node', 'id': 6694906943, 'lat': 41.172829, 'lon': 24.2134084, 'tags': {'amenity': 'pharmacy', 'dispensing': 'yes', 'healthcare': 'pharmacy', 'operator': 'ΓΚΟΥΡΤΣΑ ΑΝΑΣΤΑΣΙΑ'}}"
"{'type': 'node', 'id': 6716362531, 'lat': 41.5822646, 'lon': 24.6809082, 'tags': {'amenity': 'dentist', 'healthcare': 'dentist'}}"
"{'type': 'node', 'id': 6734809350, 'lat': 42.1393095, 'lon': 24.7503613, 'tags': {'addr:city': 'Пловдив', 'addr:housenumber': '7', 'addr:street': 'Цанко Дюстабанов', 'description': 'Д-р Вълчева /Деляна Вълчева/. Дейност: Психолог,Психотерапевт, Доктор по невропсихология с дългогодишен опит - психотерапия, индивидуално и семейно консултиране, психологически изследвания, диагностика и др.', 'healthcare': 'psychotherapist', 'name': 'Психотерапевтичен кабинет | Д-р Вълчева', 'phone': '+359 89 933 2037', 'website': 'https://phsihoterapevtichen-kabinet.business.site/'}}"
"{'type': 'node', 'id': 6734845864, 'lat': 42.138229, 'lon': 24.7395954, 'tags': {'addr:city': 'Пловдив', 'addr:housenumber': '20', 'addr:street': 'Васил Априлов', 'amenity': 'dentist', 'description': 'Д-р Даниела Спасова е завършила ""Факултета по дентална медицина"" към ""Медицинския университет"" в град Пловдив.Има интереси в областта на естетичната и детската дентална медицина.', 'healthcare': 'dentist', 'name': 'Д-р Даниела Спасова', 'phone': '+359 88 696 2509', 'website': 'https://dr-spasova.business.site/'}}"
"{'type': 'node', 'id': 6806372758, 'lat': 41.1043256, 'lon': 24.8998221, 'tags': {'amenity': 'pharmacy', 'healthcare': 'pharmacy', 'level': '0', 'opening_hours': 'Mo-Fr 09:00-15:00; Tu,Th 17:30-20:30; PH closed'}}"
"{'type': 'node', 'id': 6926372601, 'lat': 42.1381433, 'lon': 24.7235533, 'tags': {'amenity': 'pharmacy'}}"
"{'type': 'node', 'id': 6926372885, 'lat': 42.1477563, 'lon': 24.735843, 'tags': {'amenity': 'doctors', 'healthcare': 'doctor'}}"
"{'type': 'node', 'id': 6927303086, 'lat': 42.1395511, 'lon': 24.728582, 'tags': {'amenity': 'pharmacy'}}"
"{'type': 'node', 'id': 6927327489, 'lat': 42.135512, 'lon': 24.7370035, 'tags': {'amenity': 'dentist', 'healthcare': 'dentist'}}"
"{'type': 'node', 'id': 6927327588, 'lat': 42.1507217, 'lon': 24.7497914, 'tags': {'amenity': 'pharmacy', 'healthcare': 'pharmacy', 'name': '36,6'}}"
"{'type': 'node', 'id': 6927327589, 'lat': 42.1509037, 'lon': 24.7496304, 'tags': {'amenity': 'pharmacy', 'healthcare': 'pharmacy'}}"
"{'type': 'node', 'id': 6927328886, 'lat': 42.1364437, 'lon': 24.7380002, 'tags': {'amenity': 'dentist', 'healthcare': 'dentist', 'name': 'Meriam dental clinic'}}"
"{'type': 'node', 'id': 6932081685, 'lat': 42.1445249, 'lon': 24.732113, 'tags': {'amenity': 'pharmacy', 'healthcare': 'pharmacy'}}"
"{'type': 'node', 'id': 6932081892, 'lat': 42.149497, 'lon': 24.7446457, 'tags': {'amenity': 'dentist', 'healthcare': 'dentist'}}"
"{'type': 'node', 'id': 7007928304, 'lat': 42.1369282, 'lon': 24.7247657, 'tags': {'addr:city': 'Пловдив', 'addr:housenumber': '11', 'addr:postcode': '4002', 'addr:street': 'Копривките', 'amenity': 'dentist', 'email': 'office@popadiyska.com', 'healthcare': 'dentist', 'healthcare:speciality': 'dentist', 'name': 'д-р Валентина Попадийска', 'name:en': 'dr. Valentina Popadiyska', 'opening_hours': 'Mo-Su 09:00-20:00', 'operator': 'Valentina Popadiyska', 'phone': '+359 89 875 3119', 'website': 'https://popadiyska.com'}}"
"{'type': 'node', 'id': 7071962732, 'lat': 42.0592126, 'lon': 25.263757, 'tags': {'amenity': 'hospital', 'description': 'Здравна служба', 'healthcare': 'hospital', 'name': 'Здравна служба'}}"
"{'type': 'node', 'id': 7114013656, 'lat': 42.0124269, 'lon': 24.8812483, 'tags': {'addr:city': 'Асеновград', 'addr:housenumber': '47', 'addr:street': 'Оборище', 'amenity': 'dentist', 'description': 'В кабинета работят: д-р Адрена Славкова - специалист ортодонт и ортопед, д-р Димитър Славков - ортодонт д-р Кети Славкова - ортодонт Има специализиран рентгенов кабинет за Сегментна рентгенография, Телерентгенография, Ортопантомография.', 'healthcare': 'dentist', 'name': 'Дентален център СЛАВКОВИ', 'phone': '+359 88 761 6683', 'website': 'https://slavkovi-dent.business.site/'}}"
"{'type': 'node', 'id': 7114041456, 'lat': 42.1324454, 'lon': 24.795231, 'tags': {'addr:city': 'Пловдив', 'addr:housenumber': '43', 'addr:street': 'Съединение', 'amenity': 'dentist', 'healthcare': 'dentist', 'name': 'Д-р Велина Илева | Dentessa', 'phone': '+359 89 843 4915', 'website': 'https://dr-ileva.business.site/'}}"
"{'type': 'node', 'id': 7236472856, 'lat': 42.1391912, 'lon': 24.7679526, 'tags': {'amenity': 'pharmacy', 'brand': 'Фрамар', 'brand:wikidata': 'Q108852095', 'healthcare': 'pharmacy', 'name': 'Фрамар', 'name:en': 'Framar'}}"
"{'type': 'node', 'id': 7241857965, 'lat': 42.1269261, 'lon': 24.7414494, 'tags': {'addr:city': 'Пловдив', 'addr:housenumber': '2', 'addr:street': 'Георги Кондолов', 'amenity': 'dentist', 'healthcare': 'dentist', 'name': 'Д-р Сара Данки', 'phone': '+359 89 446 2922', 'website': 'https://dr-sara-danki.business.site/'}}"
"{'type': 'node', 'id': 7647174861, 'lat': 42.1321202, 'lon': 24.7499791, 'tags': {'amenity': 'pharmacy', 'brand': 'Betty', 'brand:wikidata': 'Q121912842', 'healthcare': 'pharmacy', 'name': 'Betty'}}"
"{'type': 'node', 'id': 7647174868, 'lat': 42.1305657, 'lon': 24.7494064, 'tags': {'amenity': 'pharmacy', 'brand': 'Марешки', 'brand:wikidata': 'Q108852051', 'healthcare': 'pharmacy', 'name': 'Марешки', 'name:en': 'Mareshki'}}"
"{'type': 'node', 'id': 7647174870, 'lat': 42.1302922, 'lon': 24.748355, 'tags': {'amenity': 'pharmacy', 'name': 'PharmaPolis'}}"
"{'type': 'node', 'id': 7647174871, 'lat': 42.1294607, 'lon': 24.7481699, 'tags': {'amenity': 'pharmacy', 'brand': 'SOpharmacy', 'brand:wikidata': 'Q108852081', 'healthcare': 'pharmacy', 'name': 'SOpharmacy'}}"
"{'type': 'node', 'id': 7762313448, 'lat': 42.1392349, 'lon': 24.7679365, 'tags': {'amenity': 'pharmacy', 'healthcare': 'pharmacy', 'name': 'Аптека 1'}}"
"{'type': 'node', 'id': 7834506435, 'lat': 40.9626313, 'lon': 24.512559, 'tags': {'amenity': 'pharmacy', 'healthcare': 'pharmacy'}}"
"{'type': 'node', 'id': 7834532285, 'lat': 40.9632949, 'lon': 24.5089365, 'tags': {'amenity': 'pharmacy', 'healthcare': 'pharmacy', 'name': 'Γιαννάκης Ε. Σωτήριος'}}"
"{'type': 'node', 'id': 7926079072, 'lat': 42.1366157, 'lon': 24.7432699, 'tags': {'amenity': 'pharmacy', 'contact:facebook': 'https://www.facebook.com/apteki366/', 'contact:phone': '+359 32 260 207', 'contact:website': 'https://366.bg/', 'healthcare': 'pharmacy', 'name': 'Аптека 36.6 Иван Вазов', 'opening_hours': 'Mo-Fr 08:00-20:00;Sa-Su 09:00-20:00', 'operator': 'FARMAACTIVE', 'wheelchair': 'no'}}"
"{'type': 'node', 'id': 8236999093, 'lat': 42.125608, 'lon': 24.687695, 'tags': {'amenity': 'pharmacy', 'contact:facebook': 'https://www.facebook.com/apteki366/', 'contact:phone': '+359 32 241 085', 'contact:website': 'https://366.bg/', 'name': 'Аптека 36.6 Прослав', 'opening_hours': 'Mo-Fr 08:00-20:00;Sa 09:00-19:00;Su 10:00-18:00', 'operator': 'ROYALPHARMACY', 'shop': 'medical_supply'}}"
"{'type': 'node', 'id': 8236999094, 'lat': 42.1330888, 'lon': 24.7441399, 'tags': {'amenity': 'pharmacy', 'contact:facebook': 'https://www.facebook.com/apteki366/', 'contact:phone': '+359 32 673 220', 'contact:website': 'https://366.bg/', 'name': 'Аптека 36.6 Билла Родопи', 'opening_hours': 'Mo-Fr 08:00-21:00;Sa 09:00-21:00;Su 09:00-20:30', 'operator': 'FARMAACTIVE', 'shop': 'medical_supply'}}"
"{'type': 'node', 'id': 8236999095, 'lat': 42.158119, 'lon': 24.733441, 'tags': {'amenity': 'pharmacy', 'check_date:opening_hours': '2024-08-17', 'contact:facebook': 'https://www.facebook.com/apteki366/', 'contact:phone': '+359 32 967 164', 'contact:website': 'https://366.bg/', 'name': 'Аптека 36.6 Ленинград', 'opening_hours': 'Mo-Su 08:00-20:00', 'operator': 'FARMATRADE', 'shop': 'medical_supply'}}"
"{'type': 'node', 'id': 8236999100, 'lat': 42.0093141, 'lon': 24.8707294, 'tags': {'amenity': 'pharmacy', 'contact:facebook': 'https://www.facebook.com/apteki366/', 'contact:phone': '+359 331 21 138', 'contact:website': 'https://366.bg/', 'healthcare': 'pharmacy', 'name': 'Аптека 36.6 България', 'opening_hours': 'Mo-Fr 08:00-20:00;Sa 09:00-19:00;Su 09:00-18:00', 'operator': 'PHARMAPRIM', 'shop': 'medical_supply'}}"
"{'type': 'node', 'id': 8236999102, 'lat': 42.1385069, 'lon': 24.7219071, 'tags': {'amenity': 'pharmacy', 'contact:facebook': 'https://www.facebook.com/apteki366/', 'contact:phone': '+359 87 636 6103', 'contact:website': 'https://366.bg/', 'name': 'Аптека 36.6 Уест Поинт', 'opening_hours': 'Mo-Fr 08:00-20:00; Sa-Su 09:30-19:30', 'operator': 'FARMATRADE', 'shop': 'medical_supply'}}"
"{'type': 'node', 'id': 8236999103, 'lat': 42.1295441, 'lon': 24.7865939, 'tags': {'amenity': 'pharmacy', 'contact:facebook': 'https://www.facebook.com/apteki366/', 'contact:phone': '+359 87 636 6049', 'contact:website': 'https://366.bg/', 'healthcare': 'pharmacy', 'name': '36.6 Тракия', 'opening_hours': 'Mo-Fr 08:00-20:00;Sa-Su 09:00-20:00', 'operator': 'ROYALPHARMACY', 'shop': 'medical_supply'}}"
"{'type': 'node', 'id': 8236999104, 'lat': 42.1228085, 'lon': 24.7403634, 'tags': {'amenity': 'pharmacy', 'contact:facebook': 'https://www.facebook.com/apteki366/', 'contact:phone': '+359 87 636 6220', 'contact:website': 'https://366.bg/', 'name': 'Аптека 36.6 Ритейл Парк', 'opening_hours': 'Mo-Su 09:00-20:00', 'operator': 'PHARMAPRIM', 'shop': 'medical_supply'}}"
"{'type': 'node', 'id': 8236999105, 'lat': 42.157331, 'lon': 24.738692, 'tags': {'amenity': 'pharmacy', 'contact:facebook': 'https://www.facebook.com/apteki366/', 'contact:phone': '+359 87 636 6011', 'contact:website': 'https://366.bg/', 'name': 'Аптека 36.6 Победа', 'opening_hours': 'Mo-Fr 09:00-19:00;Sa 10:00-18:00', 'operator': 'ROYALPHARMACY', 'shop': 'medical_supply'}}"
"{'type': 'node', 'id': 8236999106, 'lat': 42.1594411, 'lon': 24.7477591, 'tags': {'amenity': 'pharmacy', 'contact:facebook': 'https://www.facebook.com/apteki366/', 'contact:phone': '+359 32 941 595', 'contact:website': 'https://366.bg/', 'name': 'Аптека 36.6 Панаира', 'opening_hours': 'Mo-Fr 08:00-21:00;Sa-Su 09:00-20:00', 'operator': 'RV 2007', 'shop': 'medical_supply'}}"
"{'type': 'node', 'id': 8236999107, 'lat': 42.1473424, 'lon': 24.7296462, 'tags': {'amenity': 'pharmacy', 'contact:facebook': 'https://www.facebook.com/apteki366/', 'contact:phone': '+359 32 644 618', 'contact:website': 'https://366.bg/', 'healthcare': 'pharmacy', 'name': 'Аптека 36.6 Тонус', 'opening_hours': 'Mo-Fr 08:00-19:00;Sa 09:00-16:00', 'operator': 'ALPHARMASY', 'shop': 'medical_supply'}}"
"{'type': 'node', 'id': 8434889535, 'lat': 42.131211, 'lon': 24.744784, 'tags': {'addr:city': 'Пловдив', 'addr:postcode': '4013', 'addr:street': 'бул. Македония', 'amenity': 'pharmacy', 'contact:facebook': 'https://www.facebook.com/apteki366/', 'contact:phone': '+359 87 636 6703', 'contact:website': 'https://366.bg/', 'healthcare': 'pharmacy', 'name': 'Аптека 36.6 Събота Пазара', 'opening_hours': 'Mo-Fr 08:00-21:00; Sa 08:30-21:00; Su 09:00-20:00', 'operator': 'FARMATRADING'}}"
"{'type': 'node', 'id': 8434889536, 'lat': 42.1532929, 'lon': 24.7499174, 'tags': {'amenity': 'pharmacy', 'contact:facebook': 'https://www.facebook.com/apteki366/', 'contact:phone': '+359 32 626 017', 'contact:website': 'https://366.bg/', 'name': 'АПТЕКA 36.6 ТУНЕЛА - БИЛКОВА', 'opening_hours': 'Mo-Fr 07:30-21:00;Sa 09:00-20:00;Su 09:00-19:00', 'operator': 'FARMATRADING'}}"
"{'type': 'node', 'id': 8735513451, 'lat': 42.1570113, 'lon': 24.7439249, 'tags': {'amenity': 'dentist', 'check_date': '2024-09-04', 'healthcare': 'dentist', 'name': 'Дентална клиника 42'}}"
"{'type': 'node', 'id': 8837787137, 'lat': 42.1005285, 'lon': 24.7021847, 'tags': {'amenity': 'pharmacy', 'name': 'Здраве'}}"
"{'type': 'node', 'id': 8837791566, 'lat': 42.1004666, 'lon': 24.7026329, 'tags': {'amenity': 'pharmacy', 'opening_hours': 'Mo-Fr 08:00-20:00; Sa 09:00-17:00'}}"
"{'type': 'node', 'id': 8850130453, 'lat': 40.9506783, 'lon': 24.1450538, 'tags': {'amenity': 'pharmacy'}}"
"{'type': 'node', 'id': 9096920634, 'lat': 42.1585571, 'lon': 24.7322899, 'tags': {'amenity': 'pharmacy', 'name': 'Гален'}}"
"{'type': 'node', 'id': 9104044373, 'lat': 41.6152649, 'lon': 25.0049351, 'tags': {'amenity': 'pharmacy'}}"
"{'type': 'node', 'id': 9129905582, 'lat': 42.1601855, 'lon': 24.7316683, 'tags': {'amenity': 'pharmacy', 'name': 'Медихоуп фарм'}}"
"{'type': 'node', 'id': 9136940934, 'lat': 42.142079, 'lon': 24.7993451, 'tags': {'amenity': 'pharmacy', 'healthcare': 'pharmacy'}}"
"{'type': 'node', 'id': 9192305769, 'lat': 42.1557764, 'lon': 24.7322926, 'tags': {'amenity': 'pharmacy', 'brand': 'Фрамар', 'brand:wikidata': 'Q108852095', 'healthcare': 'pharmacy', 'name': 'Фрамар', 'name:en': 'Framar'}}"
"{'type': 'node', 'id': 9192456486, 'lat': 42.1225956, 'lon': 24.7480103, 'tags': {'amenity': 'pharmacy'}}"
"{'type': 'node', 'id': 9201751907, 'lat': 42.1408797, 'lon': 24.7894371, 'tags': {'amenity': 'pharmacy', 'healthcare': 'pharmacy'}}"
"{'type': 'node', 'id': 9201751911, 'lat': 42.1414625, 'lon': 24.7901224, 'tags': {'amenity': 'pharmacy', 'healthcare': 'pharmacy', 'name': 'B6'}}"
"{'type': 'node', 'id': 9241151655, 'lat': 42.1484966, 'lon': 24.7291625, 'tags': {'amenity': 'pharmacy', 'healthcare': 'pharmacy', 'name': 'Dara'}}"
"{'type': 'node', 'id': 9243065860, 'lat': 42.1358835, 'lon': 24.7898018, 'tags': {'amenity': 'pharmacy', 'healthcare': 'pharmacy', 'name': 'Life'}}"
"{'type': 'node', 'id': 9280548939, 'lat': 42.1597958, 'lon': 24.728689, 'tags': {'amenity': 'pharmacy', 'name': 'Телесфор-Т'}}"
"{'type': 'node', 'id': 9343137708, 'lat': 42.1524377, 'lon': 24.7885811, 'tags': {'addr:city': 'Пловдив', 'addr:street': 'Герлово', 'amenity': 'pharmacy', 'brand': 'Марешки', 'brand:wikidata': 'Q108852051', 'dispensing': 'yes', 'healthcare': 'pharmacy', 'name': 'Марешки', 'name:en': 'Mareshki', 'opening_hours': 'Mo-Sa 08:00-20:00; Su 08:00-18:00', 'phone': '+359 87 987 8735'}}"
"{'type': 'node', 'id': 9447841219, 'lat': 42.1587729, 'lon': 24.73967, 'tags': {'brand': 'Synevo', 'brand:wikidata': 'Q110583425', 'healthcare': 'laboratory', 'name': 'Synevo', 'name:bg': 'Синево', 'name:en': 'Synevo', 'opening_hours': 'Mo-Fr 07:30-17:00', 'operator': 'Synevo', 'website': 'https://www.synevo.bg/manipulatsionna-plovdiv-luksor/'}}"
"{'type': 'node', 'id': 9447841220, 'lat': 42.1587719, 'lon': 24.7397357, 'tags': {'addr:housenumber': '2', 'addr:street': 'Самара', 'amenity': 'doctors', 'brand': 'Bodimed', 'brand:wikidata': 'Q110583446', 'contact:email': 'office@bodimed.com', 'contact:facebook': 'https://www.facebook.com/bodimed.laboratory', 'contact:instagram': 'https://www.instagram.com/bodimed.laboratory', 'contact:linkedin': 'https://bg.linkedin.com/company/bodimed-medical-diagnostic-laboratory', 'contact:phone': '+359 700 70 113', 'contact:website': 'https://bodimed.com', 'healthcare': 'laboratory', 'int_name': 'Bodimed', 'name': 'Bodimed', 'name:bg': 'Бодимед', 'name:en': 'Bodimed', 'opening_hours': 'Mo-Fr 07:30-15:00', 'operator': 'Бодимед'}}"
"{'type': 'node', 'id': 9447852102, 'lat': 42.1587271, 'lon': 24.7395936, 'tags': {'addr:housenumber': '59', 'addr:street': 'бул. България', 'amenity': 'clinic', 'healthcare': 'clinic', 'healthcare:speciality': 'ophthalmology', 'name': 'Очна Клиника ""Луксор""', 'phone': '+359 32 968 881', 'website': 'https://www.luxorclinic.com/'}}"
"{'type': 'node', 'id': 9534092303, 'lat': 42.1377512, 'lon': 24.7181225, 'tags': {'amenity': 'pharmacy'}}"
"{'type': 'node', 'id': 9558246544, 'lat': 42.1662534, 'lon': 24.7489813, 'tags': {'amenity': 'pharmacy', 'brand': 'SOpharmacy', 'brand:wikidata': 'Q108852081', 'check_date:opening_hours': '2023-04-20', 'healthcare': 'pharmacy', 'name': 'SOpharmacy', 'opening_hours': 'Mo-Su 08:00-21:00'}}"
"{'type': 'node', 'id': 9702935888, 'lat': 42.147188, 'lon': 24.7280346, 'tags': {'amenity': 'pharmacy', 'name': 'Амизи'}}"
"{'type': 'node', 'id': 9702935890, 'lat': 42.1475563, 'lon': 24.7305991, 'tags': {'amenity': 'doctors', 'brand': 'Bodimed', 'brand:wikidata': 'Q110583446', 'contact:email': 'office@bodimed.com', 'contact:facebook': 'https://www.facebook.com/bodimed.laboratory', 'contact:instagram': 'https://www.instagram.com/bodimed.laboratory', 'contact:linkedin': 'https://bg.linkedin.com/company/bodimed-medical-diagnostic-laboratory', 'contact:phone': '+359 700 70 113', 'contact:website': 'https://bodimed.com', 'healthcare': 'laboratory', 'int_name': 'Bodimed', 'name': 'Bodimed', 'name:bg': 'Бодимед', 'name:en': 'Bodimed', 'opening_hours': 'Mo-Fr 07:00-16:00; Sa 07:00-12:00'}}"
"{'type': 'node', 'id': 9745010774, 'lat': 42.1297879, 'lon': 24.715396, 'tags': {'amenity': 'pharmacy', 'brand': 'Марешки', 'brand:wikidata': 'Q108852051', 'healthcare': 'pharmacy', 'name': 'Марешки', 'name:en': 'Mareshki'}}"
"{'type': 'node', 'id': 9790751549, 'lat': 42.0166327, 'lon': 25.2955209, 'tags': {'amenity': 'hospital', 'healthcare': 'hospital', 'name': 'Здравна служба'}}"
"{'type': 'node', 'id': 9798814291, 'lat': 42.135463, 'lon': 24.7399297, 'tags': {'addr:city': 'Пловдив', 'addr:housenumber': '20A', 'addr:postcode': '4000', 'addr:street': 'Кавала', 'amenity': 'dentist', 'description': 'Д-р Милка Рудова практикува дентална медицина, поставяне на филъри, мезотерапии и плазмотерапии от 2014 година насам в град Пловдив.', 'healthcare': 'dentist', 'healthcare:speciality': 'dentist', 'name': 'Д-р Милка Рудова', 'name:bg': 'Д-р Милка Рудова', 'name:en': 'Dr. Milka Rudova', 'note': 'зъболекар, филъри, филъри за устни, филъри за лице, мезотерапии, плазмотерапии, ботокс, стоматолог https://www.facebook.com/dr.rudova https://www.instagram.com/dr_rudova/', 'opening_hours': 'Mo-Fr 09:00-18:00', 'phone': '+359 88 635 9030', 'start_date': '2014-01-01', 'website': 'https://dr-rudova.com/'}}"
"{'type': 'node', 'id': 9917387882, 'lat': 42.1612641, 'lon': 24.7563212, 'tags': {'amenity': 'pharmacy', 'brand': 'SOpharmacy', 'brand:wikidata': 'Q108852081', 'healthcare': 'pharmacy', 'name': 'SOpharmacy'}}"
"{'type': 'node', 'id': 9917387883, 'lat': 42.1614471, 'lon': 24.7563319, 'tags': {'amenity': 'pharmacy', 'name': 'Аптека Запад'}}"
"{'type': 'node', 'id': 9917428941, 'lat': 42.1643667, 'lon': 24.7469589, 'tags': {'amenity': 'pharmacy', 'name': 'Фармакон'}}"
"{'type': 'node', 'id': 9937743040, 'lat': 40.905567, 'lon': 24.6714444, 'tags': {'amenity': 'pharmacy', 'dispensing': 'yes', 'healthcare': 'pharmacy'}}"
"{'type': 'node', 'id': 9950989758, 'lat': 42.1577916, 'lon': 24.7191471, 'tags': {'healthcare': 'laboratory', 'name': 'Русев ЕООД'}}"
"{'type': 'node', 'id': 10140133166, 'lat': 42.1246238, 'lon': 24.7206478, 'tags': {'amenity': 'pharmacy', 'brand': 'SOpharmacy', 'brand:wikidata': 'Q108852081', 'healthcare': 'pharmacy', 'name': 'SOpharmacy'}}"
"{'type': 'node', 'id': 10140179208, 'lat': 42.111024, 'lon': 24.7094697, 'tags': {'amenity': 'hospital', 'name': 'Еврохоспитал'}}"
"{'type': 'node', 'id': 10140187731, 'lat': 42.1258811, 'lon': 24.7206274, 'tags': {'amenity': 'pharmacy', 'brand': 'Фрамар', 'brand:wikidata': 'Q108852095', 'healthcare': 'pharmacy', 'name': 'Фрамар', 'name:en': 'Framar'}}"
"{'type': 'node', 'id': 10159552939, 'lat': 41.8331847, 'lon': 24.8261605, 'tags': {'amenity': 'hospital', 'name': 'Работническа поликлиника'}}"
"{'type': 'node', 'id': 10162238991, 'lat': 42.0761085, 'lon': 24.6649276, 'tags': {'amenity': 'pharmacy'}}"
"{'type': 'node', 'id': 10162880583, 'lat': 42.1778857, 'lon': 24.6247183, 'tags': {'amenity': 'clinic', 'healthcare': 'clinic'}}"
"{'type': 'node', 'id': 10605513213, 'lat': 42.0147679, 'lon': 24.8843764, 'tags': {'amenity': 'pharmacy', 'healthcare': 'pharmacy'}}"
"{'type': 'node', 'id': 10737763031, 'lat': 42.1364454, 'lon': 24.7158131, 'tags': {'amenity': 'pharmacy', 'name': 'Bayer', 'opening_hours': '24/7'}}"
"{'type': 'node', 'id': 10737763053, 'lat': 42.1362197, 'lon': 24.7185047, 'tags': {'amenity': 'pharmacy', 'name': 'Запад Триумф 2'}}"
"{'type': 'node', 'id': 10743634911, 'lat': 41.1137921, 'lon': 25.31685, 'tags': {'addr:city': 'Κομοτηνή', 'addr:postcode': '691 00', 'amenity': 'hospital', 'building:architecture': 'modern', 'healthcare': 'hospital', 'name': 'Νοσοκομείο Κομοτηνής', 'name:bg': 'Gradska Bolnica', 'name:de': 'Bürgerspital', 'name:el': 'Νοσοκομείο Κομοτηνής', 'name:en': 'Hospital of Komotini', 'name:tr': 'Şehir Hastânesi', 'start_date': '2025', 'website': 'https://komotini-hospital.gr', 'wheelchair': 'yes'}}"
"{'type': 'node', 'id': 10747755730, 'lat': 42.1734924, 'lon': 24.7413363, 'tags': {'amenity': 'pharmacy', 'brand': 'SOpharmacy', 'brand:wikidata': 'Q108852081', 'healthcare': 'pharmacy', 'name': 'SOpharmacy'}}"
"{'type': 'node', 'id': 10748727998, 'lat': 41.6457495, 'lon': 25.3753297, 'tags': {'addr:city': 'Кърджали', 'addr:housenumber': '53', 'addr:postcode': '6600', 'addr:street': 'бул.”Беломорски”', 'amenity': 'hospital', 'emergency': 'yes', 'healthcare': 'hospital', 'name': 'МБАЛ”Д-р Ат.Дафовски”АД'}}"
"{'type': 'node', 'id': 10761710187, 'lat': 42.1608486, 'lon': 24.7550364, 'tags': {'amenity': 'pharmacy', 'name': 'Рони'}}"
"{'type': 'node', 'id': 10787492297, 'lat': 42.141809, 'lon': 24.733283, 'tags': {'amenity': 'dentist', 'healthcare': 'dentist', 'name': 'TD Dent'}}"
"{'type': 'node', 'id': 10930813947, 'lat': 42.1222889, 'lon': 24.737671, 'tags': {'amenity': 'pharmacy', 'brand': 'Марешки', 'brand:wikidata': 'Q108852051', 'healthcare': 'pharmacy', 'name': 'Марешки', 'name:en': 'Mareshki'}}"
"{'type': 'node', 'id': 10963045991, 'lat': 42.1608524, 'lon': 24.741098, 'tags': {'addr:city': 'Пловдив', 'addr:housenumber': '3', 'addr:street': 'Анри Барбюс', 'amenity': 'doctors', 'healthcare': 'doctor', 'healthcare:speciality': 'neurology', 'name': 'Неврологичен кабинет д-р Бързински', 'operator': 'д-р Бързински, д-р Бързинска', 'phone': '+359 888 342 391'}}"
"{'type': 'node', 'id': 10965222649, 'lat': 41.3779794, 'lon': 25.2556805, 'tags': {'amenity': 'pharmacy', 'healthcare': 'pharmacy', 'medicine': 'survey_point', 'name': 'Аптека'}}"
"{'type': 'node', 'id': 10965327383, 'lat': 41.3805652, 'lon': 25.2549602, 'tags': {'healthcare': 'pharmacy', 'healthcare:speciality': 'hea', 'name': 'Аптека'}}"
"{'type': 'node', 'id': 10965688634, 'lat': 41.3766439, 'lon': 25.2563635, 'tags': {'amenity': 'hospital', 'healthcare': 'hospital', 'name': 'Спешна Медицинска Помощ  - Филиал Бенковски'}}"
"{'type': 'node', 'id': 10965747015, 'lat': 41.3807616, 'lon': 25.2553004, 'tags': {'amenity': 'doctors', 'healthcare': 'doctor', 'healthcare:speciality': 'ophthalmology', 'name': 'Очен доктор'}}"
"{'type': 'node', 'id': 10965747016, 'lat': 41.3807858, 'lon': 25.2553046, 'tags': {'amenity': 'pharmacy', 'healthcare': 'pharmacy', 'name': 'Аптека'}}"
"{'type': 'node', 'id': 10982993809, 'lat': 42.1828655, 'lon': 24.3450352, 'tags': {'amenity': 'pharmacy', 'brand': 'SOpharmacy', 'brand:wikidata': 'Q108852081', 'healthcare': 'pharmacy', 'name': 'SOpharmacy'}}"
"{'type': 'node', 'id': 10983673765, 'lat': 42.1941033, 'lon': 24.3317244, 'tags': {'addr:housenumber': '14', 'addr:postcode': '4400', 'addr:street': 'бул. Александър Стамболийски', 'alt_name': 'Pharamacy 37.7', 'amenity': 'pharmacy', 'healthcare': 'pharmacy', 'name': 'Аптека 37.7', 'phone': '089 480 9992'}}"
"{'type': 'node', 'id': 11002277133, 'lat': 42.1378894, 'lon': 24.7866319, 'tags': {'check_date': '2023-06-23', 'healthcare': 'laboratory', 'name': 'Медицинска лаборатория ""Лина""', 'opening_hours': 'Mo-Fr 07:00-18:00; Sa 07:00-14:00', 'payment:mastercard': 'yes', 'payment:visa': 'yes', 'wheelchair': 'limited'}}"
"{'type': 'node', 'id': 11024168729, 'lat': 42.0764784, 'lon': 24.5965712, 'tags': {'amenity': 'pharmacy', 'healthcare': 'pharmacy', 'name': 'св. Екатерина'}}"
"{'type': 'node', 'id': 11064711738, 'lat': 42.1278161, 'lon': 24.7205745, 'tags': {'amenity': 'pharmacy', 'brand': 'SOpharmacy', 'brand:wikidata': 'Q108852081', 'healthcare': 'pharmacy', 'name': 'SOpharmacy'}}"
"{'type': 'node', 'id': 11098987385, 'lat': 42.136168, 'lon': 24.796278, 'tags': {'amenity': 'pharmacy', 'brand': 'Subra', 'brand:wikidata': 'Q118120555', 'healthcare': 'pharmacy', 'name': 'Subra', 'name:bg': 'Субра'}}"
"{'type': 'node', 'id': 11098987392, 'lat': 42.1330302, 'lon': 24.7951864, 'tags': {'amenity': 'pharmacy', 'brand': 'Марешки', 'brand:wikidata': 'Q108852051', 'healthcare': 'pharmacy', 'name': 'Марешки', 'name:en': 'Mareshki'}}"
"{'type': 'node', 'id': 11098987402, 'lat': 42.1290957, 'lon': 24.7851884, 'tags': {'amenity': 'pharmacy'}}"
"{'type': 'node', 'id': 11204423645, 'lat': 42.1450128, 'lon': 24.7228625, 'tags': {'amenity': 'doctors', 'brand': 'Bodimed', 'brand:wikidata': 'Q110583446', 'contact:email': 'office@bodimed.com', 'contact:facebook': 'https://www.facebook.com/bodimed.laboratory', 'contact:instagram': 'https://www.instagram.com/bodimed.laboratory', 'contact:linkedin': 'https://bg.linkedin.com/company/bodimed-medical-diagnostic-laboratory', 'contact:phone': '+359 700 70 113', 'contact:website': 'https://bodimed.com', 'healthcare': 'laboratory', 'int_name': 'Bodimed', 'name': 'Bodimed', 'name:bg': 'Бодимед', 'name:en': 'Bodimed', 'opening_hours': 'Mo-Fr 07:30-15:00', 'operator': 'BODIMED'}}"
"{'type': 'node', 'id': 11204423646, 'lat': 42.1450319, 'lon': 24.7229886, 'tags': {'amenity': 'dentist', 'healthcare': 'dentist', 'name': 'Дентална Клиника \'Патрикови""', 'name:en': 'Dental Clinic ""Patrikovi""'}}"
"{'type': 'node', 'id': 11242940124, 'lat': 42.131985, 'lon': 24.7032094, 'tags': {'amenity': 'pharmacy', 'name': '36.6'}}"
"{'type': 'node', 'id': 11242940125, 'lat': 42.1321063, 'lon': 24.7031705, 'tags': {'amenity': 'pharmacy', 'name': 'Galen'}}"
"{'type': 'node', 'id': 11242940127, 'lat': 42.1322077, 'lon': 24.7027132, 'tags': {'amenity': 'pharmacy'}}"
"{'type': 'node', 'id': 11242951751, 'lat': 42.1255667, 'lon': 24.6857442, 'tags': {'amenity': 'clinic', 'name': 'Медицински център Прослав'}}"
"{'type': 'node', 'id': 11359039018, 'lat': 42.1523066, 'lon': 24.7929313, 'tags': {'addr:city': 'Пловдив', 'addr:postcode': '4000', 'addr:street': 'Преспа', 'amenity': 'pharmacy'}}"
"{'type': 'node', 'id': 11359039020, 'lat': 42.1522117, 'lon': 24.7929259, 'tags': {'amenity': 'pharmacy', 'name': 'Аптеки Запад'}}"
"{'type': 'node', 'id': 11439345969, 'lat': 42.1286543, 'lon': 24.7334108, 'tags': {'amenity': 'clinic', 'name:ru': 'медицински център Кючук Париж'}}"
"{'type': 'node', 'id': 11728383750, 'lat': 42.1453806, 'lon': 24.7819087, 'tags': {'amenity': 'pharmacy', 'brand': 'Subra', 'brand:wikidata': 'Q118120555', 'healthcare': 'pharmacy', 'name': 'Subra', 'name:bg': 'Субра'}}"
"{'type': 'node', 'id': 11733513623, 'lat': 42.1885143, 'lon': 24.3241695, 'tags': {'amenity': 'doctors', 'brand': 'Bodimed', 'brand:wikidata': 'Q110583446', 'contact:email': 'office@bodimed.com', 'contact:facebook': 'https://www.facebook.com/bodimed.laboratory', 'contact:instagram': 'https://www.instagram.com/bodimed.laboratory', 'contact:linkedin': 'https://bg.linkedin.com/company/bodimed-medical-diagnostic-laboratory', 'contact:phone': '+359 700 70 113', 'contact:website': 'https://bodimed.com', 'healthcare': 'laboratory', 'int_name': 'Bodimed', 'name': 'Bodimed', 'name:bg': 'Бодимед', 'name:en': 'Bodimed', 'opening_hours': 'Mo-Fr 07:30-14:30'}}"
"{'type': 'node', 'id': 11733513634, 'lat': 42.1257239, 'lon': 24.7192236, 'tags': {'amenity': 'doctors', 'brand': 'Bodimed', 'brand:wikidata': 'Q110583446', 'contact:email': 'office@bodimed.com', 'contact:facebook': 'https://www.facebook.com/bodimed.laboratory', 'contact:instagram': 'https://www.instagram.com/bodimed.laboratory', 'contact:linkedin': 'https://bg.linkedin.com/company/bodimed-medical-diagnostic-laboratory', 'contact:phone': '+359 700 70 113', 'contact:website': 'https://bodimed.com', 'healthcare': 'laboratory', 'int_name': 'Bodimed', 'name': 'Bodimed', 'name:bg': 'Бодимед', 'name:en': 'Bodimed', 'opening_hours': 'Mo-Fr 07:30-15:00'}}"
