OSM_Data
"{'type': 'node', 'id': 356814651, 'lat': 31.77319, 'lon': -106.4344563, 'tags': {'addr:city': 'El Paso', 'addr:housenumber': '4801', 'addr:postcode': '79905', 'addr:state': 'TX', 'addr:street': 'Alberta Avenue', 'amenity': 'clinic', 'gnis:feature_id': '2015591', 'healthcare': 'clinic', 'name': 'Texas Tech Medical Center El Paso', 'website': 'http://www.elpaso.ttuhsc.edu/elpaso/clinics/'}}"
"{'type': 'node', 'id': 663081766, 'lat': 32.2834898, 'lon': -106.760842, 'tags': {'addr:housenumber': '705', 'addr:postcode': '88001', 'addr:street': 'East University Avenue', 'amenity': 'dentist', 'healthcare': 'dentist', 'name': 'University Family Dental', 'phone': '+1-575-521-0127', 'website': 'https://www.drkimmartin.com/'}}"
"{'type': 'node', 'id': 1227321548, 'lat': 32.3150489, 'lon': -106.7522462, 'tags': {'addr:housenumber': '540', 'addr:postcode': '88001', 'addr:street': 'Walton Boulevard', 'addr:suite': 'C', 'amenity': 'clinic', 'healthcare': 'clinic', 'name': 'Nights Evening Weekends (NEW) Urgent Care Center', 'phone': '+1-575-525-2700', 'source': 'Bing'}}"
"{'type': 'node', 'id': 1241481960, 'lat': 32.2924839, 'lon': -106.7345816, 'tags': {'addr:housenumber': '2455', 'addr:postcode': '88011', 'addr:street': 'South Telshor Boulevard', 'amenity': 'doctors', 'description': 'Neurology', 'healthcare': 'doctor', 'name': 'Pawan Jain MD PC', 'opening_hours': 'Mo-Fr 08:30-17:30', 'phone': '+1-575-522-5558'}}"
"{'type': 'node', 'id': 1254511754, 'lat': 32.3023567, 'lon': -106.742468, 'tags': {'addr:housenumber': '1401', 'addr:street': 'S Don Riser Rd', 'addr:suite': 'E2', 'healthcare': 'yes', 'name': 'Prime Care Orthotics & Prosthetics', 'opening_hours': 'Mo-Fr 09:00-17:00', 'phone': '+1-575-523-2273'}}"
"{'type': 'node', 'id': 1254511756, 'lat': 32.3023336, 'lon': -106.742603, 'tags': {'addr:housenumber': '1401', 'addr:street': 'S Don Riser Rd', 'addr:suite': 'F1', 'healthcare': 'rehabilitation', 'name': 'Esperanza Guidance Services', 'opening_hours': 'Mo-Th 09:00-18:00; Fr 09:00-17:00'}}"
"{'type': 'node', 'id': 1254511760, 'lat': 32.3030253, 'lon': -106.7429385, 'tags': {'addr:housenumber': '1401', 'addr:street': 'S Don Riser Road', 'addr:suite': 'A1', 'amenity': 'dentist', 'healthcare': 'dentist', 'name': 'Milagro Community Care', 'phone': '+1-575-521-4848'}}"
"{'type': 'node', 'id': 1254598797, 'lat': 32.3055652, 'lon': -106.742549, 'tags': {'addr:city': 'Las Cruces', 'addr:country': 'US', 'addr:housenumber': '1161', 'addr:street': 'Mall Dr', 'addr:suite': 'C', 'amenity': 'doctors', 'healthcare': 'doctor', 'healthcare:speciality': 'psychiatry', 'name': 'Exclusive Psychiatric Care'}}"
"{'type': 'node', 'id': 1254598820, 'lat': 32.3052404, 'lon': -106.7429643, 'tags': {'addr:city': 'Las Cruces', 'addr:housenumber': '1180', 'addr:street': 'Mall Dr', 'addr:suite': 'A', 'amenity': 'doctors', 'healthcare': 'doctor', 'name': 'G. Pavia MD', 'opening_hours': 'Mo-Th 08:00-17:00; Fr 08:00-15:00'}}"
"{'type': 'node', 'id': 1254598837, 'lat': 32.3068903, 'lon': -106.742887, 'tags': {'addr:city': 'Las Cruces', 'addr:country': 'US', 'addr:housenumber': '1121', 'addr:street': 'Mall Drive', 'addr:suite': 'C', 'healthcare': 'laboratory', 'name': 'Las Cruces PET/CT Imaging', 'opening_hours': 'Mo-Fr 08:00-16:30', 'phone': '+1-575-522-5540'}}"
"{'type': 'node', 'id': 1254598887, 'lat': 32.3052155, 'lon': -106.742202, 'tags': {'addr:city': 'Las Cruces', 'addr:country': 'US', 'addr:housenumber': '1181', 'addr:street': 'Mall Dr', 'addr:suite': 'E', 'healthcare': 'physiotherapist', 'name': 'Southwest Sport & Spine Center', 'phone': '+1-575-522-3316'}}"
"{'type': 'node', 'id': 1254598952, 'lat': 32.3069537, 'lon': -106.742716, 'tags': {'addr:city': 'Las Cruces', 'addr:country': 'US', 'addr:housenumber': '1121', 'addr:street': 'Mall Drive', 'addr:suite': 'A', 'healthcare': 'laboratory', 'name': 'S.E.D Medical Labratories', 'opening_hours': 'Mo-Fr 07:00-17:30; Sa 07:00-12:00', 'phone': '+1-575-532-6163'}}"
"{'type': 'node', 'id': 1255807663, 'lat': 32.3008515, 'lon': -106.737853, 'tags': {'amenity': 'doctors', 'healthcare': 'doctor', 'name': 'Sergio Huerta D.O. Family Practise', 'opening_hours': 'Mo-Th 08:30-17:30; Fr 08:30-12:00', 'phone': '+1-575-521-9485'}}"
"{'type': 'node', 'id': 1255807696, 'lat': 32.3004027, 'lon': -106.738462, 'tags': {'addr:city': 'Las Cruces', 'addr:country': 'US', 'addr:state': 'NM', 'addr:street': 'Missouri Avenue', 'addr:suite': '10', 'healthcare': 'yes', 'name': 'Childrens Wellness Center', 'opening_hours': 'Mo-Fr 08:00-17:00'}}"
"{'type': 'node', 'id': 1255807776, 'lat': 32.3002987, 'lon': -106.73779, 'tags': {'addr:city': 'Las Cruces', 'addr:country': 'US', 'addr:street': 'Missouri Avenue', 'addr:suite': '27', 'amenity': 'doctors', 'healthcare': 'doctor', 'healthcare:speciality': 'paediatrics', 'name': 'M Crawley Pediatric', 'opening_hours': 'Mo-Th 7:30-14:30; Fr 7:30-12:00'}}"
"{'type': 'node', 'id': 1255807888, 'lat': 32.3006613, 'lon': -106.738469, 'tags': {'addr:city': 'Las Cruces', 'addr:country': 'US', 'addr:state': 'NM', 'addr:street': 'Missouri Avenue', 'addr:suite': '14', 'amenity': 'doctors', 'healthcare': 'doctor', 'name': 'Roderick A Fields M.D.', 'opening_hours': 'Mo-Fr 08:00-17:00'}}"
"{'type': 'node', 'id': 1255807915, 'lat': 32.3005707, 'lon': -106.73851, 'tags': {'addr:city': 'Las Cruces', 'addr:country': 'US', 'addr:state': 'NM', 'addr:street': 'Missouri Avenue', 'addr:suite': '12', 'healthcare': 'yes', 'name': 'Ann Mercer Internal Medicine', 'opening_hours': 'Mo 08:00-15:00; Tu 07:00-15:00; We 08:30-17:00; Th 07:00-15:00; Fr 08:30-12:00'}}"
"{'type': 'node', 'id': 1259075119, 'lat': 32.2988399, 'lon': -106.743863, 'tags': {'addr:city': 'Las Cruces', 'addr:country': 'US', 'addr:housenumber': '2445', 'addr:state': 'NM', 'addr:street': 'Missouri Avenue', 'addr:suite': 'A', 'healthcare': 'physiotherapist', 'name': 'Del Valle Physical Therapy & Rehabilitation', 'opening_hours': 'Mo-Fr 08:00-18:00'}}"
"{'type': 'node', 'id': 1259075195, 'lat': 32.2987949, 'lon': -106.744073, 'tags': {'addr:city': 'Las Cruces', 'addr:country': 'US', 'addr:housenumber': '2445', 'addr:state': 'NM', 'addr:street': 'Missouri Avenue', 'addr:suite': 'B & C', 'healthcare': 'physiotherapist', 'name': 'Prosthetics & Orthotics Hanger Inc', 'opening_hours': 'Mo-Fr 08:00-17:00', 'phone': '+1-575-521-3928'}}"
"{'type': 'node', 'id': 1261847612, 'lat': 32.2991994, 'lon': -106.743473, 'tags': {'addr:city': 'Las Cruces', 'addr:country': 'US', 'addr:housenumber': '2455', 'addr:state': 'NM', 'addr:street': 'Missouri Avenue', 'addr:suite': 'C', 'healthcare': 'physiotherapist', 'name': ""MiraSol Women's Health & Physical Therapy"", 'opening_hours': 'Mo-Fr 09:00-18:00', 'phone': '+1-575-556-8440'}}"
"{'type': 'node', 'id': 1261848119, 'lat': 32.2988453, 'lon': -106.743535, 'tags': {'addr:city': 'Las Cruces', 'addr:country': 'US', 'addr:housenumber': '2455', 'addr:state': 'NM', 'addr:street': 'Missouri Avenue', 'addr:suite': 'B', 'healthcare': 'rehabilitation', 'name': 'MiraSol Lymphedema & Rehab Center'}}"
"{'type': 'node', 'id': 1609784270, 'lat': 31.7082211, 'lon': -106.4295477, 'tags': {'amenity': 'hospital', 'healthcare': 'hospital'}}"
"{'type': 'node', 'id': 1828301122, 'lat': 31.6688407, 'lon': -106.4123992, 'tags': {'amenity': 'pharmacy', 'name': 'Farmacia La Victoria'}}"
"{'type': 'node', 'id': 2253399100, 'lat': 32.311183, 'lon': -106.755577, 'tags': {'addr:housenumber': '2710', 'amenity': 'clinic', 'healthcare': 'clinic', 'name': 'Concentra Urgent Care', 'operator': 'Concentra', 'operator:wikidata': 'Q5158304'}}"
"{'type': 'node', 'id': 3164636283, 'lat': 31.7337018, 'lon': -106.4496706, 'tags': {'amenity': 'pharmacy', 'healthcare': 'pharmacy'}}"
"{'type': 'node', 'id': 3168642992, 'lat': 31.7180576, 'lon': -106.3976389, 'tags': {'amenity': 'pharmacy'}}"
"{'type': 'node', 'id': 3203889460, 'lat': 31.742076, 'lon': -106.4986294, 'tags': {'amenity': 'pharmacy'}}"
"{'type': 'node', 'id': 3341120969, 'lat': 31.7215741, 'lon': -106.4173383, 'tags': {'amenity': 'pharmacy', 'brand': 'Benavides', 'brand:wikidata': 'Q5435613', 'brand:wikipedia': 'en:Farmacias Benavides', 'healthcare': 'pharmacy', 'name': 'Benavides', 'source': 'local_knowledge'}}"
"{'type': 'node', 'id': 3370654211, 'lat': 31.7447745, 'lon': -106.4566898, 'tags': {'amenity': 'pharmacy'}}"
"{'type': 'node', 'id': 3407455480, 'lat': 31.6912984, 'lon': -106.4033442, 'tags': {'amenity': 'pharmacy'}}"
"{'type': 'node', 'id': 3569490806, 'lat': 31.8418942, 'lon': -106.57923, 'tags': {'amenity': 'pharmacy', 'healthcare': 'pharmacy'}}"
"{'type': 'node', 'id': 3649184772, 'lat': 31.6943412, 'lon': -106.3742911, 'tags': {'amenity': 'pharmacy'}}"
"{'type': 'node', 'id': 3753509019, 'lat': 31.6705938, 'lon': -106.4332521, 'tags': {'healthcare': 'blood_donation', 'name': 'Centro Transfusion Sanguinea'}}"
"{'type': 'node', 'id': 3775419593, 'lat': 31.698963, 'lon': -106.403911, 'tags': {'healthcare': 'laboratory', 'name': 'Biotec Laboratorio'}}"
"{'type': 'node', 'id': 3799953800, 'lat': 31.6735284, 'lon': -106.4158224, 'tags': {'amenity': 'pharmacy'}}"
"{'type': 'node', 'id': 3886392063, 'lat': 31.7013346, 'lon': -106.4250298, 'tags': {'amenity': 'pharmacy', 'healthcare': 'pharmacy'}}"
"{'type': 'node', 'id': 3891882830, 'lat': 31.7379825, 'lon': -106.4406677, 'tags': {'amenity': 'pharmacy', 'healthcare': 'pharmacy'}}"
"{'type': 'node', 'id': 3958894652, 'lat': 31.7641966, 'lon': -106.5135391, 'tags': {'amenity': 'pharmacy'}}"
"{'type': 'node', 'id': 3969426570, 'lat': 31.6853355, 'lon': -106.3708725, 'tags': {'addr:city': 'Juarez', 'addr:housenumber': '2210', 'addr:postcode': '32540', 'addr:street': 'Calle Fidel Avila', 'amenity': 'hospital', 'name': 'Centro de Salud # 14', 'operator': 'Secretaria de Salud'}}"
"{'type': 'node', 'id': 3997765798, 'lat': 31.7371519, 'lon': -106.4477144, 'tags': {'amenity': 'pharmacy', 'healthcare': 'pharmacy'}}"
"{'type': 'node', 'id': 4010327168, 'lat': 31.7326972, 'lon': -106.4131924, 'tags': {'amenity': 'pharmacy', 'healthcare': 'pharmacy'}}"
"{'type': 'node', 'id': 4241791773, 'lat': 31.7719999, 'lon': -106.43622, 'tags': {'addr:city': 'El Paso', 'addr:housenumber': '4615', 'addr:postcode': '79905', 'addr:state': 'TX', 'addr:street': 'Alameda Avenue', 'amenity': 'hospital', 'beds': '74', 'emergency': 'no', 'healthcare': 'hospital', 'healthcare:speciality': 'psychiatry', 'name': 'El Paso Psychiatric Center', 'operator': 'Texas Department of State Health Services', 'source': 'Bing Imagery', 'website': 'https://dshs.texas.gov/mhhospitals/default.shtm'}}"
"{'type': 'node', 'id': 4375784300, 'lat': 31.8642562, 'lon': -106.5785206, 'tags': {'addr:city': 'El Paso', 'addr:housenumber': '351', 'addr:postcode': '79932', 'addr:street': 'East Redd Road', 'amenity': 'clinic', 'emergency': 'yes', 'healthcare': 'clinic', 'name': 'Sun City West Emergency Room', 'opening_hours': '24/7', 'operator': 'Sun City Emergency Room', 'phone': '+1-915-255-4575', 'website': 'http://www.suncityer.com/'}}"
"{'type': 'node', 'id': 4375798816, 'lat': 31.7289171, 'lon': -106.4425073, 'tags': {'amenity': 'pharmacy', 'healthcare': 'pharmacy'}}"
"{'type': 'node', 'id': 4375798822, 'lat': 31.7277421, 'lon': -106.4375745, 'tags': {'amenity': 'pharmacy', 'healthcare': 'pharmacy'}}"
"{'type': 'node', 'id': 4407534830, 'lat': 31.6938872, 'lon': -106.4043409, 'tags': {'amenity': 'pharmacy'}}"
"{'type': 'node', 'id': 4407635383, 'lat': 31.697928, 'lon': -106.3933883, 'tags': {'amenity': 'pharmacy'}}"
"{'type': 'node', 'id': 4407635386, 'lat': 31.6926138, 'lon': -106.3846038, 'tags': {'amenity': 'pharmacy'}}"
"{'type': 'node', 'id': 4538883778, 'lat': 32.3263017, 'lon': -106.724957, 'tags': {'addr:city': 'Las Cruces', 'addr:housenumber': '4451', 'addr:postcode': '88011', 'addr:street': 'East Lohman Avenue', 'amenity': 'hospital', 'emergency': 'no', 'gnis:feature_id': '2697020', 'name': 'Advanced Care Hospital of Southern New Mexico', 'phone': '+1-575-521-6600', 'website': 'https://achsnm.ernesthealth.com/'}}"
"{'type': 'node', 'id': 4567897098, 'lat': 31.6102783, 'lon': -106.3864768, 'tags': {'amenity': 'pharmacy', 'name': 'Farmacia Similares'}}"
"{'type': 'node', 'id': 4638902579, 'lat': 31.7588665, 'lon': -106.487353, 'tags': {'amenity': 'pharmacy', 'healthcare': 'pharmacy'}}"
"{'type': 'node', 'id': 4638902584, 'lat': 31.8590711, 'lon': -106.558356, 'tags': {'addr:city': 'El Paso', 'addr:state': 'TX', 'amenity': 'pharmacy', 'brand': 'CVS Pharmacy', 'brand:website': 'https://www.cvs.com/', 'brand:wikidata': 'Q2078880', 'brand:wikipedia': 'en:CVS Pharmacy', 'healthcare': 'pharmacy', 'name': 'CVS Pharmacy', 'short_name': 'CVS', 'website': 'https://www.cvs.com/store-locator/el-paso-tx-pharmacies/680-e-redd-rd-el-paso-tx-79912/storeid=11020'}}"
"{'type': 'node', 'id': 4649157089, 'lat': 31.7392749, 'lon': -106.430299, 'tags': {'amenity': 'pharmacy', 'healthcare': 'pharmacy'}}"
"{'type': 'node', 'id': 4906165550, 'lat': 31.7961208, 'lon': -106.22953, 'tags': {'amenity': 'pharmacy', 'brand': 'Walmart', 'brand:wikidata': 'Q483551', 'dispensing': 'yes', 'drive_through': 'yes', 'healthcare': 'pharmacy', 'name': 'Walmart Pharmacy', 'operator': 'Walmart', 'website': 'https://www.walmart.com/store/6813-el-paso-tx/pharmacy'}}"
"{'type': 'node', 'id': 5102313837, 'lat': 31.7135379, 'lon': -106.4456047, 'tags': {'amenity': 'pharmacy', 'healthcare': 'pharmacy'}}"
"{'type': 'node', 'id': 5102313838, 'lat': 31.7161423, 'lon': -106.4511432, 'tags': {'amenity': 'pharmacy', 'healthcare': 'pharmacy'}}"
"{'type': 'node', 'id': 5102317557, 'lat': 31.7078124, 'lon': -106.4820157, 'tags': {'amenity': 'pharmacy'}}"
"{'type': 'node', 'id': 5700544350, 'lat': 31.771455, 'lon': -106.4339563, 'tags': {'addr:city': 'El Paso', 'addr:housenumber': '4845', 'addr:postcode': '79905', 'addr:state': 'TX', 'addr:street': 'Alameda Avenue', 'amenity': 'hospital', 'beds': '122', 'emergency': 'yes', 'healthcare': 'hospital', 'healthcare:speciality': 'paediatrics', 'name': ""El Paso Children's Hospital"", 'opening_hours': '24/7', 'phone': '+1-915-298-5444', 'website': 'https://elpasochildrens.org/'}}"
"{'type': 'node', 'id': 6009008019, 'lat': 31.6603255, 'lon': -106.4419206, 'tags': {'amenity': 'pharmacy', 'dispensing': 'yes', 'healthcare': 'pharmacy', 'name': 'Similares'}}"
"{'type': 'node', 'id': 6219582826, 'lat': 31.8972312, 'lon': -106.4339577, 'tags': {'amenity': 'doctors', 'healthcare': 'doctor', 'healthcare:speciality': 'general', 'name': 'Well Med'}}"
"{'type': 'node', 'id': 6348004590, 'lat': 32.3273606, 'lon': -106.7843699, 'tags': {'addr:city': 'Las Cruces', 'addr:housenumber': '2151', 'addr:postcode': '88001', 'addr:state': 'NM', 'addr:street': 'North Main Street', 'healthcare': 'alternative', 'healthcare:speciality': 'chiropractic', 'name': 'Chiropractic Caring for You  Dr. Edward Richardson'}}"
"{'type': 'node', 'id': 6428818279, 'lat': 31.7385488, 'lon': -106.4847046, 'tags': {'amenity': 'pharmacy', 'brand': 'Benavides', 'brand:wikidata': 'Q5435613', 'brand:wikipedia': 'en:Farmacias Benavides', 'dispensing': 'yes', 'healthcare': 'pharmacy', 'name': 'Benavides'}}"
"{'type': 'node', 'id': 6428818909, 'lat': 31.7390592, 'lon': -106.485886, 'tags': {'amenity': 'pharmacy', 'brand': 'Benavides', 'brand:wikidata': 'Q5435613', 'brand:wikipedia': 'en:Farmacias Benavides', 'dispensing': 'yes', 'healthcare': 'pharmacy', 'name': 'Benavides'}}"
"{'type': 'node', 'id': 6543560111, 'lat': 31.6323829, 'lon': -106.4198908, 'tags': {'amenity': 'dentist', 'healthcare': 'dentist'}}"
"{'type': 'node', 'id': 6836272829, 'lat': 31.8589875, 'lon': -106.556999, 'tags': {'addr:city': 'El Paso', 'addr:state': 'TX', 'amenity': 'pharmacy', 'brand': 'Walgreens', 'brand:wikidata': 'Q1591889', 'dispensing': 'yes', 'healthcare': 'pharmacy', 'name': 'Walgreens'}}"
"{'type': 'node', 'id': 6864114020, 'lat': 31.7438205, 'lon': -106.4911511, 'tags': {'addr:housenumber': '642', 'addr:street': 'Calle Ignacio Aldama', 'healthcare': 'physiotherapist', 'name': 'Chaman'}}"
"{'type': 'node', 'id': 7043875699, 'lat': 31.7805795, 'lon': -106.475975, 'tags': {'addr:city': 'El Paso', 'addr:housenumber': '1900', 'addr:postcode': '79902', 'addr:state': 'TX', 'addr:street': 'Denver Avenue', 'beds': '163', 'healthcare': 'Mental_Health', 'name': 'El Paso Behavioral Health System', 'phone': '+1-915-544-4000', 'website': 'https://elpasobh.com/'}}"
"{'type': 'node', 'id': 7243683412, 'lat': 31.6351142, 'lon': -106.4104971, 'tags': {'amenity': 'pharmacy', 'dispensing': 'yes', 'healthcare': 'pharmacy', 'name': 'Chopo'}}"
"{'type': 'node', 'id': 7243683413, 'lat': 31.6351517, 'lon': -106.4104607, 'tags': {'healthcare': 'optometrist', 'name': 'Optica Carrera'}}"
"{'type': 'node', 'id': 7374677835, 'lat': 31.8187015, 'lon': -106.5476348, 'tags': {'amenity': 'pharmacy', 'brand': 'CVS Pharmacy', 'brand:website': 'https://www.cvs.com/', 'brand:wikidata': 'Q2078880', 'brand:wikipedia': 'en:CVS Pharmacy', 'dispensing': 'yes', 'healthcare': 'pharmacy', 'name': 'CVS Pharmacy', 'short_name': 'CVS', 'website': 'https://www.cvs.com/store-locator/el-paso-tx-pharmacies/801-sunland-park-dr-el-paso-tx-79912/storeid=16269'}}"
"{'type': 'node', 'id': 7391440447, 'lat': 31.6359382, 'lon': -106.3996425, 'tags': {'amenity': 'pharmacy', 'brand': 'Farmacia Benavides', 'brand:wikidata': 'Q5435613', 'brand:wikipedia': 'en:Farmacias Benavides', 'dispensing': 'yes', 'healthcare': 'pharmacy', 'name': 'Farmacia Benavides'}}"
"{'type': 'node', 'id': 7527746970, 'lat': 32.3185875, 'lon': -106.733771, 'tags': {'addr:city': 'Las Cruces', 'addr:housenumber': '3900', 'addr:postcode': '88001', 'addr:state': 'NM', 'addr:street': 'East Lohman Avenue', 'addr:unit': 'Suite A', 'amenity': 'doctors', 'healthcare': 'doctor', 'healthcare:speciality': 'ophthalmology;Retinology', 'name': 'Southwest Retina Consultants', 'phone': '+1-575-522-4774'}}"
"{'type': 'node', 'id': 7614023414, 'lat': 31.7399423, 'lon': -106.4866395, 'tags': {'amenity': 'pharmacy', 'dispensing': 'yes', 'healthcare': 'pharmacy', 'name': 'De la Salud'}}"
"{'type': 'node', 'id': 7868871501, 'lat': 31.6709351, 'lon': -106.4744635, 'tags': {'amenity': 'pharmacy'}}"
"{'type': 'node', 'id': 8263336213, 'lat': 31.7663829, 'lon': -106.3197129, 'tags': {'amenity': 'pharmacy', 'brand': 'Walgreens', 'brand:wikidata': 'Q1591889', 'dispensing': 'yes', 'healthcare': 'pharmacy', 'name': 'Walgreens'}}"
"{'type': 'node', 'id': 8581086118, 'lat': 31.6806664, 'lon': -106.4436019, 'tags': {'amenity': 'hospital', 'name': 'Cruz roja mexicana'}}"
"{'type': 'node', 'id': 9008112684, 'lat': 31.7607746, 'lon': -106.3537288, 'tags': {'addr:city': 'El Paso', 'addr:housenumber': '1210', 'addr:postcode': '79925', 'addr:state': 'TX', 'addr:street': 'Wedgewood Drive', 'amenity': 'pharmacy', 'brand': 'Walgreens', 'brand:wikidata': 'Q1591889', 'dispensing': 'yes', 'healthcare': 'pharmacy', 'name': 'Walgreens', 'ref': '1293'}}"
"{'type': 'node', 'id': 9128010230, 'lat': 32.2887999, 'lon': -106.7854639, 'tags': {'amenity': 'pharmacy', 'brand': 'Walmart', 'brand:wikidata': 'Q483551', 'dispensing': 'yes', 'healthcare': 'pharmacy', 'name': 'Walmart Pharmacy', 'website': 'https://www.walmart.com/store/5155-las-cruces-nm/pharmacy'}}"
"{'type': 'node', 'id': 9150529087, 'lat': 31.922433, 'lon': -106.4382113, 'tags': {'amenity': 'pharmacy', 'brand': 'Walgreens', 'brand:wikidata': 'Q1591889', 'dispensing': 'yes', 'healthcare': 'pharmacy', 'name': 'Walgreens'}}"
"{'type': 'node', 'id': 9233653717, 'lat': 31.6482622, 'lon': -106.3880848, 'tags': {'addr:postcode': '32580', 'addr:street': 'Avenida de las Torres', 'amenity': 'pharmacy', 'healthcare': 'pharmacy', 'name': 'Farmalivio'}}"
"{'type': 'node', 'id': 9378134274, 'lat': 31.8963436, 'lon': -106.4373779, 'tags': {'amenity': 'pharmacy', 'brand': 'Walmart', 'brand:wikidata': 'Q483551', 'dispensing': 'yes', 'healthcare': 'pharmacy', 'name': 'Walmart Pharmacy', 'website': 'https://www.walmart.com/store/500-el-paso-tx/pharmacy'}}"
"{'type': 'node', 'id': 9496056359, 'lat': 31.6880499, 'lon': -106.4174656, 'tags': {'healthcare': 'physiotherapist', 'phone': '+52 656 131 9375'}}"
"{'type': 'node', 'id': 9622860378, 'lat': 31.7206453, 'lon': -106.4349661, 'tags': {'amenity': 'pharmacy', 'brand': 'Farmacia Guadalajara', 'brand:wikidata': 'Q5435609', 'brand:wikipedia': 'en:Farmacias Guadalajara', 'dispensing': 'yes', 'healthcare': 'pharmacy', 'name': 'Farmacia Guadalajara'}}"
"{'type': 'node', 'id': 9622893040, 'lat': 31.7415122, 'lon': -106.457438, 'tags': {'healthcare': 'optometrist', 'name': 'Ophthalmic Laser Juarez, S.A. de C.V.', 'phone': '+526566137655'}}"
"{'type': 'node', 'id': 9625462917, 'lat': 31.745287, 'lon': -106.5077783, 'tags': {'amenity': 'pharmacy', 'dispensing': 'yes', 'healthcare': 'pharmacy', 'name': 'Farmalivio'}}"
"{'type': 'node', 'id': 9625577013, 'lat': 31.7361541, 'lon': -106.4093264, 'tags': {'amenity': 'pharmacy', 'brand': 'Farmacia Similares', 'brand:wikidata': 'Q62564610', 'dispensing': 'yes', 'healthcare': 'pharmacy', 'name': 'Farmacia Similares'}}"
"{'type': 'node', 'id': 9711818906, 'lat': 32.3022799, 'lon': -106.7913554, 'tags': {'addr:city': 'Las Cruces', 'addr:country': 'US', 'addr:postcode': '88005', 'addr:state': 'NM', 'addr:street': '585 South Valley, Ste B', 'healthcare': 'yes', 'name': 'Alpha Nurses', 'opening_hours': '24/7', 'phone': '+1-575-524-2400', 'website': 'https://alphanurses.biz'}}"
"{'type': 'node', 'id': 9791711870, 'lat': 32.3013827, 'lon': -106.7422619, 'tags': {'addr:city': 'Las Cruces', 'addr:postcode': '88011', 'addr:state': 'NM', 'addr:street': 'South Don Roser Drive', 'healthcare': 'yes', 'name': 'Southwest Pain Center', 'opening_hours': 'Mo-Fr 08:00-17:00', 'operator': 'Jose Ramirez', 'payment:american_express': 'yes', 'payment:cash': 'yes', 'payment:cheque': 'yes', 'payment:discover_card': 'yes', 'payment:mastercard': 'yes', 'payment:visa': 'yes', 'phone': '+1-575-525-3980', 'website': 'https://southwestpaincenter.net'}}"
"{'type': 'node', 'id': 9869946436, 'lat': 31.5966773, 'lon': -106.2733047, 'tags': {'addr:city': 'San Elizario', 'addr:housenumber': '12079', 'addr:postcode': '79849', 'addr:state': 'TX', 'addr:street': 'Socorro Road', 'amenity': 'clinic', 'healthcare': 'clinic', 'name': 'San Elizario Clinic'}}"
"{'type': 'node', 'id': 9988818594, 'lat': 31.6978524, 'lon': -106.1957443, 'tags': {'amenity': 'clinic', 'healthcare': 'clinic', 'name': 'St. Andrews Family Medicine Clinic'}}"
"{'type': 'node', 'id': 10080208966, 'lat': 31.6439205, 'lon': -106.4092067, 'tags': {'healthcare': 'physiotherapist', 'name': 'Terapia Fisica'}}"
"{'type': 'node', 'id': 10103364066, 'lat': 32.3123323, 'lon': -106.7517874, 'tags': {'amenity': 'pharmacy', 'brand': 'Walgreens', 'brand:wikidata': 'Q1591889', 'dispensing': 'yes', 'healthcare': 'pharmacy', 'name': 'Walgreens'}}"
"{'type': 'node', 'id': 10141582307, 'lat': 31.9989627, 'lon': -106.6055091, 'tags': {'addr:city': 'Anthony', 'addr:housenumber': '209', 'addr:postcode': '79821', 'addr:state': 'TX', 'addr:street': 'South Main Street', 'addr:unit': 'B', 'amenity': 'dentist', 'healthcare': 'dentist', 'name': 'Anthony Smiles Dental'}}"
"{'type': 'node', 'id': 10607118429, 'lat': 31.7958967, 'lon': -106.2469145, 'tags': {'healthcare': 'centre', 'healthcare:speciality': 'infectious_diseases', 'name': 'Infectious Disease Center of El Paso P.A.'}}"
"{'type': 'node', 'id': 10607118430, 'lat': 31.7958486, 'lon': -106.2470119, 'tags': {'healthcare': 'yes', 'name': 'Paragon Infusion Center'}}"
"{'type': 'node', 'id': 10607118470, 'lat': 31.7963678, 'lon': -106.2464945, 'tags': {'amenity': 'clinic', 'healthcare': 'clinic', 'name': 'Sun City Sports Medicine Family Clinic'}}"
"{'type': 'node', 'id': 10916244581, 'lat': 31.8801014, 'lon': -106.5737217, 'tags': {'addr:city': 'El Paso', 'addr:housenumber': '1390', 'addr:postcode': '79912', 'addr:state': 'TX', 'addr:street': 'Northwestern Drive', 'amenity': 'hospital', 'beds': '80', 'healthcare': 'hospital', 'healthcare:speciality': 'psychiatry', 'name': 'Rio Vista Behavioral Health', 'phone': '+1-915-209-4513', 'website': 'https://www.riovistabehavioral.com'}}"
"{'type': 'node', 'id': 10916989048, 'lat': 31.9378427, 'lon': -106.406735, 'tags': {'amenity': 'hospital', 'beds': '8', 'healthcare': 'hospital', 'name': 'The Hospitals Of Providence Northeast Campus', 'phone': '+1-281-292-2450', 'website': 'https://www.thehospitalsofprovidence.com/locations/detail/northeast-campus'}}"
"{'type': 'node', 'id': 10917010967, 'lat': 31.7890532, 'lon': -106.508826, 'tags': {'addr:city': 'El Paso', 'addr:housenumber': '300', 'addr:postcode': '79902', 'addr:state': 'TX', 'addr:street': 'Waymore', 'amenity': 'hospital', 'beds': '31', 'healthcare': 'rehabilitation', 'name': 'Las Palmas Rehabilitation Hospital A Campus Of LPDS Healthcare', 'website': 'https://laspalmasdelsolhealthcare.com'}}"
"{'type': 'node', 'id': 11016862705, 'lat': 31.778135, 'lon': -106.4866309, 'tags': {'addr:housenumber': '1300', 'addr:postcode': '79902', 'addr:street': 'Murchison Drive', 'healthcare': 'optometrist', 'name': 'Bueno Vista Eye Care', 'opening_hours': 'Mo-Th 08:00-17:00; Fr 08:00-13:00', 'phone': '+1-915-630-6463', 'website': 'https://buenavistaelpaso.com/'}}"
"{'type': 'node', 'id': 11018671666, 'lat': 31.6361615, 'lon': -106.4108727, 'tags': {'amenity': 'pharmacy', 'dispensing': 'yes', 'healthcare': 'pharmacy', 'name': 'Farmalivio'}}"
"{'type': 'node', 'id': 11156114351, 'lat': 31.6859385, 'lon': -106.4080865, 'tags': {'amenity': 'dentist', 'contact:email': 'hola@dentalia.com', 'contact:phone': '+52 800 003 3682', 'contact:website': 'https://dentalia.com', 'healthcare': 'dentist', 'name': 'Dentalia', 'opening_hours': 'Mo-Su 11:00-20:00'}}"
"{'type': 'node', 'id': 11294508612, 'lat': 31.7475526, 'lon': -106.4304293, 'tags': {'amenity': 'doctors', 'check_date': '2023-10-27', 'healthcare': 'doctor', 'healthcare:speciality': 'ophthalmology', 'name': 'ConVisión'}}"
"{'type': 'node', 'id': 11577458018, 'lat': 31.693159, 'lon': -106.4052299, 'tags': {'healthcare': 'pharmacy'}}"
"{'type': 'node', 'id': 11900198224, 'lat': 31.7687331, 'lon': -106.370111, 'tags': {'amenity': 'dentist', 'brand': 'Aspen Dental', 'brand:wikidata': 'Q4807808', 'healthcare': 'dentist', 'name': 'Aspen Dental'}}"
"{'type': 'node', 'id': 11905586809, 'lat': 31.6766611, 'lon': -106.4229363, 'tags': {'check_date': '2024-05-14', 'healthcare': 'alternative', 'healthcare:speciality': 'naturopathy', 'name': 'Tienda Naturista Alan'}}"
"{'type': 'node', 'id': 12084767526, 'lat': 31.8206206, 'lon': -106.5192709, 'tags': {'addr:city': 'El Paso', 'addr:housenumber': '5551', 'addr:postcode': '79912', 'addr:state': 'TX', 'addr:street': 'N. Mesa Street', 'addr:unit': 'A', 'amenity': 'dentist', 'description': 'At JT Orthodontics in El Paso, TX, our goal is to deliver extraordinary orthodontic care in a warm, patient-focused environment.', 'email': 'info@jtorthodontics.com', 'fax': '915-207-1290', 'healthcare': 'dentist', 'healthcare:speciality': 'orthodontist', 'name': 'JT Orthodontics', 'opening_hours': 'Monday-Friday: 8am-5pm', 'website': 'https://jtorthodontics.com/'}}"
"{'type': 'node', 'id': 12084998576, 'lat': 31.7649294, 'lon': -106.2993127, 'tags': {'addr:city': 'El Paso', 'addr:housenumber': '3030', 'addr:postcode': '79936', 'addr:state': 'TX', 'addr:street': 'Trawood Drive', 'amenity': 'dentist', 'contact:facebook': 'JTOrthoEast', 'contact:instagram': 'jtorthodontics.elp', 'email': 'infoeast@jtorthodontics.com', 'fax': '+1-915-207-1291', 'healthcare': 'dentist', 'healthcare:speciality': 'orthodontist', 'language:en': 'yes', 'name': 'JT Orthodontics', 'opening_hours': 'Mo-Fr 08:00-17:00', 'payment:carecredit': 'yes', 'payment:cash': 'yes', 'payment:credit_cards': 'yes', 'payment:mastercard': 'yes', 'payment:visa': 'yes', 'phone': '+1-915-855-6616', 'start_date': '1/1/2017'}}"
"{'type': 'node', 'id': 12337408563, 'lat': 31.7826408, 'lon': -106.2419626, 'tags': {'addr:city': 'El Paso', 'addr:housenumber': '14021', 'addr:postcode': '79938', 'addr:state': 'TX', 'addr:street': 'Pebble Hills Blvd', 'addr:unit': '101', 'healthcare': 'mental_health_clinic', 'healthcare:speciality': 'center-based_autism_therapy_(aba_therapy);assessment;autism_diagnostic_observation_schedule_assessment_(ados_assessment);abc_at_home_(home-based_therapy)', 'name': 'Action Behavior Centers - ABA Therapy for Autism', 'opening_hours': 'Mo-Fr 08:00-17:00', 'phone': '+1 915-529-0701', 'website': 'https://www.actionbehavior.com/locations/texas/greater-texas/aba-therapy-el-paso-the-shops-at-pebble-hills-tx/'}}"
"{'type': 'node', 'id': 12339517041, 'lat': 31.8878954, 'lon': -106.5711656, 'tags': {'addr:city': 'El Paso', 'addr:housenumber': '7470', 'addr:postcode': '79911', 'addr:state': 'TX', 'addr:street': 'Cimarron Plaza', 'addr:unit': 'Bldg 16, 200', 'description': 'Our El Paso ABA Therapy area centers provide autism therapy services for children aged 18 months – 13 years to achieve success on the spectrum.', 'healthcare': 'mental_health_clinic', 'healthcare:speciality': 'center-based_autism_therapy_(aba_therapy);assessment;autism_diagnostic_observation_schedule_assessment_(ados_assessment);abc_at_home_(home-based_therapy)', 'name': 'Action Behavior Centers - ABA Therapy for Autism', 'opening_hours': 'Mo-Fr 08:00-17:00', 'phone': '+1 915-975-5592', 'website': 'https://www.actionbehavior.com/locations/texas/greater-texas/aba-therapy-el-paso-the-canyons-at-cimarron-tx/'}}"
"{'type': 'node', 'id': 12401404311, 'lat': 31.6103416, 'lon': -106.6088513, 'tags': {'addr:city': 'Casas Grandes', 'addr:neighbourhood': 'Tolentino', 'addr:postcode': '32675', 'addr:state': 'CI', 'addr:street': 'Carretera Ascensión-Ciudad Juárez', 'amenity': 'clinic', 'healthcare': 'clinic', 'name': 'Vision En Accion Mision Rescate AC'}}"
