OSM_Data
"{'type': 'node', 'id': 923768053, 'lat': -9.6196448, 'lon': -42.0806736, 'tags': {'amenity': 'hospital', 'name': 'Hospital Casa de Saúde de Remanso'}}"
"{'type': 'node', 'id': 923768055, 'lat': -9.6194544, 'lon': -42.0803732, 'tags': {'amenity': 'hospital', 'name': 'Hospital São Pedro'}}"
"{'type': 'node', 'id': 4214721593, 'lat': -8.4014527, 'lon': -42.9121447, 'tags': {'addr:city': 'Tamboril do Piauí', 'amenity': 'clinic', 'emergency': 'no', 'name': 'Posto de Saúde'}}"
"{'type': 'node', 'id': 4688852885, 'lat': -9.1684808, 'lon': -42.5449749, 'tags': {'addr:city': 'São Lourenço do Piauí', 'addr:postcode': '64778-000', 'addr:street': 'Avenida Vinte e Nove de Abril', 'addr:suburb': 'Centro', 'amenity': 'hospital', 'healthcare': 'hospital'}}"
"{'type': 'node', 'id': 5274266677, 'lat': -9.5163856, 'lon': -43.0094521, 'tags': {'amenity': 'pharmacy', 'healthcare': 'pharmacy', 'name': 'Farmácia Maranata'}}"
"{'type': 'node', 'id': 6281888040, 'lat': -9.239933, 'lon': -42.9646017, 'tags': {'amenity': 'hospital', 'healthcare': 'hospital'}}"
"{'type': 'node', 'id': 6879416917, 'lat': -9.0261391, 'lon': -42.6880864, 'tags': {'addr:city': 'São Raimundo Nonato', 'addr:housenumber': '2014', 'addr:postcode': '64770-000', 'addr:street': 'Rua Doutor Humberto Paixão', 'addr:suburb': 'Galo Branco', 'amenity': 'pharmacy', 'dispensing': 'yes', 'healthcare': 'pharmacy', 'name': 'Farmácia Freitas', 'operator': 'Ebenezer Empreendimento Farmacêutico Limitada'}}"
"{'type': 'node', 'id': 8188122827, 'lat': -8.3624849, 'lon': -42.2473078, 'tags': {'addr:city': 'São João do Piauí', 'addr:housenumber': '500', 'addr:postcode': '64760-000', 'addr:street': 'Travessa Ernesto Carvalho', 'amenity': 'hospital', 'healthcare': 'hospital', 'name': 'Maternidade Municipal Mãe Elisa', 'wheelchair': 'yes'}}"
"{'type': 'node', 'id': 8191086213, 'lat': -8.3598974, 'lon': -42.2475641, 'tags': {'amenity': 'clinic', 'healthcare': 'clinic', 'name': 'Clínica Dona Florzinha'}}"
"{'type': 'node', 'id': 8196659418, 'lat': -8.3576436, 'lon': -42.2572188, 'tags': {'amenity': 'clinic', 'healthcare': 'clinic', 'name': 'Posto de Saúde'}}"
"{'type': 'node', 'id': 9448385676, 'lat': -9.0918542, 'lon': -42.9526852, 'tags': {'amenity': 'clinic', 'healthcare': 'clinic', 'name': 'UPA da Cristalina'}}"
"{'type': 'node', 'id': 9453033385, 'lat': -8.5578545, 'lon': -42.4372114, 'tags': {'amenity': 'clinic', 'healthcare': 'clinic'}}"
"{'type': 'node', 'id': 9455568915, 'lat': -8.4009088, 'lon': -42.9100545, 'tags': {'amenity': 'clinic', 'healthcare': 'clinic'}}"
"{'type': 'node', 'id': 10199698995, 'lat': -9.0526803, 'lon': -42.9400711, 'tags': {'amenity': 'pharmacy', 'dispensing': 'yes', 'healthcare': 'pharmacy', 'name': 'Drogaria Luiza'}}"
"{'type': 'node', 'id': 10745400267, 'lat': -9.0164394, 'lon': -42.6974888, 'tags': {'addr:city': 'São Raimundo Nonato', 'addr:postcode': '64770-000', 'addr:street': 'Rua Capitão Newton Rubem', 'addr:suburb': 'Aldeia', 'amenity': 'doctors', 'healthcare': 'doctor', 'healthcare:speciality': 'psychiatry', 'name': 'Centro de Atenção Psicossocial Serra da Capivara', 'operator': 'Município de São Raimundo Nonato'}}"
"{'type': 'node', 'id': 10745400273, 'lat': -9.0157711, 'lon': -42.6915184, 'tags': {'amenity': 'pharmacy', 'healthcare': 'pharmacy', 'name': 'Davina Farma'}}"
"{'type': 'node', 'id': 10751929743, 'lat': -9.0056535, 'lon': -42.6821531, 'tags': {'addr:city': 'São Raimundo Nonato', 'addr:postcode': '64770-000', 'addr:street': 'Avenida Coronel Milanes', 'addr:suburb': 'Cipó', 'amenity': 'clinic', 'healthcare': 'clinic', 'healthcare:speciality': 'psychiatry', 'name': 'Centro de Atendimento Psicosocial', 'operator': 'Município de São Raimundo Nonato', 'operator:type': 'public'}}"
"{'type': 'node', 'id': 10751929744, 'lat': -9.0051991, 'lon': -42.6821354, 'tags': {'addr:city': 'São Raimundo Nonato', 'addr:postcode': '64770-000', 'addr:street': 'Avenida Coronel Milanes', 'addr:suburb': 'Cipó', 'amenity': 'clinic', 'healthcare': 'clinic', 'healthcare:speciality': 'general', 'name': 'Unidade Básica de Saúde', 'operator': 'Município de São Raimundo Nonato', 'operator:type': 'public'}}"
"{'type': 'node', 'id': 12188322147, 'lat': -8.3617883, 'lon': -42.2468026, 'tags': {'addr:city': 'São João do Piauí', 'addr:housenumber': '1260', 'addr:postcode': '64760-000', 'addr:street': 'Avenida Cândido Coelho', 'amenity': 'pharmacy', 'dispensing': 'yes', 'healthcare': 'pharmacy', 'name': 'Drogaria Rodrigues'}}"
