OSM_Data
"{'type': 'node', 'id': 1652492980, 'lat': 34.2460037, 'lon': 108.9827806, 'tags': {'amenity': 'hospital', 'healthcare': 'hospital', 'name': '交大校医院'}}"
"{'type': 'node', 'id': 3463314725, 'lat': 34.2844199, 'lon': 108.8290228, 'tags': {'amenity': 'hospital', 'healthcare': 'hospital', 'name': '武警医院'}}"
"{'type': 'node', 'id': 3684916379, 'lat': 34.2475268, 'lon': 108.9158938, 'tags': {'amenity': 'hospital', 'healthcare': 'hospital', 'name': '陕西省交通医院'}}"
"{'type': 'node', 'id': 3796914990, 'lat': 34.2719586, 'lon': 108.9835961, 'tags': {'amenity': 'hospital', 'healthcare': 'hospital', 'name': '西京医院', 'name:en': 'Xijing Hospital'}}"
"{'type': 'node', 'id': 3810245157, 'lat': 34.3277898, 'lon': 108.6851236, 'tags': {'amenity': 'hospital'}}"
"{'type': 'node', 'id': 3842086308, 'lat': 34.2625078, 'lon': 108.96387, 'tags': {'addr:city': '西安市', 'addr:street': '东大街', 'amenity': 'pharmacy', 'healthcare': 'pharmacy', 'name': '怡康药店'}}"
"{'type': 'node', 'id': 4829597942, 'lat': 34.2668103, 'lon': 108.9344366, 'tags': {'addr:housenumber': '253', 'addr:street': '北广济街', 'amenity': 'clinic', 'healthcare': 'clinic', 'name': '西安莲湖维娜诊所'}}"
"{'type': 'node', 'id': 4829597999, 'lat': 34.2684698, 'lon': 108.9343759, 'tags': {'addr:housenumber': '103', 'addr:street': '二府街', 'amenity': 'doctors', 'healthcare': 'doctor'}}"
"{'type': 'node', 'id': 4829598128, 'lat': 34.2690945, 'lon': 108.9331564, 'tags': {'amenity': 'pharmacy', 'healthcare': 'pharmacy'}}"
"{'type': 'node', 'id': 4829598167, 'lat': 34.2707723, 'lon': 108.933088, 'tags': {'amenity': 'pharmacy', 'healthcare': 'pharmacy'}}"
"{'type': 'node', 'id': 4829598345, 'lat': 34.2711778, 'lon': 108.9375738, 'tags': {'addr:housenumber': '54', 'addr:street': '莲湖路', 'amenity': 'clinic', 'healthcare': 'clinic', 'name': '西安莲湖福春们诊部'}}"
"{'type': 'node', 'id': 4829598352, 'lat': 34.2711221, 'lon': 108.9380505, 'tags': {'addr:street': '莲湖路', 'amenity': 'clinic', 'healthcare': 'clinic', 'name': '龚民鼻炎管'}}"
"{'type': 'node', 'id': 4843255122, 'lat': 34.2581784, 'lon': 108.9282657, 'tags': {'amenity': 'hospital', 'healthcare': 'hospital', 'name': '莲湖区红十字会医院'}}"
"{'type': 'node', 'id': 6784097285, 'lat': 34.2373289, 'lon': 108.9565946, 'tags': {'addr:housenumber': '65号', 'addr:street': '建设路', 'amenity': 'pharmacy', 'healthcare': 'pharmacy', 'name': '华太药店', 'opening_hours': '24/7', 'phone': '+86 29 8788 1266'}}"
"{'type': 'node', 'id': 6831982786, 'lat': 34.2635222, 'lon': 108.9605328, 'tags': {'amenity': 'pharmacy', 'healthcare': 'pharmacy'}}"
"{'type': 'node', 'id': 6832009985, 'lat': 34.2632895, 'lon': 108.9596246, 'tags': {'amenity': 'pharmacy', 'healthcare': 'pharmacy'}}"
"{'type': 'node', 'id': 6832454186, 'lat': 34.2632334, 'lon': 108.9543983, 'tags': {'amenity': 'pharmacy', 'healthcare': 'pharmacy'}}"
"{'type': 'node', 'id': 6833706786, 'lat': 34.2633531, 'lon': 108.9484498, 'tags': {'amenity': 'pharmacy', 'healthcare': 'pharmacy'}}"
"{'type': 'node', 'id': 6975437896, 'lat': 35.1964721, 'lon': 109.3701876, 'tags': {'amenity': 'hospital', 'healthcare': 'hospital', 'name': '云台乡卫生院'}}"
"{'type': 'node', 'id': 7150688426, 'lat': 34.272001, 'lon': 108.9431336, 'tags': {'addr:city': '西安', 'addr:district': '新城区', 'addr:housenumber': '163', 'addr:postcode': '710000', 'addr:province': '陕西', 'addr:street': '西五路', 'amenity': 'pharmacy', 'dispensing': 'yes', 'drive_through': 'no', 'healthcare': 'pharmacy', 'name': '老百姓大药房(西五路店)', 'opening_hours': 'Mo-Su 08:30-21:30', 'operator': 'Lex Pharmacy', 'wheelchair': 'limited'}}"
"{'type': 'node', 'id': 8600899980, 'lat': 34.2818967, 'lon': 108.9978973, 'tags': {'amenity': 'pharmacy', 'dispensing': 'yes', 'healthcare': 'pharmacy', 'name': '怡康医药超市'}}"
"{'type': 'node', 'id': 8976602381, 'lat': 34.3156515, 'lon': 108.9335994, 'tags': {'addr:city': '西安', 'addr:district': '未央区', 'addr:postcode': '710000', 'addr:province': '陕西', 'addr:street': '凤城一路', 'amenity': 'dentist', 'healthcare': 'dentist', 'healthcare:speciality': 'dentist', 'name': '小白兔口腔医院(凤城分院店)'}}"
"{'type': 'node', 'id': 8996572697, 'lat': 34.2601104, 'lon': 108.9436918, 'tags': {'addr:city': '西安', 'addr:district': '碑林区', 'addr:housenumber': '6', 'addr:postcode': '710000', 'addr:province': '陕西', 'addr:street': '解放市场', 'amenity': 'pharmacy', 'brand': '同仁堂', 'brand:en': 'TongRenTang Pharmacy', 'brand:wikidata': 'Q842099', 'brand:wikipedia': 'en:Tong Ren Tang', 'brand:zh': '同仁堂', 'dispensing': 'yes', 'drive_through': 'no', 'healthcare': 'pharmacy', 'name': '同仁堂', 'name:en': 'TongRenTang Pharmacy', 'name:zh': '同仁堂', 'opening_hours': 'Mo-Su 10:00-22:00'}}"
"{'type': 'node', 'id': 9009899692, 'lat': 34.2377186, 'lon': 108.8897111, 'tags': {'addr:city': '西安', 'addr:district': '雁塔区', 'addr:housenumber': '195', 'addr:postcode': '710000', 'addr:province': '陕西', 'addr:street': '科技路', 'amenity': 'pharmacy', 'brand': '同仁堂', 'brand:en': 'TongRenTang Pharmacy', 'brand:wikidata': 'Q842099', 'brand:wikipedia': 'en:Tong Ren Tang', 'brand:zh': '同仁堂', 'dispensing': 'yes', 'drive_through': 'no', 'healthcare': 'pharmacy', 'name': '同仁堂', 'name:en': 'TongRenTang Pharmacy', 'name:zh': '同仁堂', 'opening_hours': 'Mo-Su 08:30-21:30'}}"
"{'type': 'node', 'id': 9014309186, 'lat': 34.2318202, 'lon': 108.9240788, 'tags': {'addr:city': '西安', 'addr:district': '雁塔区', 'addr:housenumber': '88', 'addr:postcode': '710000', 'addr:province': '陕西', 'addr:street': '二环南路西段', 'amenity': 'pharmacy', 'brand': '同仁堂', 'brand:en': 'TongRenTang Pharmacy', 'brand:wikidata': 'Q842099', 'brand:wikipedia': 'en:Tong Ren Tang', 'brand:zh': '同仁堂', 'dispensing': 'yes', 'drive_through': 'no', 'healthcare': 'pharmacy', 'name': '同仁堂', 'name:en': 'TongRenTang Pharmacy', 'name:zh': '同仁堂'}}"
"{'type': 'node', 'id': 9150622223, 'lat': 34.2326373, 'lon': 108.867556, 'tags': {'addr:city': '西安', 'addr:district': '雁塔区', 'addr:housenumber': '256', 'addr:postcode': '710000', 'addr:province': '陕西', 'addr:street': '丈八北路', 'healthcare': 'centre', 'name': '丈八唐沣社区卫生服务站', 'phone': '+86 29 8928 8778'}}"
"{'type': 'node', 'id': 9152287123, 'lat': 34.2345569, 'lon': 108.8696335, 'tags': {'addr:city': '西安', 'addr:district': '雁塔区', 'addr:housenumber': '19', 'addr:postcode': '710000', 'addr:province': '陕西', 'addr:street': '唐兴路', 'amenity': 'hospital', 'emergency': 'no', 'healthcare': 'hospital', 'name': '西安市儿童医院高新门诊部'}}"
"{'type': 'node', 'id': 9152758997, 'lat': 34.2385337, 'lon': 108.8787748, 'tags': {'addr:city': '西安', 'addr:district': '雁塔区', 'addr:postcode': '710000', 'addr:province': '陕西', 'addr:street': '科技路', 'healthcare': 'centre', 'name': '丈八唐兴社区卫生服务站', 'phone': '+86 29 8757 4808'}}"
"{'type': 'node', 'id': 9152758998, 'lat': 34.2367067, 'lon': 108.8774915, 'tags': {'addr:city': '西安', 'addr:district': '雁塔区', 'addr:housenumber': '2', 'addr:postcode': '710000', 'addr:province': '陕西', 'addr:street': '团结南路', 'amenity': 'pharmacy', 'brand': '同仁堂', 'brand:en': 'TongRenTang Pharmacy', 'brand:wikidata': 'Q842099', 'brand:wikipedia': 'en:Tong Ren Tang', 'brand:zh': '同仁堂', 'dispensing': 'yes', 'drive_through': 'no', 'healthcare': 'pharmacy', 'name': '同仁堂', 'name:en': 'TongRenTang Pharmacy', 'name:zh': '同仁堂', 'opening_hours': 'Mo-Su 08:30-21:00'}}"
"{'type': 'node', 'id': 9155831241, 'lat': 34.2463385, 'lon': 108.8891319, 'tags': {'addr:city': '西安', 'addr:district': '莲湖区', 'addr:housenumber': '280', 'addr:postcode': '710000', 'addr:province': '陕西', 'addr:street': '群贤路', 'healthcare': 'centre', 'name': '莲湖区西桃园社区卫生服务站', 'phone': '+86 29 8423 3829'}}"
"{'type': 'node', 'id': 9267554366, 'lat': 34.2271704, 'lon': 108.8955722, 'tags': {'addr:city': '西安', 'addr:district': '雁塔区', 'addr:postcode': '710000', 'addr:province': '陕西', 'addr:street': '高新路', 'amenity': 'dentist', 'healthcare': 'dentist', 'healthcare:speciality': 'dentist', 'name': '小白兔(高新路分院)'}}"
"{'type': 'node', 'id': 9280461480, 'lat': 34.9603264, 'lon': 109.578764, 'tags': {'amenity': 'hospital', 'healthcare': 'hospital'}}"
"{'type': 'node', 'id': 9841625111, 'lat': 34.5155882, 'lon': 109.4746852, 'tags': {'amenity': 'pharmacy', 'dispensing': 'yes', 'healthcare': 'pharmacy', 'name': '乡亲大药房'}}"
"{'type': 'node', 'id': 10542138568, 'lat': 34.2530321, 'lon': 109.0221449, 'tags': {'amenity': 'hospital', 'healthcare': 'hospital'}}"
"{'type': 'node', 'id': 10542138572, 'lat': 34.2481466, 'lon': 109.0045529, 'tags': {'amenity': 'hospital', 'healthcare': 'hospital', 'name': '解放军第五一八医院'}}"
"{'type': 'node', 'id': 11407735081, 'lat': 34.2604993, 'lon': 108.6540299, 'tags': {'healthcare': 'yes', 'name': '西安交通大学校医院创新港门诊部'}}"
"{'type': 'node', 'id': 11815118464, 'lat': 34.2792388, 'lon': 108.9912372, 'tags': {'amenity': 'pharmacy', 'brand': '老百姓大药房', 'brand:en': 'LBX Pharmacy', 'brand:wikidata': 'Q109744899', 'brand:zh': '老百姓大药房', 'healthcare': 'pharmacy', 'name': '老百姓大药房', 'name:en': 'LBX Pharmacy', 'name:zh': '老百姓大药房'}}"
"{'type': 'node', 'id': 11815118465, 'lat': 34.2814818, 'lon': 108.991183, 'tags': {'amenity': 'pharmacy', 'healthcare': 'pharmacy', 'name': '怡康医药超市'}}"
