OSM_Data
"{'type': 'node', 'id': 539566424, 'lat': 44.7614674, 'lon': 17.1809828, 'tags': {'addr:city': 'Banja Luka', 'addr:housenumber': '18', 'addr:postcode': '78000', 'addr:street': 'Radoja Domanovića', 'amenity': 'pharmacy', 'contact:facebook': 'mojaapoteka.net', 'contact:instagram': 'mojaapoteka', 'email': 'ap.zdravlje@mojaapoteka.net', 'healthcare': 'pharmacy', 'name': 'Moja apoteka Zdravlje', 'opening_hours': 'Mo-Fr 08:00-21:00; Sa 08:00-19:00; Su 09:00-13:00', 'phone': '+387 51 433 080', 'website': 'https://www.mojaapoteka-webshop.net/'}}"
"{'type': 'node', 'id': 549937642, 'lat': 43.8310643, 'lon': 18.3058012, 'tags': {'amenity': 'pharmacy'}}"
"{'type': 'node', 'id': 559946294, 'lat': 44.7670147, 'lon': 17.186513, 'tags': {'addr:city': 'Banja Luka', 'addr:housenumber': '32', 'addr:postcode': '78000', 'addr:street': 'Kralja Petra I Karađorđevića', 'amenity': 'pharmacy', 'email': 'c11@crvenaapoteka.com', 'name': 'Crvena apoteka', 'phone': '+387 51 490 884', 'website': 'https://crvenaapoteka.com/'}}"
"{'type': 'node', 'id': 799004729, 'lat': 43.830068, 'lon': 18.2997477, 'tags': {'amenity': 'pharmacy'}}"
"{'type': 'node', 'id': 842733109, 'lat': 44.023951, 'lon': 18.2004512, 'tags': {'amenity': 'clinic', 'contact:phone': '+387 32 746554', 'name': 'Porodična medicina Gračanica', 'operator': 'Dom zdravlja Visoko'}}"
"{'type': 'node', 'id': 860223733, 'lat': 44.1486712, 'lon': 17.7924298, 'tags': {'amenity': 'pharmacy'}}"
"{'type': 'node', 'id': 993018376, 'lat': 43.829925, 'lon': 18.3097781, 'tags': {'amenity': 'pharmacy', 'name': ""Al'hana""}}"
"{'type': 'node', 'id': 1113786443, 'lat': 43.8456944, 'lon': 18.3263095, 'tags': {'amenity': 'pharmacy'}}"
"{'type': 'node', 'id': 1149034946, 'lat': 43.8264674, 'lon': 17.0042057, 'tags': {'addr:city': 'Livno', 'addr:country': 'BA', 'addr:housenumber': '24', 'addr:postcode': '80101', 'addr:street': 'Kneza Mutimira', 'amenity': 'pharmacy', 'dispensing': 'yes', 'name': 'Gradska ljekarna', 'name:bs': 'Gradska apoteka', 'name:hr': 'Gradska ljekarna'}}"
"{'type': 'node', 'id': 1300549602, 'lat': 43.8436926, 'lon': 18.3261417, 'tags': {'amenity': 'doctors', 'healthcare': 'doctor', 'name': 'Ambulanta'}}"
"{'type': 'node', 'id': 1307562804, 'lat': 43.8297957, 'lon': 18.3383007, 'tags': {'amenity': 'pharmacy', 'healthcare': 'pharmacy', 'name': 'Apoteke Sarajevo'}}"
"{'type': 'node', 'id': 1345229201, 'lat': 44.7818862, 'lon': 17.2269853, 'tags': {'amenity': 'pharmacy'}}"
"{'type': 'node', 'id': 1352868731, 'lat': 44.0227844, 'lon': 18.1312331, 'tags': {'amenity': 'clinic', 'contact:phone': '+387 32 740148', 'name': 'Porodična medicina Moštre', 'operator': 'Dom zdravlja Visoko'}}"
"{'type': 'node', 'id': 1352881151, 'lat': 44.0245222, 'lon': 18.130539, 'tags': {'amenity': 'pharmacy'}}"
"{'type': 'node', 'id': 1377616323, 'lat': 43.7947006, 'lon': 18.0949773, 'tags': {'amenity': 'pharmacy', 'healthcare': 'pharmacy', 'name': 'Apoteka Tarčin'}}"
"{'type': 'node', 'id': 1413482038, 'lat': 44.2824418, 'lon': 17.0877751, 'tags': {'amenity': 'clinic', 'healthcare': 'clinic', 'name': 'Ambulanta', 'opening_hours': 'Mo-Su,PH 00:00-00:00', 'wheelchair': 'yes'}}"
"{'type': 'node', 'id': 1414543006, 'lat': 44.7723735, 'lon': 17.1966352, 'tags': {'addr:housenumber': '34a', 'addr:street': 'Vase Pelagića', 'alt_name': 'Ambulanta Medicom', 'amenity': 'doctors', 'contact:email': 'info@ambulantamedicom.com', 'contact:fax': '+387 51 316930', 'contact:phone': '+387 51 316930', 'contact:website': 'http://www.ambulantamedicom.com', 'healthcare': 'doctor', 'healthcare:speciality': 'dermatovenereology', 'name': 'Specijalistička ambulanta Medicom'}}"
"{'type': 'node', 'id': 1490060344, 'lat': 44.1254758, 'lon': 18.1157632, 'tags': {'amenity': 'pharmacy', 'name': 'Gradska apoteka'}}"
"{'type': 'node', 'id': 1495306881, 'lat': 44.7738924, 'lon': 17.1724282, 'tags': {'amenity': 'doctors', 'healthcare': 'doctor', 'healthcare:speciality': 'paediatrics', 'name': 'Dr Lolić'}}"
"{'type': 'node', 'id': 1520872283, 'lat': 44.7647856, 'lon': 17.1785641, 'tags': {'addr:city': 'Banja Luka', 'addr:housenumber': 'bb', 'addr:postcode': '78000', 'addr:street': 'Duška Koščice', 'amenity': 'clinic', 'contact:instagram': 'dom.zdravlja.bl', 'contact:phone': '+387 51 218 370', 'emergency': 'no', 'name': 'Ambulanta porodične medicine Kočićev vijenac', 'name:sr': 'Амбуланта породичне медицине Кочићев вијенац', 'opening_hours': '07:00-20:00', 'operator': 'JZU Dom zdravlja u Banjoj Luci', 'operator:type': 'public', 'phone_1': '+387 51 212 446', 'website': 'https://domzdravljabanjaluka.com/dz/'}}"
"{'type': 'node', 'id': 1535050791, 'lat': 44.7757732, 'lon': 17.1714092, 'tags': {'addr:city': 'Banja Luka', 'addr:housenumber': '195', 'addr:postcode': '78000', 'addr:street': 'Karađorđeva', 'amenity': 'pharmacy', 'contact:instagram': 'apoteke_b_pharm', 'dispensing': 'yes', 'name': 'B Pharm 22', 'opening_hours': 'Mo-Fr 07:30-21:00; Sa 08:00-20:00', 'operator': 'Apoteke B Pharm', 'phone': '+387 51 281 017', 'website': 'https://bpharm.rs/'}}"
"{'type': 'node', 'id': 1535062293, 'lat': 44.7729742, 'lon': 17.1785117, 'tags': {'amenity': 'pharmacy', 'name': 'Intermedik'}}"
"{'type': 'node', 'id': 1582839420, 'lat': 44.7607834, 'lon': 17.2120013, 'tags': {'amenity': 'pharmacy', 'name': 'Crvena apoteka'}}"
"{'type': 'node', 'id': 1596676070, 'lat': 44.4390464, 'lon': 18.1447063, 'tags': {'amenity': 'pharmacy', 'healthcare': 'pharmacy'}}"
"{'type': 'node', 'id': 1597383541, 'lat': 44.7336656, 'lon': 18.0865083, 'tags': {'amenity': 'pharmacy', 'healthcare': 'pharmacy', 'name': 'Betty Apoteka'}}"
"{'type': 'node', 'id': 1602700918, 'lat': 44.6066431, 'lon': 17.8582793, 'tags': {'amenity': 'pharmacy', 'healthcare': 'pharmacy', 'name': 'Gradska Apoteka'}}"
"{'type': 'node', 'id': 1643559651, 'lat': 44.7968475, 'lon': 17.1970307, 'tags': {'amenity': 'pharmacy', 'name': 'Apoteka'}}"
"{'type': 'node', 'id': 1669205461, 'lat': 44.7719121, 'lon': 17.1864434, 'tags': {'addr:city': 'Banja Luka', 'addr:housenumber': '17', 'addr:postcode': '78000', 'addr:street': 'Milana Tepića', 'amenity': 'pharmacy', 'contact:facebook': 'mojaapoteka.net', 'contact:instagram': 'mojaapoteka', 'healthcare': 'pharmacy', 'name': 'Apoteka ""Prvi maj""', 'opening_hours': '24/7', 'wheelchair': 'yes'}}"
"{'type': 'node', 'id': 1784724789, 'lat': 43.7161484, 'lon': 17.2283072, 'tags': {'addr:city': 'Tomislavgrad', 'addr:housenumber': 'bb', 'addr:postcode': '80240', 'addr:street': 'Mijata Tomića', 'amenity': 'pharmacy', 'drive_through': 'no', 'healthcare': 'pharmacy', 'name': 'Ljekarna Nada'}}"
"{'type': 'node', 'id': 1784724843, 'lat': 43.7162904, 'lon': 17.2315783, 'tags': {'amenity': 'pharmacy', 'name': 'Đivić'}}"
"{'type': 'node', 'id': 1795491039, 'lat': 43.8577015, 'lon': 18.3218784, 'tags': {'addr:housenumber': '322', 'addr:postcode': '71000', 'addr:street': 'Safeta Zajke', 'amenity': 'pharmacy', 'name': 'Unalijek UL 5', 'website': 'https://unalijek.com/'}}"
"{'type': 'node', 'id': 1817725437, 'lat': 43.8212527, 'lon': 18.3220087, 'tags': {'amenity': 'pharmacy'}}"
"{'type': 'node', 'id': 1822763092, 'lat': 44.1706214, 'lon': 17.6586531, 'tags': {'amenity': 'pharmacy', 'dispensing': 'yes', 'healthcare': 'pharmacy'}}"
"{'type': 'node', 'id': 1822763128, 'lat': 44.1707758, 'lon': 17.6582127, 'tags': {'amenity': 'pharmacy', 'dispensing': 'yes', 'healthcare': 'pharmacy'}}"
"{'type': 'node', 'id': 1830752964, 'lat': 43.8218836, 'lon': 18.322211, 'tags': {'amenity': 'clinic', 'healthcare': 'clinic', 'name': 'Ambulanta Butmir'}}"
"{'type': 'node', 'id': 1834062635, 'lat': 44.7601236, 'lon': 17.1991652, 'tags': {'addr:city': 'Banja Luka', 'addr:postcode': '78000', 'addr:street': 'Stevana Bulajića', 'amenity': 'pharmacy', 'contact:facebook': 'mojaapoteka.net', 'contact:instagram': 'mojaapoteka', 'dispensing': 'yes', 'name': 'Moja apoteka Starčevica', 'opening_hours': 'Mo-Fr 07:30-20:30; Sa 08:00-18:00; Su 09:00-14:00', 'operator': 'Moja apoteka', 'phone': '+387 51 433 610'}}"
"{'type': 'node', 'id': 1854311748, 'lat': 44.1903126, 'lon': 17.7375845, 'tags': {'addr:postcode': '72276', 'amenity': 'pharmacy', 'healthcare': 'pharmacy', 'name': 'Ljekarna ""Nova Bila""'}}"
"{'type': 'node', 'id': 1883674853, 'lat': 44.199279, 'lon': 17.9109019, 'tags': {'amenity': 'pharmacy', 'healthcare': 'pharmacy'}}"
"{'type': 'node', 'id': 1945600219, 'lat': 44.7777105, 'lon': 17.1860766, 'tags': {'addr:city': 'Banja Luka', 'addr:country': 'BA', 'addr:housenumber': '30', 'addr:postcode': '78000', 'addr:street': 'Ranka Šipke', 'amenity': 'dentist', 'contact:email': 'gago@blic.net', 'contact:phone': '+387 51 310 173', 'healthcare': 'dentist', 'name': 'Prizma Dent', 'ref': '1'}}"
"{'type': 'node', 'id': 1955288620, 'lat': 44.7810408, 'lon': 17.1985927, 'tags': {'amenity': 'pharmacy', 'healthcare': 'pharmacy', 'name': 'Rosulje', 'opening_hours': 'Mo-Sa 08:00-20:20; Su 12:00-18:00', 'wheelchair': 'no'}}"
"{'type': 'node', 'id': 1955288751, 'lat': 44.7799774, 'lon': 17.1947192, 'tags': {'addr:city': 'Banja Luka', 'addr:country': 'BA', 'addr:housenumber': '11', 'addr:postcode': '78000', 'addr:street': 'Dragiše Vasića', 'amenity': 'clinic', 'contact:instagram': 'dom.zdravlja.bl', 'contact:phone': '+387 51 323870', 'healthcare:speciality': 'general', 'name': 'Ambulanta porodične medicine Nova varoš', 'name:sr': 'Амбуланта породичне медицине Нова варош', 'opening_hours': 'Mo-Fr 07:00-20:30', 'operator': 'JZU Dom zdravlja u Banjoj Luci', 'operator:type': 'public'}}"
"{'type': 'node', 'id': 1955290955, 'lat': 44.7798771, 'lon': 17.1946193, 'tags': {'addr:city': 'Banja Luka', 'addr:housenumber': '17', 'addr:postcode': '78000', 'addr:street': 'Dragiše Vasića', 'amenity': 'pharmacy', 'contact:facebook': 'mojaapoteka.net', 'contact:instagram': 'mojaapoteka', 'dispensing': 'yes', 'email': 'ap.novavaros@mojaapoteka.net', 'name': 'Moja apoteka Nova varoš', 'opening_hours': 'Mo-Fr 07:30-20:00; Sa 08:00-14:00', 'operator': 'Moja apoteka', 'phone': '+387 51 329 840', 'phone_1': '+387 51 329 842'}}"
"{'type': 'node', 'id': 1958879063, 'lat': 44.7720929, 'lon': 17.1938574, 'tags': {'addr:housenumber': '3', 'addr:postcode': '78000', 'addr:street': 'Bana dr Todora Lazarevića', 'amenity': 'pharmacy', 'contact:instagram': 'apoteke_b_pharm', 'dispensing': 'yes', 'name': 'B Pharm'}}"
"{'type': 'node', 'id': 2024834132, 'lat': 44.6066935, 'lon': 17.8592652, 'tags': {'amenity': 'pharmacy', 'healthcare': 'pharmacy'}}"
"{'type': 'node', 'id': 2024855934, 'lat': 44.6083527, 'lon': 17.8546807, 'tags': {'amenity': 'pharmacy'}}"
"{'type': 'node', 'id': 2026307837, 'lat': 44.6086548, 'lon': 17.8546636, 'tags': {'amenity': 'pharmacy', 'healthcare': 'pharmacy'}}"
"{'type': 'node', 'id': 2030645563, 'lat': 44.6078104, 'lon': 17.8549642, 'tags': {'amenity': 'pharmacy'}}"
"{'type': 'node', 'id': 2031479219, 'lat': 44.0535582, 'lon': 17.4479146, 'tags': {'amenity': 'pharmacy', 'dispensing': 'yes', 'name': 'Gradska ljekarna'}}"
"{'type': 'node', 'id': 2038631878, 'lat': 43.9594379, 'lon': 18.2683214, 'tags': {'amenity': 'pharmacy', 'name': 'Apoteka Sarajevo'}}"
"{'type': 'node', 'id': 2070602512, 'lat': 44.6984606, 'lon': 18.3031349, 'tags': {'addr:city': 'Gračanica', 'addr:country': 'BA', 'addr:housenumber': '50', 'addr:postcode': '75320', 'addr:street': 'Mehmeda Ahmedbegovića', 'amenity': 'hospital', 'contact:email': 'kontakt@bolnica-gracanica.com', 'contact:phone': '+387 35 702032', 'contact:website': 'http://www.obgr.net', 'emergency': 'yes', 'image': 'http://bkc-gracanica.ba/wp-content/uploads/2015/07/onama2.jpg', 'name': 'Opća bolnica dr. Mustafa Beganović Gračanica'}}"
"{'type': 'node', 'id': 2096347306, 'lat': 43.827433, 'lon': 17.0038853, 'tags': {'amenity': 'pharmacy', 'name': 'Li-Pharma'}}"
"{'type': 'node', 'id': 2100576811, 'lat': 43.7943814, 'lon': 18.0949243, 'tags': {'addr:housenumber': 'bb', 'addr:street': '27. juli', 'amenity': 'clinic', 'contact:phone': '+387 33 418822', 'healthcare': 'clinic', 'name': 'Područna ambulanta Tarčin', 'operator': 'Dom zdravlja Hadžići'}}"
"{'type': 'node', 'id': 2112251597, 'lat': 44.1959149, 'lon': 17.9313098, 'tags': {'addr:housenumber': '4', 'addr:postcode': '72000', 'addr:street': 'Dobrovoljnih davalaca krvi', 'amenity': 'pharmacy', 'description': 'Veleprodaja medicinskih sredstava', 'name': 'Globex d.o.o. Zenica', 'website': 'https://www.globex.com.ba/'}}"
"{'type': 'node', 'id': 2144054888, 'lat': 44.415351, 'lon': 17.0836175, 'tags': {'amenity': 'pharmacy', 'healthcare': 'pharmacy', 'name': 'Crvena apoteka'}}"
"{'type': 'node', 'id': 2145397541, 'lat': 43.8215354, 'lon': 18.2025886, 'tags': {'amenity': 'pharmacy', 'healthcare': 'pharmacy'}}"
"{'type': 'node', 'id': 2145397543, 'lat': 43.8216438, 'lon': 18.2010409, 'tags': {'amenity': 'pharmacy', 'healthcare': 'pharmacy', 'name': 'Apoteka ""Dina""', 'wheelchair': 'yes'}}"
"{'type': 'node', 'id': 2152548018, 'lat': 44.0024581, 'lon': 18.1568869, 'tags': {'amenity': 'pharmacy', 'name': 'Avicena'}}"
"{'type': 'node', 'id': 2152551204, 'lat': 43.9937987, 'lon': 18.1749311, 'tags': {'amenity': 'pharmacy', 'name': 'Apoteka ""Avicena""'}}"
"{'type': 'node', 'id': 2152555942, 'lat': 43.9928897, 'lon': 18.1767885, 'tags': {'amenity': 'pharmacy', 'name': 'Apoteka ""Nera""'}}"
"{'type': 'node', 'id': 2171036315, 'lat': 44.7671821, 'lon': 17.1845595, 'tags': {'addr:housenumber': '15a', 'addr:street': 'Vojvode Momčila', 'amenity': 'dentist', 'contact:email': 'ordinacija@stomatologija-davidovic.ba', 'contact:fax': '+387 51 230711', 'contact:phone': '+387 51 211250', 'contact:website': 'http://www.stomatologija-davidovic.ba', 'emergency': 'yes', 'healthcare': 'dentist', 'name': 'Stomatološka ambulanta Dr Mirko Davidović', 'opening_hours': 'Mo-Fr 09:00-20:00; Sa 09:00-13:00; Su off'}}"
"{'type': 'node', 'id': 2174736712, 'lat': 43.8007996, 'lon': 18.3041669, 'tags': {'amenity': 'pharmacy', 'name': 'Apoteka Kovači'}}"
"{'type': 'node', 'id': 2174736875, 'lat': 43.8008693, 'lon': 18.3042581, 'tags': {'addr:housenumber': '48b', 'addr:street': 'Stari drum', 'amenity': 'clinic', 'contact:phone': '+387 33 429725', 'name': 'Područna ambulanta Hrasnica II', 'operator': 'Dom zdravlja Ilidža'}}"
"{'type': 'node', 'id': 2174759829, 'lat': 43.6574383, 'lon': 18.2646674, 'tags': {'addr:housenumber': 'bb', 'addr:place': 'Šabići', 'amenity': 'clinic', 'contact:phone': '+387 33 488112', 'name': 'Područna ambulanta Šabići', 'operator': 'Dom zdravlja Trnovo'}}"
"{'type': 'node', 'id': 2190952436, 'lat': 44.764638, 'lon': 17.1924297, 'tags': {'addr:city': 'Banja Luka', 'addr:housenumber': '17a', 'addr:postcode': '78000', 'addr:street': 'Carice Milice', 'amenity': 'pharmacy', 'contact:instagram': 'apoteke_b_pharm', 'name': 'B Pharm 07', 'opening_hours': 'Mo-Fr 07:30-20:30; Sa 08:00-17:00', 'phone': '+387 51 460 554;+387 65 976 099', 'phone_1': '+387 65 976 099', 'website': 'https://bpharm.rs/'}}"
"{'type': 'node', 'id': 2190952634, 'lat': 44.7638019, 'lon': 17.1934409, 'tags': {'addr:city': 'Banja Luka', 'addr:housenumber': '16', 'addr:postcode': '78000', 'addr:street': 'Vilsonova', 'amenity': 'pharmacy', 'dispensing': 'yes', 'drive_through': 'no', 'name': 'Iva', 'opening_hours': 'Mo-Fr 08:00-20:00; Sa 08:00-17:00', 'operator': 'Betty', 'phone': '+387 51 465 582'}}"
"{'type': 'node', 'id': 2201759614, 'lat': 43.8297415, 'lon': 18.3384295, 'tags': {'addr:city': 'Sarajevo', 'addr:country': 'BA', 'addr:housenumber': '1', 'addr:postcode': '71000', 'addr:street': 'Rudolfa Rude Tomića', 'amenity': 'clinic', 'contact:phone': '+387 33 455447', 'emergency': 'no', 'healthcare': 'clinic', 'name': 'Područna ambulanta Aerodromsko naselje'}}"
"{'type': 'node', 'id': 2216277087, 'lat': 43.9880019, 'lon': 17.2757783, 'tags': {'amenity': 'pharmacy', 'name': 'Ljekarna'}}"
"{'type': 'node', 'id': 2217159011, 'lat': 43.9402372, 'lon': 17.5859973, 'tags': {'amenity': 'clinic', 'name': 'Dom zdravlja Gornji Vakuf - Uskoplje'}}"
"{'type': 'node', 'id': 2253777875, 'lat': 43.9569822, 'lon': 18.2679515, 'tags': {'addr:street': 'Ivana Franje Jukića', 'amenity': 'pharmacy', 'dispensing': 'yes', 'name': 'Apoteka Viva 7', 'source': 'OpenStreetMap'}}"
"{'type': 'node', 'id': 2307742290, 'lat': 43.8232551, 'lon': 18.2043509, 'tags': {'amenity': 'dentist', 'contact:phone': '+387 61 777431', 'emergency': 'yes', 'healthcare': 'dentist', 'name': 'Stomatološka Ordinacija ""Denta-M""', 'source': 'GPS'}}"
"{'type': 'node', 'id': 2322294232, 'lat': 43.8298398, 'lon': 18.309889, 'tags': {'amenity': 'pharmacy', 'healthcare': 'pharmacy', 'name': 'Al hana'}}"
"{'type': 'node', 'id': 2360610926, 'lat': 44.7714577, 'lon': 17.197072, 'tags': {'addr:city': 'Banja Luka', 'addr:housenumber': '31', 'addr:postcode': '78000', 'addr:street': 'Nikole Pašića', 'amenity': 'pharmacy', 'contact:facebook': 'apotekaanapharm', 'contact:instagram': 'apoteka_anapharm', 'name': 'Anapharm', 'phone': '+387 51 217 252', 'website': 'https://apotekaweb.com/'}}"
"{'type': 'node', 'id': 2382818899, 'lat': 43.9667003, 'lon': 18.0543738, 'tags': {'addr:city': 'Kiseljak', 'addr:place': 'Gromiljak', 'addr:postcode': '71250', 'amenity': 'clinic', 'name': 'Dom zdravlja'}}"
"{'type': 'node', 'id': 2382837623, 'lat': 43.9425603, 'lon': 18.0777521, 'tags': {'amenity': 'pharmacy', 'healthcare': 'pharmacy', 'name': 'Ljekarna Menta'}}"
"{'type': 'node', 'id': 2408177239, 'lat': 43.9666219, 'lon': 18.0536778, 'tags': {'amenity': 'pharmacy', 'name': 'Ljekarna'}}"
"{'type': 'node', 'id': 2408180417, 'lat': 43.9467228, 'lon': 18.0742943, 'tags': {'amenity': 'pharmacy', 'name': 'Ljekarna'}}"
"{'type': 'node', 'id': 2408232627, 'lat': 43.9430364, 'lon': 18.0808122, 'tags': {'amenity': 'pharmacy'}}"
"{'type': 'node', 'id': 2408729268, 'lat': 43.9456328, 'lon': 18.0746855, 'tags': {'amenity': 'pharmacy'}}"
"{'type': 'node', 'id': 2422329050, 'lat': 43.8656854, 'lon': 18.0416579, 'tags': {'amenity': 'pharmacy'}}"
"{'type': 'node', 'id': 2426675415, 'lat': 44.7805519, 'lon': 17.1831779, 'tags': {'addr:city': 'Banja Luka', 'addr:housenumber': '26', 'addr:postcode': '78000', 'addr:street': 'Igmanska', 'amenity': 'doctors', 'healthcare': 'doctor', 'healthcare:speciality': 'paediatrics', 'name': 'Dr Keleman'}}"
"{'type': 'node', 'id': 2600350243, 'lat': 44.8365177, 'lon': 17.2182817, 'tags': {'amenity': 'clinic', 'contact:phone': '+387 51 366910', 'name': 'Ambulanta porodične medicine Zalužani', 'opening_hours': '07:00-20:00', 'operator': 'Dom zdravlja Banja Luka'}}"
"{'type': 'node', 'id': 2656690457, 'lat': 44.6559409, 'lon': 17.9561288, 'tags': {'amenity': 'pharmacy', 'name': 'Apotheke'}}"
"{'type': 'node', 'id': 2681138213, 'lat': 44.7714188, 'lon': 17.2045136, 'tags': {'addr:city': 'Banja Luka', 'addr:housenumber': '27', 'addr:postcode': '78000', 'addr:street': 'Bulevar vojvode Živojina Mišića', 'amenity': 'pharmacy', 'contact:facebook': 'mojaapoteka.net', 'contact:instagram': 'mojaapoteka', 'dispensing': 'yes', 'email': 'ap.borik@mojaapoteka.net', 'healthcare': 'pharmacy', 'name': 'Moja apoteka Borik', 'opening_hours': 'Mo-Fr 07:30-21:00; Sa 08:00-16:00', 'operator': 'Moja apoteka', 'phone': '+387 51 258 270'}}"
"{'type': 'node', 'id': 2875737473, 'lat': 44.7765152, 'lon': 17.1779093, 'tags': {'addr:city': 'Banja Luka', 'addr:housenumber': '1A', 'addr:postcode': '78000', 'addr:street': 'Petra Mećave', 'amenity': 'dentist', 'contact:email': 'sandra.pantic2014@gmail.com', 'contact:website': 'https://www.facebook.com/Stomatoloska-ambulanta-Dr-Sandra-Panti%C4%87-378696848929930', 'emergency': 'no', 'healthcare': 'dentist', 'name': 'Stomatološka Ambulanta Dr Sandra Pantić', 'opening_hours': 'Mo-Fr 10:00-18:00; Sa 10:00-13:00', 'phone': '+387 51 212255'}}"
"{'type': 'node', 'id': 2903190140, 'lat': 44.7511644, 'lon': 17.1594319, 'tags': {'addr:city': 'Banja Luka', 'addr:postcode': '78000', 'addr:street': 'Manjačkih ustanika', 'amenity': 'pharmacy', 'healthcare': 'pharmacy', 'name': 'Apoteka Ivipharm'}}"
"{'type': 'node', 'id': 2955199334, 'lat': 44.1262799, 'lon': 18.1168314, 'tags': {'email': 'optika.kobi.nuri@hotmail.com', 'healthcare': 'optometrist', 'healthcare:speciality': 'optometry', 'name': 'Optika ""KOBI & NURI""', 'phone': '+387 62 638 888'}}"
"{'type': 'node', 'id': 2962475787, 'lat': 43.9164662, 'lon': 18.1246231, 'tags': {'addr:city': 'Kiseljak', 'addr:place': 'Brnjaci', 'addr:postcode': '71250', 'amenity': 'dentist', 'healthcare': 'dentist', 'name': 'Kraljević', 'wheelchair': 'yes'}}"
"{'type': 'node', 'id': 2981502492, 'lat': 43.9464359, 'lon': 18.0719543, 'tags': {'amenity': 'clinic', 'name': 'Sejo'}}"
"{'type': 'node', 'id': 3079965060, 'lat': 44.6068328, 'lon': 17.8596581, 'tags': {'amenity': 'pharmacy', 'name': 'Apoteke ""B""'}}"
"{'type': 'node', 'id': 3079965061, 'lat': 44.6069755, 'lon': 17.8568875, 'tags': {'amenity': 'pharmacy', 'drive_through': 'no', 'name': 'Moja apoteka'}}"
"{'type': 'node', 'id': 3098897701, 'lat': 44.6983753, 'lon': 17.1963971, 'tags': {'addr:city': 'Banja Luka', 'addr:housenumber': 'bb', 'addr:postcode': '78000', 'addr:street': 'Karanovac', 'amenity': 'clinic', 'name': 'Odjeljenje porodične medicine', 'opening_hours': '07:00-15:00', 'operator': 'Dom zdravlja u Banjoj Luci', 'operator:type': 'public', 'phone': '+387 51 427313', 'website': 'https://domzdravljabanjaluka.com/'}}"
"{'type': 'node', 'id': 3208230415, 'lat': 43.8212794, 'lon': 18.2013159, 'tags': {'addr:city': 'Hadžići', 'addr:housenumber': '161b', 'addr:street': 'Hadželi', 'amenity': 'dentist', 'contact:email': 'lamija.seleskovic@gmail.com', 'contact:website': 'https://www.facebook.com/Dr.Lamija', 'healthcare': 'dentist', 'name': 'Stomatološka ordinacija ""Dr. Lamija Šeherija-Selesković""', 'opening_hours': 'Mo-Fr 09:30-17:30; Sa 10:00-13:00; Su off', 'phone': '+387 33 420752', 'wheelchair': 'yes'}}"
"{'type': 'node', 'id': 3213556621, 'lat': 43.7218038, 'lon': 17.8236912, 'tags': {'amenity': 'clinic', 'name': 'Ambulanta Buturović Polje'}}"
"{'type': 'node', 'id': 3391626959, 'lat': 44.0215408, 'lon': 18.2634044, 'tags': {'addr:city': 'Breza', 'addr:country': 'BA', 'addr:housenumber': '12', 'addr:postcode': '71370', 'addr:street': 'Šehidska', 'amenity': 'clinic', 'contact:email': 'dzbreza@bih.net.ba', 'contact:fax': '+387 32 789190', 'contact:phone': '+387 32 783288', 'contact:website': 'http://dzbreza.com.ba', 'name': 'Dom zdravlja Breza'}}"
"{'type': 'node', 'id': 3400549156, 'lat': 44.2410552, 'lon': 17.5776861, 'tags': {'amenity': 'dentist', 'healthcare': 'dentist'}}"
"{'type': 'node', 'id': 3786901234, 'lat': 44.698168, 'lon': 18.3016637, 'tags': {'addr:city': 'Gračanica', 'addr:country': 'BA', 'addr:housenumber': '40', 'addr:postcode': '75320', 'addr:street': 'Mehmeda Ahmedbegovića', 'amenity': 'clinic', 'contact:email': 'info@dzgracanica.com', 'contact:fax': '+387 35 369201', 'contact:phone': '+387 35 369209', 'contact:website': 'http://www.dzgracanica.com', 'name': 'Dom zdravlja Gračanica'}}"
"{'type': 'node', 'id': 3792107947, 'lat': 44.7030431, 'lon': 18.3101145, 'tags': {'addr:city': 'Gračanica', 'addr:postcode': '75320', 'addr:street': '22. divizije', 'amenity': 'pharmacy', 'name': 'Apoteka Ćerimagić'}}"
"{'type': 'node', 'id': 3796026267, 'lat': 43.8220889, 'lon': 17.6087966, 'tags': {'addr:city': 'Prozor', 'addr:street': 'Ulica kralja Tomislava', 'amenity': 'pharmacy'}}"
"{'type': 'node', 'id': 3796139680, 'lat': 44.7103956, 'lon': 18.3104845, 'tags': {'addr:city': 'Gračanica', 'addr:street': 'Koturaška', 'amenity': 'pharmacy', 'name': 'Apoteka Lamele'}}"
"{'type': 'node', 'id': 3798148226, 'lat': 43.8203326, 'lon': 17.6121223, 'tags': {'addr:city': 'Prozor', 'addr:postcode': '88440', 'addr:street': 'Vitomira Lukića', 'amenity': 'pharmacy', 'name': 'Ljekarna Lilium', 'opening_hours': 'Mo-Su 08:00-19:00', 'payment:cash': 'yes', 'payment:credit_cards': 'yes', 'payment:maestro': 'yes', 'payment:visa': 'yes'}}"
"{'type': 'node', 'id': 3821384315, 'lat': 43.8253371, 'lon': 17.606632, 'tags': {'addr:city': 'Prozor', 'addr:street': 'Splitska ulica', 'amenity': 'pharmacy'}}"
"{'type': 'node', 'id': 3846362463, 'lat': 44.7326906, 'lon': 18.08674, 'tags': {'addr:city': 'Doboj', 'addr:country': 'BA', 'addr:housenumber': '11', 'addr:postcode': '74000', 'addr:street': 'Kralja Petra I', 'amenity': 'clinic', 'contact:email': 'dijagnostika@ambulantamaksimovic.com', 'contact:website': 'http://www.ambulantamaksimovic.com', 'description': 'specijalistička ambulanta za mamografiju i ultrasonografiju', 'healthcare': 'clinic', 'name': 'Zdravstvena ustanova Maksimović Doboj', 'phone': '+387 53 223407'}}"
"{'type': 'node', 'id': 3860680413, 'lat': 44.7780696, 'lon': 17.1875335, 'tags': {'addr:city': 'Banja Luka', 'addr:housenumber': '27', 'addr:postcode': '78000', 'addr:street': 'Federika Garsije Lorke', 'amenity': 'doctors', 'email': 'info@fonomedic.ba', 'healthcare': 'doctor', 'healthcare:speciality': 'otolaryngology', 'internet_access': 'wlan', 'name': 'Fono Medic', 'opening_hours': 'Mo-Fr 09:00-17:00; Sa 09:00-13:00', 'phone': '+387 51 315662', 'shop': 'hearing_aids', 'website': 'http://fonomedic.ba'}}"
"{'type': 'node', 'id': 3860684937, 'lat': 44.8654562, 'lon': 17.6634971, 'tags': {'addr:city': 'Prnjavor', 'addr:street': 'Magistralni put bb', 'amenity': 'clinic', 'name': 'ZU Kuća zdravlja Dr Marjanović'}}"
"{'type': 'node', 'id': 3987940389, 'lat': 44.2354036, 'lon': 18.0086395, 'tags': {'addr:housenumber': 'bb', 'addr:place': 'Babino', 'amenity': 'clinic', 'healthcare': 'clinic', 'name': 'Ambulanta Babino', 'opening_hours': 'Mo-Fr 07:00-09:30, 10:00-15:00', 'operator': 'Dom zdravlja Zenica'}}"
"{'type': 'node', 'id': 3988521998, 'lat': 44.2017019, 'lon': 18.0500478, 'tags': {'addr:housenumber': 'bb', 'addr:place': 'Borovi', 'amenity': 'clinic', 'name': 'Amublanta Arnauti', 'opening_hours': 'Mo-Fr 07:00-09:30, 10:00-15:00', 'operator': 'Dom zdravlja Zenica'}}"
"{'type': 'node', 'id': 3994983219, 'lat': 44.4171654, 'lon': 17.0829011, 'tags': {'addr:city': 'Mrkonjić Grad', 'addr:housenumber': '4', 'addr:street': 'Cara Dušana', 'amenity': 'dentist', 'contact:email': 'info@stomatologijatica.com', 'contact:phone': '+387 66 867628', 'contact:website': 'http://www.stomatologijatica.com/site', 'emergency': 'no', 'healthcare': 'dentist', 'name': 'Ambulanta opšte stomatologije ""Dr Tica""', 'source': 'survey'}}"
"{'type': 'node', 'id': 4001108684, 'lat': 44.4850583, 'lon': 17.8237021, 'tags': {'amenity': 'pharmacy'}}"
"{'type': 'node', 'id': 4002195522, 'lat': 44.2411386, 'lon': 17.5754616, 'tags': {'amenity': 'dentist', 'healthcare': 'dentist', 'name': 'Stomatološka ordinacija ""Emina""'}}"
"{'type': 'node', 'id': 4002281294, 'lat': 44.2413585, 'lon': 17.5782174, 'tags': {'amenity': 'pharmacy', 'healthcare': 'pharmacy'}}"
"{'type': 'node', 'id': 4002281295, 'lat': 44.2415623, 'lon': 17.5765968, 'tags': {'amenity': 'pharmacy', 'healthcare': 'pharmacy'}}"
"{'type': 'node', 'id': 4158558691, 'lat': 43.7156856, 'lon': 17.2276783, 'tags': {'amenity': 'dentist', 'healthcare': 'dentist', 'name': 'Lukač'}}"
"{'type': 'node', 'id': 4209371474, 'lat': 44.0265948, 'lon': 18.150683, 'tags': {'amenity': 'pharmacy', 'name': 'Apoteka Porječani'}}"
"{'type': 'node', 'id': 4243244551, 'lat': 43.6557288, 'lon': 17.9533651, 'tags': {'amenity': 'pharmacy', 'healthcare': 'pharmacy', 'name': 'Apoteka Žunić'}}"
"{'type': 'node', 'id': 4243298098, 'lat': 43.6556511, 'lon': 17.9548267, 'tags': {'amenity': 'pharmacy', 'healthcare': 'pharmacy', 'name': 'Apoteka ""Zdravlje""'}}"
"{'type': 'node', 'id': 4248789406, 'lat': 43.6557752, 'lon': 17.9634306, 'tags': {'amenity': 'pharmacy', 'healthcare': 'pharmacy', 'name': 'Gradska apoteka'}}"
"{'type': 'node', 'id': 4293766989, 'lat': 44.7789897, 'lon': 17.1918831, 'tags': {'addr:city': 'Banja Luka', 'addr:housenumber': '49', 'addr:postcode': '78000', 'addr:street': 'Pave Radana', 'amenity': 'clinic', 'healthcare': 'clinic', 'healthcare:speciality': 'paediatrics', 'name': 'Aura Medic', 'operator': 'dr pedijatar Dragica Dobrijevic', 'operator:type': 'private'}}"
"{'type': 'node', 'id': 4351305706, 'lat': 43.6838285, 'lon': 17.8977235, 'tags': {'amenity': 'pharmacy', 'healthcare': 'pharmacy'}}"
"{'type': 'node', 'id': 4376023090, 'lat': 44.6975962, 'lon': 18.3012143, 'tags': {'addr:city': 'Gračanica', 'addr:country': 'BA', 'addr:housenumber': 'bb', 'addr:postcode': '75320', 'addr:street': 'Patriotske lige', 'amenity': 'pharmacy', 'description': 'dežurna apoteka', 'name': 'Gradska apoteka', 'opening_hours': '24/7', 'phone': '+387 35 702066', 'ref': '1'}}"
"{'type': 'node', 'id': 4408128492, 'lat': 43.6595756, 'lon': 17.7610934, 'tags': {'addr:postcode': '88420', 'addr:street': 'Stara cesta', 'amenity': 'pharmacy', 'name': 'Apoteka ""Vita""', 'name:hr': 'Apoteka ""Vita""'}}"
"{'type': 'node', 'id': 4424306090, 'lat': 43.6631483, 'lon': 17.7606747, 'tags': {'amenity': 'pharmacy', 'name': 'Apoteka', 'name:hr': 'Apoteka'}}"
"{'type': 'node', 'id': 4655442508, 'lat': 44.4240885, 'lon': 18.0344757, 'tags': {'addr:street': 'Ulica Prva', 'amenity': 'pharmacy', 'name': 'Gradska ljekarna', 'name:hr': 'Gradska ljekarna'}}"
"{'type': 'node', 'id': 4655442601, 'lat': 44.4234282, 'lon': 18.0352102, 'tags': {'addr:street': 'Ulica Prva', 'amenity': 'clinic', 'name': 'Dom zdravlja', 'name:hr': 'Dom zdravlja'}}"
"{'type': 'node', 'id': 4655543389, 'lat': 44.4240193, 'lon': 18.0348649, 'tags': {'addr:street': 'Ulica Prva', 'amenity': 'pharmacy', 'name': 'Apoteka Tina', 'name:hr': 'Apoteka Tina'}}"
"{'type': 'node', 'id': 4723196393, 'lat': 44.763317, 'lon': 17.202071, 'tags': {'addr:city': 'Banja Luka', 'addr:postcode': '78000', 'addr:street': 'Slobodana Kusturića', 'amenity': 'pharmacy', 'dispensing': 'yes', 'healthcare': 'pharmacy', 'name': 'Smilje', 'opening_hours': 'Mo-Fr 08:00-21:00; Sa 08:00-20:00; Su 07:00-12:00', 'operator': 'Betty'}}"
"{'type': 'node', 'id': 4771641740, 'lat': 43.6620241, 'lon': 17.7612131, 'tags': {'amenity': 'pharmacy'}}"
"{'type': 'node', 'id': 4822377121, 'lat': 44.1995745, 'lon': 17.9038392, 'tags': {'addr:city': 'Zenica', 'addr:country': 'BA', 'addr:housenumber': '10', 'addr:postcode': '72000', 'addr:street': 'Fakultetska', 'amenity': 'pharmacy', 'email': '12pril@apoteka-zdravlje.ba', 'healthcare': 'pharmacy', 'name': 'JU Apoteka ""12 april""', 'opening_hours': 'Mo-Fr 08:00-18:00; Sa 09:00-15:00', 'operator': 'JU Apoteka ""Zdravlje"" Zenica', 'phone': '+387 32 401005'}}"
"{'type': 'node', 'id': 4876489224, 'lat': 44.7234667, 'lon': 17.3176218, 'tags': {'amenity': 'pharmacy', 'name': 'Marija', 'name:sr': 'Марија'}}"
"{'type': 'node', 'id': 4884948921, 'lat': 44.2098516, 'lon': 17.9149888, 'tags': {'addr:postcode': '72000', 'addr:street': 'Zije Dizdareviča', 'amenity': 'pharmacy', 'dispensing': 'yes', 'healthcare': 'pharmacy', 'name': 'Zeni-Lijek Apoteka', 'name:bs': 'Ambulanta', 'opening_hours': 'Mo-Fr 08:00-19:00'}}"
"{'type': 'node', 'id': 4947085581, 'lat': 44.8239818, 'lon': 17.2160909, 'tags': {'addr:housenumber': '35a', 'addr:street': 'Put srpskih branilaca', 'amenity': 'pharmacy', 'name': 'B-Pharm 12', 'opening_hours': 'Mo-Fr 07:30-21:00; Sa 08:00-20:00; Su 08:00-14:00', 'phone': '+387 51 385123', 'website': 'https://www.bpharm.rs'}}"
"{'type': 'node', 'id': 4973648022, 'lat': 44.7842988, 'lon': 17.1772374, 'tags': {'amenity': 'clinic'}}"
"{'type': 'node', 'id': 5095564551, 'lat': 43.827236, 'lon': 17.0030379, 'tags': {'addr:city': 'Livno', 'addr:country': 'BA', 'addr:housenumber': '2', 'addr:postcode': '80101', 'addr:street': 'Svetog Ive', 'amenity': 'clinic', 'contact:email': 'dz.livno@gmail.com', 'contact:fax': '+387 34 200003', 'contact:phone': '+387 34 202084', 'contact:website': 'http://www.dz-livno.com', 'healthcare': 'clinic', 'name': 'Dom zdravlja Livno', 'name:de': 'Livno Tagesklinik', 'name:fr': 'Hôpital de jour Livno'}}"
"{'type': 'node', 'id': 5214553596, 'lat': 43.823899, 'lon': 17.0047302, 'tags': {'addr:city': 'Livno', 'addr:postcode': '80101', 'addr:street': 'Župana Želimira', 'amenity': 'pharmacy', 'healthcare': 'pharmacy', 'name': 'Lybra Pharm', 'operator': 'Betty BiH', 'phone': '+387 34 201 073', 'website': 'https://betty.ba/'}}"
"{'type': 'node', 'id': 5214561848, 'lat': 43.8225274, 'lon': 16.9942347, 'tags': {'amenity': 'pharmacy', 'healthcare': 'pharmacy', 'name': 'Lybra Pharm', 'operator': 'Betty BiH'}}"
"{'type': 'node', 'id': 5214561849, 'lat': 43.8238085, 'lon': 17.0006733, 'tags': {'addr:city': 'Livno', 'addr:postcode': '80101', 'addr:street': 'Splitska', 'amenity': 'pharmacy', 'email': 'lupriv28@lupriv.com', 'healthcare': 'pharmacy', 'name': 'Ljekarna ""Lupriv""', 'opening_hours': 'Mo-Fr 08:00-17:00', 'operator': 'LUPRIV', 'phone': '+387 34 203 899'}}"
"{'type': 'node', 'id': 5270086123, 'lat': 44.6541777, 'lon': 17.9607076, 'tags': {'addr:street': 'Jelah', 'amenity': 'pharmacy', 'name': 'Apoteka'}}"
"{'type': 'node', 'id': 5270118522, 'lat': 44.6540155, 'lon': 17.9574046, 'tags': {'amenity': 'pharmacy', 'name': 'Apoteka'}}"
"{'type': 'node', 'id': 5318168565, 'lat': 44.4250814, 'lon': 18.0317797, 'tags': {'amenity': 'clinic', 'emergency': 'yes', 'healthcare': 'clinic', 'name': 'Stacionar Žepče'}}"
"{'type': 'node', 'id': 5318192283, 'lat': 44.4794334, 'lon': 18.0621852, 'tags': {'amenity': 'pharmacy', 'healthcare': 'pharmacy'}}"
"{'type': 'node', 'id': 5318192284, 'lat': 44.4804482, 'lon': 18.0609936, 'tags': {'healthcare': 'yes'}}"
"{'type': 'node', 'id': 5415013514, 'lat': 44.2265307, 'lon': 17.6623324, 'tags': {'addr:housenumber': '99', 'addr:street': 'Bosanska', 'amenity': 'pharmacy', 'check_date': '2024-07-16', 'drive_through': 'no', 'healthcare': 'pharmacy', 'level': '0', 'name': 'Apoteka Lašva lijek', 'name:bs': 'Apoteka Lašva lijek', 'opening_hours': 'Mo-Sa 07:00-21:00; PH,Su off', 'payment:cash': 'yes', 'payment:credit_cards': 'yes', 'payment:debit_cards': 'yes', 'wheelchair': 'no'}}"
"{'type': 'node', 'id': 5456167496, 'lat': 44.7809403, 'lon': 17.1852586, 'tags': {'addr:city': 'Banja Luka', 'addr:housenumber': '80c', 'addr:postcode': '78000', 'addr:street': 'Ranka Šipke', 'amenity': 'clinic', 'healthcare': 'clinic', 'healthcare:speciality': 'general', 'name': 'Ambulanta porodične medicine Paprikovac', 'name:sr': 'Амбуланта породичне медицине Паприковац', 'operator': 'Dom zdravlja Banja Luka', 'phone': '+387 51 304 430'}}"
"{'type': 'node', 'id': 5562797421, 'lat': 44.6077773, 'lon': 17.8571205, 'tags': {'amenity': 'clinic', 'name': 'Inea'}}"
"{'type': 'node', 'id': 5729655548, 'lat': 44.4903781, 'lon': 17.3792357, 'tags': {'amenity': 'pharmacy', 'dispensing': 'yes', 'healthcare': 'pharmacy', 'name': 'Moja Apoteka'}}"
"{'type': 'node', 'id': 5729655549, 'lat': 44.4900581, 'lon': 17.3785276, 'tags': {'addr:city': 'Kneževo', 'addr:postcode': '78230', 'addr:street': 'Gavrila Principa', 'amenity': 'pharmacy', 'dispensing': 'yes', 'email': 'apoteka36@experapharmacy.com', 'healthcare': 'pharmacy', 'name': 'Expera Pharmacy', 'opening_hours': 'Mo-Sa 08:00-20:00; Su 08:00-14:00', 'phone': '+387 51 591824', 'website': 'https://www.experapharmacy.com/index.php/apoteke/knezevo'}}"
"{'type': 'node', 'id': 5794536353, 'lat': 44.1687535, 'lon': 17.7785968, 'tags': {'amenity': 'hospital', 'healthcare': 'hospital', 'name': 'Altamedica'}}"
"{'type': 'node', 'id': 5842738746, 'lat': 43.7242428, 'lon': 17.2243546, 'tags': {'amenity': 'pharmacy', 'dispensing': 'yes', 'healthcare': 'pharmacy', 'name': 'Đivić'}}"
"{'type': 'node', 'id': 5844135186, 'lat': 43.7099901, 'lon': 17.2294701, 'tags': {'amenity': 'clinic', 'healthcare': 'clinic', 'name': 'Poliklinika Perić'}}"
"{'type': 'node', 'id': 6157548723, 'lat': 44.202226, 'lon': 17.9066259, 'tags': {'amenity': 'pharmacy', 'contact:email': 'apoteka.masarykova@zeni-lijek.ba', 'contact:phone': '+387 65235771', 'contact:website': 'http://zeni-lijek.ba/apoteka-masarykova', 'name': 'Apoteka Masarykova', 'opening_hours': 'Mo-Fr 07:30-19:00;Sa 08:00-15:00;Su,PH off', 'payment:mastercard': 'yes', 'payment:visa': 'yes'}}"
"{'type': 'node', 'id': 6238374101, 'lat': 43.7101239, 'lon': 17.2296992, 'tags': {'amenity': 'pharmacy', 'dispensing': 'yes', 'healthcare': 'pharmacy', 'name': 'Đivić'}}"
"{'type': 'node', 'id': 6363409451, 'lat': 43.8434436, 'lon': 18.2783318, 'tags': {'addr:street': 'Ulica Osik', 'amenity': 'pharmacy', 'name': 'Apoteka'}}"
"{'type': 'node', 'id': 6400926505, 'lat': 43.8379716, 'lon': 18.3196606, 'tags': {'addr:street': 'Dobrinjska', 'amenity': 'pharmacy', 'healthcare': 'pharmacy', 'name': 'Apoteka'}}"
"{'type': 'node', 'id': 6443763643, 'lat': 44.7585605, 'lon': 17.1923625, 'tags': {'addr:city': 'Banja Luka', 'addr:housenumber': '22', 'addr:postcode': '78000', 'addr:street': 'Kalemegdanska', 'amenity': 'doctors', 'email': 'divamedica@hotmail.com', 'emergency': 'no', 'healthcare': 'doctor', 'healthcare:speciality': 'gynaecology', 'name': 'DIVa medica', 'opening_hours': 'Mo-Fr 08:00-12:00,15:00-20:00; Sa 08:00-12:00', 'operator': 'Prim. dr Jordanka Topić', 'phone': '+387 51 434 120', 'phone:mobile': '+387 65 063 449', 'website': 'https://divamedica.com/'}}"
"{'type': 'node', 'id': 6544280408, 'lat': 44.7680395, 'lon': 17.1992186, 'tags': {'addr:city': 'Banja Luka', 'addr:housenumber': '4', 'addr:postcode': '78000', 'addr:street': 'Gavre Vučkovića', 'amenity': 'dentist', 'description': 'ZU ""A Dent"", Stomatološka ordinacija, Banja Luka', 'email': 'info@stomatologija-adent.com', 'healthcare': 'dentist', 'healthcare:speciality': 'dentist;clinic;orthodontics;implantology;oral_surgery;dental_oral_maxillo_facial_surgery;dentistry;dental;dental_surgery;family_dentistry;stomatology;paediatric_dentistry', 'name': 'A Dent Stomatološka ordinacija', 'opening_hours': 'Mo-Fr 11:00-19:00', 'phone': '+387 51 346-246', 'website': 'https://www.stomatologija-adent.com/'}}"
"{'type': 'node', 'id': 6644775995, 'lat': 43.7196068, 'lon': 17.2253342, 'tags': {'addr:city': 'Tomislavgrad', 'addr:postcode': '80240', 'addr:street': 'Mijata Tomića', 'amenity': 'pharmacy', 'dispensing': 'yes', 'healthcare': 'pharmacy', 'name': 'Ljekarna Tabak'}}"
"{'type': 'node', 'id': 7018135500, 'lat': 44.6105629, 'lon': 17.6901932, 'tags': {'addr:place': 'Прибинић', 'amenity': 'doctors', 'healthcare': 'doctor', 'healthcare:speciality': 'general', 'name': 'Ambulanta Pribinić'}}"
"{'type': 'node', 'id': 7019228186, 'lat': 44.4775359, 'lon': 17.2085957, 'tags': {'addr:city': 'Mrkonjić Grad', 'addr:housenumber': '56', 'addr:postcode': '70260', 'addr:street': 'Bjelajce', 'amenity': 'clinic', 'ele': '1', 'email': 'kontakt@domzdravljamg.com', 'fax': '+38750211286', 'healthcare': 'clinic', 'name': 'Ambulanta Bjelajce', 'note': '124', 'operator': 'Dom Zdravlja dr Jovan Rašković', 'phone': '+38750211319', 'website': 'https://domzdravljamg.com/', 'wheelchair': 'yes'}}"
"{'type': 'node', 'id': 7019231280, 'lat': 44.4142799, 'lon': 17.0858073, 'tags': {'amenity': 'pharmacy', 'dispensing': 'yes', 'healthcare': 'pharmacy'}}"
"{'type': 'node', 'id': 7019256910, 'lat': 44.4146263, 'lon': 17.0882894, 'tags': {'amenity': 'pharmacy', 'dispensing': 'yes', 'healthcare': 'pharmacy'}}"
"{'type': 'node', 'id': 7019261104, 'lat': 44.4168331, 'lon': 17.0852471, 'tags': {'amenity': 'pharmacy', 'healthcare': 'pharmacy', 'name': 'Apoteka'}}"
"{'type': 'node', 'id': 7019261105, 'lat': 44.4169079, 'lon': 17.0863594, 'tags': {'amenity': 'pharmacy', 'dispensing': 'yes', 'healthcare': 'pharmacy', 'name': 'Apoteka'}}"
"{'type': 'node', 'id': 7019615866, 'lat': 44.8233472, 'lon': 17.1848832, 'tags': {'amenity': 'pharmacy', 'brand': 'Pharmacie Principale', 'brand:wikidata': 'Q1547749', 'brand:wikipedia': 'fr:Groupe PP Holding', 'dispensing': 'yes', 'healthcare': 'pharmacy', 'name': 'Pharmacie Principale'}}"
"{'type': 'node', 'id': 7638076538, 'lat': 44.4145677, 'lon': 17.0884953, 'tags': {'amenity': 'clinic', 'healthcare': 'clinic', 'name': 'Dom zdravlja Mrkonjić Grad'}}"
"{'type': 'node', 'id': 7783029394, 'lat': 44.7658246, 'lon': 17.2050213, 'tags': {'addr:city': 'Banja Luka', 'addr:housenumber': '175', 'addr:postcode': '78000', 'addr:street': 'Bulevar vojvode Stepe Stepanovića', 'amenity': 'pharmacy', 'dispensing': 'yes', 'drive_through': 'no', 'email': 'c15@crvenaapoteka.com', 'healthcare': 'pharmacy', 'name': 'Crvena apoteka', 'phone': '+387 51 490 886', 'website': 'https://crvenaapoteka.com/'}}"
"{'type': 'node', 'id': 7815554915, 'lat': 44.8687895, 'lon': 17.6585418, 'tags': {'amenity': 'pharmacy', 'dispensing': 'yes', 'healthcare': 'pharmacy'}}"
"{'type': 'node', 'id': 7819875941, 'lat': 44.8696078, 'lon': 17.6609291, 'tags': {'amenity': 'pharmacy', 'dispensing': 'yes', 'healthcare': 'pharmacy'}}"
"{'type': 'node', 'id': 7819875946, 'lat': 44.8683381, 'lon': 17.6626857, 'tags': {'amenity': 'pharmacy', 'dispensing': 'yes', 'healthcare': 'pharmacy'}}"
"{'type': 'node', 'id': 7819875951, 'lat': 44.8679091, 'lon': 17.6627365, 'tags': {'amenity': 'pharmacy', 'dispensing': 'yes', 'healthcare': 'pharmacy'}}"
"{'type': 'node', 'id': 7819880193, 'lat': 44.8692345, 'lon': 17.6620476, 'tags': {'amenity': 'pharmacy', 'dispensing': 'yes', 'healthcare': 'pharmacy'}}"
"{'type': 'node', 'id': 7819880197, 'lat': 44.86943, 'lon': 17.6636282, 'tags': {'amenity': 'pharmacy', 'dispensing': 'yes', 'healthcare': 'pharmacy'}}"
"{'type': 'node', 'id': 7819880226, 'lat': 44.8695366, 'lon': 17.6655373, 'tags': {'amenity': 'pharmacy', 'dispensing': 'yes', 'healthcare': 'pharmacy'}}"
"{'type': 'node', 'id': 7819880244, 'lat': 44.869781, 'lon': 17.6664663, 'tags': {'amenity': 'pharmacy', 'dispensing': 'yes', 'healthcare': 'pharmacy'}}"
"{'type': 'node', 'id': 7819880245, 'lat': 44.869536, 'lon': 17.6669114, 'tags': {'amenity': 'pharmacy', 'dispensing': 'yes', 'healthcare': 'pharmacy'}}"
"{'type': 'node', 'id': 7819880246, 'lat': 44.8693819, 'lon': 17.6665497, 'tags': {'amenity': 'pharmacy', 'dispensing': 'yes', 'healthcare': 'pharmacy'}}"
"{'type': 'node', 'id': 7823587118, 'lat': 44.8559397, 'lon': 17.6858055, 'tags': {'amenity': 'pharmacy', 'contact:facebook': 'http://facebook.com/apotekaMalina', 'dispensing': 'yes', 'healthcare': 'pharmacy', 'mobile': '+387 65 915 555', 'name': 'Pharmacy Malina'}}"
"{'type': 'node', 'id': 7823587130, 'lat': 44.8685114, 'lon': 17.6535394, 'tags': {'amenity': 'clinic', 'healthcare': 'clinic'}}"
"{'type': 'node', 'id': 7823587131, 'lat': 44.8744008, 'lon': 17.6617938, 'tags': {'amenity': 'clinic', 'healthcare': 'clinic'}}"
"{'type': 'node', 'id': 7823587142, 'lat': 44.8827781, 'lon': 17.6725348, 'tags': {'amenity': 'clinic', 'healthcare': 'clinic'}}"
"{'type': 'node', 'id': 7840423032, 'lat': 44.8857043, 'lon': 17.5574993, 'tags': {'amenity': 'clinic', 'healthcare': 'clinic'}}"
"{'type': 'node', 'id': 8137690012, 'lat': 44.7730103, 'lon': 17.1784207, 'tags': {'addr:city': 'Banja Luka', 'addr:country': 'BA', 'addr:housenumber': '49', 'addr:postcode': '78000', 'addr:street': 'Karađorđeva', 'amenity': 'clinic', 'contact:phone': '+387 51 216661', 'contact:website': 'https://www.facebook.com/Zdravstvena-Ustanova-Intermedik-231429493702402', 'name': 'Intermedik', 'opening_hours': 'Mo-Sa 06:00-20:00; Su off', 'wheelchair': 'no'}}"
"{'type': 'node', 'id': 8155037364, 'lat': 44.1473784, 'lon': 18.134853, 'tags': {'addr:city': 'Kakanj', 'addr:postcode': '72240', 'addr:street': 'Zgošća', 'amenity': 'hospital', 'healthcare': 'hospital', 'healthcare:speciality': 'general', 'name': 'Ambulanta Zgošća', 'operator': 'Doma zdravlja Kakanj', 'operator:type': 'public', 'phone': '+387 32 559-692'}}"
"{'type': 'node', 'id': 8259325881, 'lat': 44.7852504, 'lon': 17.1784168, 'tags': {'amenity': 'clinic', 'healthcare': 'clinic', 'healthcare:speciality': 'nuclear'}}"
"{'type': 'node', 'id': 8306038918, 'lat': 43.8228082, 'lon': 17.6009131, 'tags': {'amenity': 'pharmacy', 'brand': 'Pharmacie Principale', 'brand:wikidata': 'Q1547749', 'brand:wikipedia': 'fr:Groupe PP Holding', 'dispensing': 'yes', 'healthcare': 'pharmacy', 'name': 'Pharmacie Principale'}}"
"{'type': 'node', 'id': 8306038986, 'lat': 43.8247799, 'lon': 17.6069644, 'tags': {'healthcare': 'physiotherapist', 'name': 'Fizikalna terapija i rehabilitacija'}}"
"{'type': 'node', 'id': 8410909958, 'lat': 44.7777146, 'lon': 17.1920651, 'tags': {'addr:city': 'Banja Luka', 'addr:housenumber': '5', 'addr:postcode': '78000', 'addr:street': 'Svetozara Markovića', 'addr:unit': 'c', 'amenity': 'pharmacy', 'dispensing': 'yes', 'drive_through': 'no', 'healthcare': 'pharmacy', 'name': 'Biljana', 'opening_hours': 'Mo-Su 07:00-21:00'}}"
"{'type': 'node', 'id': 8512095918, 'lat': 44.757645, 'lon': 17.1864867, 'tags': {'addr:city': 'Banja Luka', 'addr:housenumber': '24', 'addr:postcode': '78000', 'addr:street': 'Gavrila Principa', 'amenity': 'dentist', 'email': 'info@dagodent.com', 'healthcare': 'dentist', 'name': 'Dago-dent', 'opening_hours': 'Mo-Fr 09:00-19:00', 'phone': '+387 51 466 861', 'website': 'https://www.dagodent.com/'}}"
"{'type': 'node', 'id': 8513604558, 'lat': 44.439074, 'lon': 18.146523, 'tags': {'amenity': 'pharmacy', 'dispensing': 'yes', 'healthcare': 'pharmacy'}}"
"{'type': 'node', 'id': 8524529201, 'lat': 44.4414311, 'lon': 18.2108585, 'tags': {'healthcare': 'yes'}}"
"{'type': 'node', 'id': 8551836346, 'lat': 44.5480429, 'lon': 18.1023155, 'tags': {'amenity': 'pharmacy', 'dispensing': 'yes', 'healthcare': 'pharmacy'}}"
"{'type': 'node', 'id': 8565528888, 'lat': 44.4391232, 'lon': 18.1478074, 'tags': {'amenity': 'pharmacy', 'healthcare': 'pharmacy'}}"
"{'type': 'node', 'id': 8742226654, 'lat': 44.7628028, 'lon': 17.1905529, 'tags': {'addr:city': 'Banja Luka', 'addr:housenumber': '28', 'addr:postcode': '78000', 'addr:street': 'Cara Lazara', 'amenity': 'pharmacy', 'contact:facebook': 'mojaapoteka.net', 'contact:instagram': 'mojaapoteka', 'dispensing': 'yes', 'healthcare': 'pharmacy', 'name': 'Моја аpoteka Zvijezda', 'opening_hours': 'Mo-Fr 07:00-21:00; Sa 08:00-21:00; Su 08:00-14:00', 'operator': 'Moja apoteka', 'phone': '+387 51 433 070', 'website': 'https://mojaapoteka.net'}}"
"{'type': 'node', 'id': 8750154085, 'lat': 44.7850295, 'lon': 17.1734762, 'tags': {'addr:city': 'Banja Luka', 'addr:housenumber': '153a', 'addr:postcode': '78000', 'addr:street': 'Dr Jovana Raškovića', 'amenity': 'clinic', 'healthcare': 'clinic', 'healthcare:speciality': 'pulmonology', 'name': 'Zdravstvena ustanova HELP', 'opening_hours': 'Mo-Fr 08:00-19:00; Sa 08:00-13:00', 'phone': '+387 51 308 020'}}"
"{'type': 'node', 'id': 8855423676, 'lat': 44.2260277, 'lon': 17.6663361, 'tags': {'amenity': 'pharmacy', 'healthcare': 'pharmacy', 'name': 'Apoteka Games', 'opening_hours': 'Mo-Fr 08:00-22:00; Sa 09:00-16:00; Su 09:00-14:00', 'wheelchair': 'no'}}"
"{'type': 'node', 'id': 8855423677, 'lat': 44.226069, 'lon': 17.666135, 'tags': {'amenity': 'pharmacy', 'healthcare': 'pharmacy', 'name': 'Tilia', 'opening_hours': 'Mo-Sa 07:00-22:00; Su 08:00-15:00', 'wheelchair': 'no'}}"
"{'type': 'node', 'id': 8864486896, 'lat': 44.7908507, 'lon': 17.1934313, 'tags': {'amenity': 'pharmacy', 'healthcare': 'pharmacy'}}"
"{'type': 'node', 'id': 8916246278, 'lat': 44.7598842, 'lon': 17.1840878, 'tags': {'addr:city': 'Banja Luka', 'addr:housenumber': '2', 'addr:postcode': '78000', 'addr:street': 'Vojvode Pere Krece', 'amenity': 'pharmacy', 'dispensing': 'yes', 'healthcare': 'pharmacy', 'name': 'Ivipharm', 'opening_hours': 'Mo-Fr 08:00-20:00; Sa 08:00-14:00'}}"
"{'type': 'node', 'id': 8927010750, 'lat': 44.7712653, 'lon': 17.1913355, 'tags': {'addr:city': 'Banja Luka', 'addr:housenumber': '18', 'addr:postcode': '78000', 'addr:street': 'Veselina Masleše', 'amenity': 'pharmacy', 'check_date:opening_hours': '2023-12-08', 'contact:facebook': 'mojaapoteka.net', 'contact:instagram': 'mojaapoteka', 'dispensing': 'yes', 'email': 'ap.centralna@mojaapoteka.net', 'healthcare': 'pharmacy', 'name': 'Centralna apoteka', 'opening_hours': 'Mo-Fr 07:00-21:30; Sa 07:30-20:00; Su 08:00-14:00', 'operator': 'MOJA apoteka', 'phone': '+387 51 225-630', 'website': 'https://mojaapoteka.net/', 'wheelchair': 'limited'}}"
"{'type': 'node', 'id': 8943250135, 'lat': 44.8242267, 'lon': 17.2973018, 'tags': {'amenity': 'hospital', 'healthcare': 'hospital', 'name': 'Slateks'}}"
"{'type': 'node', 'id': 8947005587, 'lat': 44.7698958, 'lon': 17.1983837, 'tags': {'addr:city': 'Banja Luka', 'addr:housenumber': '109', 'addr:postcode': '78000', 'addr:street': 'Srpska', 'amenity': 'pharmacy', 'contact:facebook': 'mojaapoteka.net', 'contact:instagram': 'mojaapoteka', 'dispensing': 'yes', 'email': 'ap.centar2@mojaapoteka.net', 'healthcare': 'pharmacy', 'name': 'Moja apoteka Centar 2', 'opening_hours': 'Mo-Fr 07:30-21:00; Sa 07:30-15:00, Su 08:00-13:00', 'operator': 'Moja apoteka', 'phone': '+387 51 965 440'}}"
"{'type': 'node', 'id': 8947005600, 'lat': 44.7697887, 'lon': 17.1977722, 'tags': {'addr:city': 'Banja Luka', 'addr:housenumber': '52', 'addr:postcode': '78000', 'addr:street': 'Srpska', 'amenity': 'pharmacy', 'dispensing': 'yes', 'healthcare': 'pharmacy', 'name': 'Farmanea', 'opening_hours': 'Mo-Fr 08:00-20:00; Sa 08:00-14:00', 'phone': '+387 51 212 502', 'wheelchair': 'no'}}"
"{'type': 'node', 'id': 8947017819, 'lat': 44.769524, 'lon': 17.1947789, 'tags': {'amenity': 'dentist', 'healthcare': 'dentist', 'name': 'Cranex', 'opening_hours': 'Mo-Fr 09:00-19:00; PH,Sa,Su off'}}"
"{'type': 'node', 'id': 8947017822, 'lat': 44.7699324, 'lon': 17.1963592, 'tags': {'amenity': 'dentist', 'healthcare': 'dentist', 'name': 'Pavlović'}}"
"{'type': 'node', 'id': 8947240717, 'lat': 44.7685572, 'lon': 17.1967313, 'tags': {'amenity': 'dentist', 'healthcare': 'dentist', 'name': 'Dr Stojčić'}}"
"{'type': 'node', 'id': 8947240740, 'lat': 44.7688708, 'lon': 17.1965256, 'tags': {'amenity': 'dentist', 'healthcare': 'dentist', 'name': 'Dr Antonić'}}"
"{'type': 'node', 'id': 8947240742, 'lat': 44.7683422, 'lon': 17.1964202, 'tags': {'amenity': 'dentist', 'healthcare': 'dentist', 'name': 'Dr Jelena'}}"
"{'type': 'node', 'id': 8947240743, 'lat': 44.768781, 'lon': 17.196987, 'tags': {'addr:city': 'Banja Luka', 'addr:housenumber': '108', 'addr:postcode': '78000', 'addr:street': 'Jevrejska', 'amenity': 'pharmacy', 'dispensing': 'yes', 'email': 'apotekarosicbr13@gmail.com', 'healthcare': 'pharmacy', 'name': 'Rosić 13', 'opening_hours': 'Mo-Fr 08:00-16:00; Sa 08:00-13:00', 'phone': '+387 51 492 592', 'website': 'https://rosic.ba/apoteke/'}}"
"{'type': 'node', 'id': 8948899427, 'lat': 44.8207093, 'lon': 16.9976199, 'tags': {'amenity': 'pharmacy', 'healthcare': 'pharmacy'}}"
"{'type': 'node', 'id': 8949056155, 'lat': 44.7684749, 'lon': 17.197565, 'tags': {'amenity': 'dentist', 'healthcare': 'dentist', 'name': 'Euro Dental'}}"
"{'type': 'node', 'id': 8949325566, 'lat': 44.771958, 'lon': 17.1942612, 'tags': {'addr:housenumber': '7', 'addr:postcode': '78000', 'addr:street': 'Bana dr Todora Lazarevića', 'amenity': 'dentist', 'contact:instagram': 'stomatologija_dr_tamara', 'healthcare': 'dentist', 'name': 'dr Tamara'}}"
"{'type': 'node', 'id': 8949538328, 'lat': 44.7781829, 'lon': 17.1899041, 'tags': {'amenity': 'doctors', 'healthcare': 'doctor', 'healthcare:speciality': 'gynaecology', 'name': 'Jelena'}}"
"{'type': 'node', 'id': 8949538352, 'lat': 44.7790057, 'lon': 17.1907052, 'tags': {'amenity': 'dentist', 'healthcare': 'dentist', 'name': 'Dr Deri'}}"
"{'type': 'node', 'id': 8949538363, 'lat': 44.7792649, 'lon': 17.1916226, 'tags': {'addr:housenumber': '40', 'addr:postcode': '78000', 'addr:street': 'Pave Radana', 'amenity': 'pharmacy', 'healthcare': 'pharmacy', 'name': 'Ivipharm'}}"
"{'type': 'node', 'id': 8949538370, 'lat': 44.7774301, 'lon': 17.1892266, 'tags': {'amenity': 'dentist', 'healthcare': 'dentist', 'name': 'dr Dajana Kalamanda'}}"
"{'type': 'node', 'id': 8949538386, 'lat': 44.7752031, 'lon': 17.1876997, 'tags': {'amenity': 'dentist', 'healthcare': 'dentist', 'name': 'Kostadinović'}}"
"{'type': 'node', 'id': 8949538401, 'lat': 44.7697425, 'lon': 17.1922523, 'tags': {'addr:city': 'Banja Luka', 'addr:housenumber': '69', 'addr:postcode': '78000', 'addr:street': 'Jevrejska', 'amenity': 'dentist', 'email': 'info@dub-dent.com', 'healthcare': 'dentist', 'healthcare:speciality': 'dentist', 'name': 'Dub Dent', 'phone': '+387 51 264 140', 'website': 'https://dub-dent.com/'}}"
"{'type': 'node', 'id': 8949538423, 'lat': 44.7743671, 'lon': 17.1874301, 'tags': {'amenity': 'dentist', 'healthcare': 'dentist', 'name': 'Aurum'}}"
"{'type': 'node', 'id': 8949538432, 'lat': 44.7782383, 'lon': 17.1937301, 'tags': {'amenity': 'clinic', 'healthcare': 'clinic', 'healthcare:speciality': 'cardiology;internal', 'name': 'Cardio', 'start_date': '2008'}}"
"{'type': 'node', 'id': 8951120599, 'lat': 44.772631, 'lon': 17.1965726, 'tags': {'addr:housenumber': '40', 'addr:postcode': '78000', 'addr:street': 'Vase Pelagića', 'amenity': 'dentist', 'healthcare': 'dentist', 'name': 'Dentina'}}"
"{'type': 'node', 'id': 8951150654, 'lat': 44.7737074, 'lon': 17.1942126, 'tags': {'addr:city': 'Banja Luka', 'addr:housenumber': '6', 'addr:postcode': '78000', 'addr:street': 'Aleja Svetog Save', 'amenity': 'pharmacy', 'contact:facebook': 'mojaapoteka.net', 'contact:instagram': 'mojaapoteka', 'healthcare': 'pharmacy', 'name': 'Moja apoteka Zmijanje', 'website': 'https://mojaapoteka.net/'}}"
"{'type': 'node', 'id': 8952103126, 'lat': 44.7640825, 'lon': 17.1898142, 'tags': {'addr:city': 'Banja Luka', 'addr:housenumber': '9a', 'addr:postcode': '78000', 'addr:street': 'Cara Lazara', 'amenity': 'pharmacy', 'dispensing': 'yes', 'healthcare': 'pharmacy', 'name': 'Inka 2', 'opening_hours': 'Mo-Fr 08:00-20:00; Sa 08:00-17:00; Su 09:00-14:00', 'operator': 'ZU apoteke ""Inka""', 'phone': '+387 51 464 800', 'wheelchair': 'yes'}}"
"{'type': 'node', 'id': 8952103139, 'lat': 44.7688602, 'lon': 17.1897977, 'tags': {'addr:city': 'Banja Luka', 'addr:housenumber': '5', 'addr:postcode': '78000', 'addr:street': 'Gajeva', 'amenity': 'pharmacy', 'email': 'c28@crvenaapoteka.com', 'healthcare': 'pharmacy', 'name': 'Crvena apoteka', 'opening_hours': 'Mo-Sa 08:00-20:30; Su 09:00-14:00', 'phone': '+387 51 492 788', 'website': 'https://crvenaapoteka.com/', 'wheelchair': 'yes'}}"
"{'type': 'node', 'id': 8954337300, 'lat': 44.7712874, 'lon': 17.1856512, 'tags': {'addr:city': 'Banja Luka', 'addr:housenumber': '2', 'addr:postcode': '78000', 'addr:street': 'Jovana Dučića', 'contact:facebook': 'Aqualab.laboratorije.bih', 'contact:instagram': 'aqualablaboratorije', 'healthcare': 'laboratory', 'name': 'Aqualab', 'opening_hours': '24/7', 'phone': '+387 51 212 121', 'phone_1': '+387 65 733 733', 'website': 'https://aqualab.ba/'}}"
"{'type': 'node', 'id': 8954337312, 'lat': 44.772848, 'lon': 17.1858716, 'tags': {'amenity': 'doctors', 'healthcare': 'doctor', 'healthcare:speciality': 'dermatology', 'name': 'Dr Vučen'}}"
"{'type': 'node', 'id': 8954340722, 'lat': 44.7722998, 'lon': 17.1860007, 'tags': {'addr:housenumber': '22', 'addr:street': 'Milana Tepića', 'amenity': 'pharmacy', 'healthcare': 'pharmacy', 'name': 'Expera', 'opening_hours': 'Mo-Sa 07:00-21:00; Su 08:00-14:00', 'wheelchair': 'yes'}}"
"{'type': 'node', 'id': 8954340725, 'lat': 44.7714554, 'lon': 17.1855699, 'tags': {'addr:city': 'Banja Luka', 'addr:housenumber': '2', 'addr:postcode': '78000', 'addr:street': 'Jovana Dučića', 'amenity': 'pharmacy', 'contact:facebook': 'mojaapoteka.net', 'dispensing': 'yes', 'email': 'ap.gradskabl@mojaapoteka.net', 'healthcare': 'pharmacy', 'name': 'Moja Apoteka - Gradska apoteka', 'opening_hours': 'Mo-Fr 07:00-20:00; Sa 08:00-17:00', 'operator': 'Moja apoteka', 'phone': '+387 51 965 380', 'website': 'https://mojaapoteka.net/'}}"
"{'type': 'node', 'id': 8954340737, 'lat': 44.7720251, 'lon': 17.1861581, 'tags': {'amenity': 'dentist', 'healthcare': 'dentist', 'name': 'City Dent', 'opening_hours': 'Mo-Fr 10:00-20:00', 'wheelchair': 'no'}}"
"{'type': 'node', 'id': 8954340747, 'lat': 44.7694256, 'lon': 17.184486, 'tags': {'addr:city': 'Banja Luka', 'addr:housenumber': '18', 'addr:postcode': '78000', 'addr:street': 'Zmaj Jovina', 'amenity': 'pharmacy', 'contact:instagram': 'apoteke_b_pharm', 'dispensing': 'yes', 'healthcare': 'pharmacy', 'name': 'B Pharm 40', 'opening_hours': 'Mo-Fr 07:30-21:00; Sa 08:00-20:00', 'operator': 'Apoteke B Pharm', 'phone': '+387 51 214 556', 'website': 'https://bpharm.rs/'}}"
"{'type': 'node', 'id': 8954340756, 'lat': 44.771945, 'lon': 17.1883299, 'tags': {'amenity': 'dentist', 'healthcare': 'dentist', 'name': 'K Dent'}}"
"{'type': 'node', 'id': 8957248791, 'lat': 44.6218581, 'lon': 17.3700435, 'tags': {'amenity': 'dentist', 'healthcare': 'dentist', 'name': 'Bell Dente'}}"
"{'type': 'node', 'id': 8967827781, 'lat': 44.6198965, 'lon': 17.3703745, 'tags': {'addr:city': 'Kotor Varoš', 'addr:housenumber': '55', 'addr:postcode': '78220', 'addr:street': 'Cara Dušana', 'amenity': 'pharmacy', 'dispensing': 'yes', 'email': 'apoteka29@experapharmacy.com', 'name': 'Apoteka Expera Pharmacy broj 29', 'opening_hours': 'Mo-Fr 08:00-18:00; Sa 08:00-14:00; Su 08:00-12:00', 'operator': 'Expera Pharmacy', 'phone': '+387 51 783 145'}}"
"{'type': 'node', 'id': 8967827784, 'lat': 44.619131, 'lon': 17.3704094, 'tags': {'amenity': 'pharmacy', 'name': '7.April'}}"
"{'type': 'node', 'id': 8967827795, 'lat': 44.6160962, 'lon': 17.3711443, 'tags': {'amenity': 'pharmacy', 'name': 'Crvena'}}"
"{'type': 'node', 'id': 8967827797, 'lat': 44.6147912, 'lon': 17.3730232, 'tags': {'addr:city': 'Kotor Varoš', 'addr:housenumber': '27', 'addr:postcode': '78220', 'addr:street': 'Cara Dušana', 'amenity': 'pharmacy', 'contact:facebook': 'mojaapoteka.net', 'contact:instagram': 'mojaapoteka', 'email': 'ap.kotorvaros@mojaapoteka.net', 'name': 'Moja apoteka Kotor Varoš', 'opening_hours': 'Mo-Fr 08:00-21:00; Sa 08:00-14:00; Su 09:00-13:00', 'phone': '+387 51 784 140'}}"
"{'type': 'node', 'id': 8968055713, 'lat': 44.2267741, 'lon': 17.671097, 'tags': {'amenity': 'dentist', 'healthcare': 'dentist', 'name': 'Dr. Tafi'}}"
"{'type': 'node', 'id': 8968295557, 'lat': 44.2262443, 'lon': 17.6638984, 'tags': {'amenity': 'pharmacy', 'healthcare': 'pharmacy', 'name': 'Betty', 'opening_hours': 'Mo-Sa 08:00-14:00; PH,Su off', 'wheelchair': 'yes'}}"
"{'type': 'node', 'id': 8968295559, 'lat': 44.2260905, 'lon': 17.6659112, 'tags': {'amenity': 'pharmacy', 'healthcare': 'pharmacy', 'name': 'Apoteka', 'opening_hours': 'Mo-Sa 08:00-15:00', 'wheelchair': 'no'}}"
"{'type': 'node', 'id': 8968577964, 'lat': 44.2263599, 'lon': 17.6632908, 'tags': {'amenity': 'pharmacy', 'check_date': '2024-07-16', 'drive_through': 'no', 'healthcare': 'pharmacy', 'level': '0', 'name': 'Altea', 'opening_hours': 'Mo-Sa 07:30-21:00; Su 08:00-15:00', 'wheelchair': 'no'}}"
"{'type': 'node', 'id': 8968577985, 'lat': 44.2269952, 'lon': 17.6668059, 'tags': {'amenity': 'dentist', 'healthcare': 'dentist', 'name': 'Amident'}}"
"{'type': 'node', 'id': 8974264252, 'lat': 43.9143138, 'lon': 18.1269077, 'tags': {'amenity': 'pharmacy', 'drive_through': 'no', 'healthcare': 'pharmacy', 'name': 'Avicena'}}"
"{'type': 'node', 'id': 8975202661, 'lat': 44.1742551, 'lon': 17.7569305, 'tags': {'amenity': 'dentist', 'healthcare': 'dentist'}}"
"{'type': 'node', 'id': 8976756113, 'lat': 44.096593, 'lon': 17.8846693, 'tags': {'amenity': 'pharmacy', 'name': 'Medica'}}"
"{'type': 'node', 'id': 9053685794, 'lat': 44.7724142, 'lon': 17.1846717, 'tags': {'addr:city': 'Banja Luka', 'addr:housenumber': '4', 'addr:postcode': '78000', 'addr:street': 'Zdrave Korde', 'amenity': 'clinic', 'email': 'zavod@zzstombl.com', 'healthcare': 'clinic', 'healthcare:speciality': 'dentistry', 'name': 'Zavod za stomatologiju Republike Srpske', 'name:sr': 'Завод за стоматологију Републике Српске', 'opening_hours': 'Mo-Fr 07:00-20:00; Sa 07:00-14:00', 'operator': 'JZU Zavod za stomatologiju Republike Srpske', 'phone': '+387 51 232 440;+387 51 232 442'}}"
"{'type': 'node', 'id': 9053685795, 'lat': 44.7722418, 'lon': 17.1846042, 'tags': {'addr:city': 'Banja Luka', 'addr:housenumber': '4', 'addr:postcode': '78000', 'addr:street': 'Zdrave Korde', 'amenity': 'clinic', 'email': 'zavod-mris@blic.net', 'healthcare': 'clinic', 'name': 'Zavod za medicinu rada i sporta RS', 'opening_hours': 'Mo-Fr 07:00-15:00', 'operator': 'JZU Zavod za medicinu rada i sporta Republike Srpske', 'phone': '+387 51 221 710', 'website': 'https://medicinaradaisporta.net/'}}"
"{'type': 'node', 'id': 9074032800, 'lat': 44.7599549, 'lon': 17.1994767, 'tags': {'addr:city': 'Banja Luka', 'addr:housenumber': '2', 'addr:postcode': '78000', 'addr:street': 'Srpskih ustanika', 'amenity': 'pharmacy', 'dispensing': 'yes', 'healthcare': 'pharmacy', 'name': 'Galen', 'opening_hours': 'Mo-Fr 07:30-21:00; Sa 08:00-20:00; Su 08:00-14:00', 'operator': 'Betty', 'phone': '+387 51 462666', 'website': 'https://betty.ba/'}}"
"{'type': 'node', 'id': 9074691617, 'lat': 44.7629698, 'lon': 17.1919126, 'tags': {'addr:city': 'Banja Luka', 'addr:housenumber': '23', 'addr:postcode': '78000', 'addr:street': 'Brace Potkonjaka', 'amenity': 'clinic', 'email': 'euromedik@blic.net', 'healthcare': 'clinic', 'healthcare:speciality': 'cardiology;otorhinolaryngology;internal;laboratory;ultrasound;magnetic_resonance', 'name': 'Euromedic', 'opening_hours': 'Mo-Fr 08:00-19:00; Sa 09:00-12:00', 'phone': '+387 51 463 025', 'website': 'http://www.euromedicbl.com/'}}"
"{'type': 'node', 'id': 9090291718, 'lat': 44.7650925, 'lon': 17.1783524, 'tags': {'addr:city': 'Banja Luka', 'addr:postcode': '78000', 'addr:street': 'Duška Koščice', 'amenity': 'pharmacy', 'dispensing': 'yes', 'email': 'ap.kocicevvijenac@mojaapoteka.net', 'name': 'Moja apoteka Kočićev vijenac', 'opening_hours': 'Mo-Fr 07:00-20:00; Sa 08:00-12:00', 'operator': 'Moja apoteka', 'phone': '+387 51 212 340', 'website': 'https://mojaapoteka.net/'}}"
"{'type': 'node', 'id': 9270558117, 'lat': 44.7622881, 'lon': 17.2004024, 'tags': {'addr:city': 'Banja Luka', 'addr:housenumber': '40', 'addr:postcode': '78000', 'addr:street': 'Majke Jugovića', 'amenity': 'pharmacy', 'email': 'kontakt@bokvica.ba', 'name': 'Bokvica', 'opening_hours': 'Mo-Sa 08:00-20:00; Su 08:00-14:00', 'phone': '+387 51 123 456', 'website': 'https://bokvica.ba/'}}"
"{'type': 'node', 'id': 9325757017, 'lat': 44.7624904, 'lon': 17.2003169, 'tags': {'addr:housenumber': '40', 'addr:postcode': '78000', 'addr:street': 'Majke Jugovića', 'amenity': 'clinic', 'email': 'info@healthexpress.ba', 'name': 'Healthexpress', 'name:sr': 'Health express', 'opening_hours': 'Mo-Fr 07:00-20:00; Sa 07:00-13:00', 'phone': '+387 51 963 964', 'website': 'https://healthexpress.ba/'}}"
"{'type': 'node', 'id': 9364463357, 'lat': 44.7752639, 'lon': 17.2083953, 'tags': {'addr:city': 'Banja Luka', 'addr:housenumber': '1a', 'addr:postcode': '78000', 'addr:street': 'Bulevar vojvode Petra Bojovića', 'amenity': 'dentist', 'email': 'info@med.unibl.org', 'healthcare': 'dentist', 'healthcare:speciality': 'dentist', 'name': 'Dentalna klinika', 'name:sr': 'Дентална клиника', 'operator': 'Medicinski fakultet Banja Luka', 'phone': '+387 51 348 123', 'website': 'https://dentalnaklinikabl.com/sluzbe/'}}"
"{'type': 'node', 'id': 9364530417, 'lat': 44.7738387, 'lon': 17.2087972, 'tags': {'addr:city': 'Banja Luka', 'addr:postcode': '78000', 'addr:street': 'Bulevar vojvode Petra Bojovića', 'amenity': 'clinic', 'name': 'Medicinski specijalistički centar', 'name:sr': 'Медицински специјалистички центар', 'operator': 'Medicinski fakultet Banja Luka', 'phone': '+387 51 301 324', 'website': 'https://med.unibl.org/medicinski-specijalisticki-centar/'}}"
"{'type': 'node', 'id': 9448605218, 'lat': 44.7772199, 'lon': 17.1902371, 'tags': {'addr:city': 'Banja Luka', 'addr:housenumber': '68', 'addr:postcode': '78000', 'addr:street': 'Jovana Dučića', 'amenity': 'pharmacy', 'name': 'Medico', 'name:sr': 'Apoteka Medico-S Pharmacentrum', 'opening_hours': 'Mo-Fr 07:30-21:00; Sa 07:30-14:00', 'phone': '+387 51 491 710', 'website': 'https://www.pharmacentrum.ba/', 'wheelchair': 'yes'}}"
"{'type': 'node', 'id': 9517250216, 'lat': 44.76858, 'lon': 17.1870979, 'tags': {'addr:city': 'Banja Luka', 'addr:housenumber': '3', 'addr:postcode': '78000', 'addr:street': 'Bulevar cara Dušana', 'amenity': 'doctors', 'healthcare': 'doctor', 'healthcare:speciality': 'dermatology', 'name': 'Dr Roljić', 'opening_hours': 'Mo-Fr 10:00-18:00; Sa 09:00-14:00'}}"
"{'type': 'node', 'id': 9518911111, 'lat': 44.767725, 'lon': 17.1907663, 'tags': {'addr:city': 'Banja Luka', 'addr:housenumber': 'bb', 'addr:postcode': '78000', 'addr:street': 'Tržnička', 'amenity': 'pharmacy', 'check_date:opening_hours': '2024-01-27', 'dispensing': 'no', 'healthcare': 'pharmacy', 'name': 'Veterinarska apoteka', 'name:sr': 'Ветеринарска апотека', 'opening_hours': 'Mo-Fr 08:00-15:00; Sa 09:00-13:00', 'operator': 'Veterinarska stanica Banja Luka', 'phone': '+387 51 485 539', 'wheelchair': 'limited'}}"
"{'type': 'node', 'id': 9522690330, 'lat': 44.7710592, 'lon': 17.1895412, 'tags': {'addr:city': 'Banja Luka', 'addr:housenumber': '91', 'addr:postcode': '78000', 'addr:street': 'Kralja Petra I Karađorđevića', 'amenity': 'pharmacy', 'contact:facebook': 'mojaapoteka.net', 'contact:instagram': 'mojaapoteka', 'dispensing': 'yes', 'email': 'ap.janja2@mojaapoteka.net', 'healthcare': 'pharmacy', 'name': 'Moja apoteka Janja 2', 'opening_hours': 'Mo-Fr 07:30-20:30; Sa 08:30-19:30; Su 09:30-13:30', 'operator': 'Moja apoteka', 'phone': '+387 51 965 550', 'website': 'https://mojaapoteka.net/'}}"
"{'type': 'node', 'id': 9522722439, 'lat': 44.7719914, 'lon': 17.186222, 'tags': {'addr:city': 'Banja Luka', 'addr:housenumber': '27', 'addr:postcode': '78000', 'addr:street': 'Milana Tepića', 'contact:facebook': 'alfalab.laboratorije', 'contact:instagram': 'alfalab.biomedica.laboratorije', 'healthcare': 'laboratory', 'name': 'AlfaLab Centar', 'opening_hours': 'Mo-Fr 07:00-20:00; Sa 07:30-15:00; Su 07:30-14:00', 'phone': '+387 51 218 448', 'website': 'https://alfalabbl.com/', 'wheelchair': 'no'}}"
"{'type': 'node', 'id': 9725413506, 'lat': 44.6200172, 'lon': 17.3731053, 'tags': {'addr:city': 'Kotor Varoš', 'addr:postcode': '78220', 'addr:street': 'Stefana Nemanje', 'contact:facebook': 'alfalab.laboratorije', 'contact:instagram': 'alfalab.biomedica.laboratorije', 'healthcare': 'laboratory', 'name': 'AlfaLab Kotor Varoš', 'opening_hours': 'Mo-Fr 07:00-16:00; Sa 07:00-15:00', 'phone': '+387 51 941 199', 'website': 'https://alfalabbl.com/'}}"
"{'type': 'node', 'id': 9915945505, 'lat': 43.8420846, 'lon': 18.3383853, 'tags': {'amenity': 'dentist', 'check_date': '2022-07-28', 'healthcare': 'dentist', 'name': 'Dr. Denis Žujo'}}"
"{'type': 'node', 'id': 10040409061, 'lat': 44.7777352, 'lon': 17.1926935, 'tags': {'addr:city': 'Banja Luka', 'addr:housenumber': '10', 'addr:postcode': '78000', 'addr:street': 'Svetozara Markovića', 'amenity': 'pharmacy', 'contact:facebook': 'mojaapoteka.net', 'contact:instagram': 'mojaapoteka', 'dispensing': 'yes', 'email': 'ap.novavaros1@mojaapoteka.net', 'healthcare': 'pharmacy', 'name': 'Moja apoteka Nova varoš 1', 'opening_hours': 'Mo-Fr 07:30-21:00; Sa 08:00-15:30; Su 09:00-14:00', 'operator': 'Moja apoteka', 'phone': '+387 51 965 490', 'website': 'https://mojaapoteka.net/'}}"
"{'type': 'node', 'id': 10049785361, 'lat': 44.7605689, 'lon': 17.2007046, 'tags': {'addr:city': 'Banja Luka', 'addr:housenumber': '66', 'addr:postcode': '78000', 'addr:street': 'Jug Bogdana', 'amenity': 'clinic', 'contact:instagram': 'dom.zdravlja.bl', 'healthcare': 'clinic', 'healthcare:speciality': 'general', 'name': 'Ambulanta porodične medicine Starčevica 1', 'name:sr': 'Амбуланта породичне медицине Старчевица 1', 'opening_hours': 'Mo-Su 07:00-20:00', 'operator': 'JZU Dom zdravlja u Banjoj Luci', 'operator:type': 'government', 'phone': '+387 51 433 720', 'phone_1': '+387 51 433 730', 'website': 'https://domzdravljabanjaluka.com/dz/sluzba-porodicne-medicine/starcevica-1/'}}"
"{'type': 'node', 'id': 10062263347, 'lat': 44.7631629, 'lon': 17.1876378, 'tags': {'addr:city': 'Banja Luka', 'addr:housenumber': '8', 'addr:postcode': '78000', 'addr:street': 'Braće Čubrilovića', 'amenity': 'dentist', 'healthcare': 'dentist', 'healthcare:speciality': 'dentist', 'name': 'Zdravlje plus', 'opening_hours': 'Mo-Fr 09:00-21:00', 'phone': '+387 51 466 046'}}"
"{'type': 'node', 'id': 10132760688, 'lat': 44.424981, 'lon': 18.0441863, 'tags': {'amenity': 'hospital', 'healthcare': 'hospital', 'name': 'CRVENI KRIŽ'}}"
"{'type': 'node', 'id': 10138562644, 'lat': 44.7570004, 'lon': 17.211996, 'tags': {'addr:city': 'Banja Luka', 'addr:housenumber': '21', 'addr:postcode': '78000', 'addr:street': 'Rajka Bosnića', 'amenity': 'clinic', 'contact:instagram': 'dom.zdravlja.bl', 'healthcare': 'clinic', 'name': 'Ambulanta porodične medicine Starčevica 2', 'name:sr': 'Амбуланта породичне медицине Старчевица 2', 'opening_hours': 'Mo-Su 07:00-20:00', 'operator': 'JZU Dom zdravlja u Banjoj Luci', 'operator:type': 'public', 'phone': '+387 51 435 955'}}"
"{'type': 'node', 'id': 10138569935, 'lat': 44.7739841, 'lon': 17.208802, 'tags': {'addr:city': 'Banja Luka', 'addr:postcode': '78000', 'addr:street': 'Bulevar vojvode Petra Bojovića', 'amenity': 'clinic', 'healthcare': 'clinic', 'name': 'Ambulanta Kampus', 'name:sr': 'Амбуланта Кампус', 'opening_hours': 'Mo-Su 07:00-20:00', 'operator': 'JZU Dom zdravlja u Banjoj Luci', 'operator:type': 'public', 'phone': '+387 51 328 520', 'phone_1': '+387 51 328 521'}}"
"{'type': 'node', 'id': 10155536661, 'lat': 44.7766381, 'lon': 17.1779053, 'tags': {'addr:city': 'Banja Luka', 'addr:housenumber': '1a', 'addr:postcode': '78000', 'addr:street': 'Petra Mećave', 'amenity': 'pharmacy', 'dispensing': 'yes', 'email': 'apotekarosicbr12@gmail.com', 'healthcare': 'pharmacy', 'name': 'Apoteka Rosić 12', 'opening_hours': 'Mo-Sa 08:00-20:00; Su 09:00-14:00', 'phone': '+387 51 963 860'}}"
"{'type': 'node', 'id': 10160233357, 'lat': 44.768708, 'lon': 17.1840091, 'tags': {'addr:city': 'Banja Luka', 'addr:housenumber': '35', 'addr:postcode': '78000', 'addr:street': 'Braće Mažar i majke Marije', 'healthcare': 'laboratory', 'name': 'Medicover Diagnostics', 'opening_hours': 'Mo-Fr 07:00-19:00; Sa 08:00-14:00', 'website': 'https://medicover.ba/'}}"
"{'type': 'node', 'id': 10160233372, 'lat': 44.7658572, 'lon': 17.2071973, 'tags': {'addr:city': 'Banja Luka', 'addr:housenumber': '132', 'addr:postcode': '78000', 'addr:street': 'Bulevar vojvode Stepe Stepanovića', 'healthcare': 'laboratory', 'name': 'Medicover Diagnostics', 'opening_hours': 'Mo-Fr 07:00-19:00; Sa 08:00-14:00', 'phone': '+387 51 492 435', 'website': 'https://medicover.ba/'}}"
"{'type': 'node', 'id': 10160233378, 'lat': 44.7670107, 'lon': 17.2090683, 'tags': {'addr:city': 'Banja Luka', 'addr:housenumber': '185a', 'addr:postcode': '78000', 'addr:street': 'Bulevar vojvode Stepe Stepanovića', 'amenity': 'clinic', 'email': 'firenabluka@gmail.com', 'healthcare': 'clinic', 'healthcare:speciality': 'family_medicine;laboratory;emergency;internal', 'name': 'Firena', 'phone': '+387 51 235 444', 'phone_1': '+387 65 265 555', 'website': 'https://ambulantafirena.com/'}}"
"{'type': 'node', 'id': 10183246149, 'lat': 43.8214736, 'lon': 18.2017323, 'tags': {'amenity': 'pharmacy'}}"
"{'type': 'node', 'id': 10296103131, 'lat': 44.7646018, 'lon': 17.2020301, 'tags': {'addr:city': 'Banja Luka', 'addr:housenumber': '82a', 'addr:postcode': '78000', 'addr:street': 'Bulevar vojvode Stepe Stepanovića', 'amenity': 'dentist', 'healthcare': 'dentist', 'name': 'Božurdent', 'opening_hours': 'Mo-Fr 09:00-20:00; Sa 10:00-15:00', 'phone': '+387 66 010 849', 'website': 'http://www.bozurdent.com/'}}"
"{'type': 'node', 'id': 10296103133, 'lat': 44.7645446, 'lon': 17.2009543, 'tags': {'addr:city': 'Banja Luka', 'addr:housenumber': '64', 'addr:postcode': '78000', 'addr:street': 'Bulevar vojvode Stepe Stepanovića', 'amenity': 'pharmacy', 'contact:facebook': 'mojaapoteka.net', 'contact:instagram': 'mojaapoteka', 'dispensing': 'yes', 'email': 'ap.bulevar@mojaapoteka.net', 'healthcare': 'pharmacy', 'name': 'Moja apoteka Bulevar', 'opening_hours': 'Mo-Fr 08:00-21:00; Sa 09:00-20:00; Su 09:00-13:00', 'operator': 'Moja apoteka', 'phone': '+387 51 963 650', 'website': 'https://mojaapoteka.net/'}}"
"{'type': 'node', 'id': 10597544705, 'lat': 43.8148771, 'lon': 18.3118179, 'tags': {'addr:housenumber': '56', 'addr:street': 'Trg 22. aprila', 'amenity': 'clinic', 'name': 'Centar za Fizikalnu terapiju'}}"
"{'type': 'node', 'id': 10606077403, 'lat': 44.7682069, 'lon': 17.1991613, 'tags': {'addr:city': 'Banja Luka', 'addr:housenumber': '6', 'addr:postcode': '78000', 'addr:street': 'Gavre Vučkovića', 'alt_name': 'ProLab Banja Luka', 'contact:facebook': 'Prolab.BanjaLuka', 'contact:instagram': 'prolab_banjaluka', 'email': 'info@prolab.ba', 'healthcare': 'laboratory', 'name': 'ProLab', 'opening_hours': 'Mo-Fr 07:00-21:00; Sa 07:00-17:00', 'phone': '+387 51 266 866', 'phone_1': '+387 51 266 909', 'website': 'https://prolab.ba'}}"
"{'type': 'node', 'id': 10617878012, 'lat': 44.7794679, 'lon': 17.2079915, 'tags': {'addr:city': 'Banja Luka', 'addr:housenumber': '8', 'addr:postcode': '78000', 'addr:street': 'Bulevar srpske vojske', 'amenity': 'pharmacy', 'branch': 'Delta', 'contact:facebook': 'mojaapoteka.net', 'contact:instagram': 'mojaapoteka', 'dispensing': 'yes', 'email': 'ap.delta@mojaapoteka.net', 'healthcare': 'pharmacy', 'level': '0', 'name': 'Moja apoteka', 'opening_hours': 'Mo-Fr 08:00-21:00; Sa-Su 09:00-21:00', 'operator': 'Moja apoteka', 'phone': '+387 51 963 060', 'website': 'https://mojaapoteka.net/', 'wheelchair': 'yes'}}"
"{'type': 'node', 'id': 10702980681, 'lat': 43.828755, 'lon': 18.3116064, 'tags': {'amenity': 'dentist', 'healthcare': 'dentist', 'name': 'dr. Malik Hadžimešić'}}"
"{'type': 'node', 'id': 10736614539, 'lat': 44.7643195, 'lon': 17.1984939, 'tags': {'addr:city': 'Banja Luka', 'addr:housenumber': '61', 'addr:postcode': '78000', 'addr:street': 'Bulevar vojvode Stepe Stepanovića', 'amenity': 'dentist', 'contact:facebook': 'drbiljanovic', 'contact:instagram': 'drbiljanovic', 'healthcare': 'dentist', 'healthcare:speciality': 'dentist', 'name': 'Dr Biljanović', 'opening_hours': 'Mo-Fr 10:00-18:00', 'phone': '+387 66 116 600;+387 51 262 060', 'website': 'https://drbiljanovic.com/'}}"
"{'type': 'node', 'id': 10736614540, 'lat': 44.7646073, 'lon': 17.1994784, 'tags': {'addr:city': 'Banja Luka', 'addr:housenumber': '83', 'addr:postcode': '78000', 'addr:street': 'Bulevar vojvode Stepe Stepanovića', 'amenity': 'doctors', 'healthcare': 'doctor', 'healthcare:speciality': 'dermatology', 'name': 'ZU Kutanova', 'opening_hours': 'Mo-Fr 08:00-16:00', 'phone': '+387 51 430 650', 'website': 'https://zu-kutanova.business.site/?utm_source=gmb&utm_medium=referral'}}"
"{'type': 'node', 'id': 10750305039, 'lat': 44.7769075, 'lon': 17.1977927, 'tags': {'addr:housenumber': '92', 'addr:street': 'Kralja Petra I Karadjordjevica', 'amenity': 'pharmacy', 'healthcare': 'pharmacy', 'name': 'Anapharm apoteka'}}"
"{'type': 'node', 'id': 10776128981, 'lat': 44.7633654, 'lon': 17.2004299, 'tags': {'amenity': 'dentist', 'healthcare': 'dentist', 'name': 'Dr Čavić'}}"
"{'type': 'node', 'id': 10881655049, 'lat': 44.2825784, 'lon': 17.0875582, 'tags': {'amenity': 'pharmacy', 'name': 'Crvena apoteka'}}"
"{'type': 'node', 'id': 10886001978, 'lat': 44.3389645, 'lon': 17.2690841, 'tags': {'amenity': 'pharmacy'}}"
"{'type': 'node', 'id': 10893215119, 'lat': 44.1442985, 'lon': 17.3958374, 'tags': {'amenity': 'pharmacy'}}"
"{'type': 'node', 'id': 10895579032, 'lat': 44.2268312, 'lon': 17.6604815, 'tags': {'amenity': 'pharmacy', 'check_date': '2024-07-18', 'name': 'Apoteka Travnik', 'opening_hours': 'Mo-Su 00:00-24:00', 'wheelchair': 'no'}}"
"{'type': 'node', 'id': 10898720448, 'lat': 44.0540126, 'lon': 17.4361037, 'tags': {'amenity': 'pharmacy', 'healthcare': 'pharmacy', 'name': 'Apoteka Al Hana'}}"
"{'type': 'node', 'id': 10905242308, 'lat': 44.7801858, 'lon': 17.1936914, 'tags': {'addr:city': 'Banja Luka', 'addr:housenumber': '11', 'addr:postcode': '78000', 'addr:street': 'Stevana Mokranjca', 'amenity': 'pharmacy', 'name': 'Pharmavita', 'opening_hours': 'Mo-Fr 08:30-20:30; Sa 08:00-20:00; Su 08:00-13:00', 'phone': '+387 51 315 042'}}"
"{'type': 'node', 'id': 10944005461, 'lat': 44.8690581, 'lon': 17.6659128, 'tags': {'amenity': 'clinic', 'healthcare': 'clinic', 'name': 'Fizijatrijska ambulanta'}}"
"{'type': 'node', 'id': 10944005462, 'lat': 44.8690958, 'lon': 17.6663534, 'tags': {'amenity': 'clinic', 'healthcare': 'clinic', 'name': 'Centar za mentalno zdravlje'}}"
"{'type': 'node', 'id': 10944005463, 'lat': 44.8692638, 'lon': 17.6657005, 'tags': {'amenity': 'clinic', 'healthcare': 'clinic', 'name': 'Pedijatrijska ambulanta'}}"
"{'type': 'node', 'id': 10944005464, 'lat': 44.8687022, 'lon': 17.6667715, 'tags': {'amenity': 'dentist', 'healthcare': 'dentist', 'name': 'Stomatiloška ordinacija'}}"
"{'type': 'node', 'id': 10944005465, 'lat': 44.8694929, 'lon': 17.6669361, 'tags': {'amenity': 'clinic', 'healthcare': 'clinic', 'name': 'Oftomološka ordinacija'}}"
"{'type': 'node', 'id': 10947831306, 'lat': 44.7638296, 'lon': 17.1981951, 'tags': {'addr:postcode': '78000', 'addr:street': 'Jasenovačkih logoraša', 'amenity': 'clinic', 'contact:instagram': 'ginea.bl', 'name': 'Ginea', 'opening_hours': 'Su-Th 08:00-20:00; Fr 08:00-13:00', 'phone': '+387 65 033 777'}}"
"{'type': 'node', 'id': 11039486554, 'lat': 44.7719714, 'lon': 17.1862875, 'tags': {'addr:city': 'Banja Luka', 'addr:housenumber': '23', 'addr:postcode': '78000', 'addr:street': 'Milana Tepića', 'amenity': 'pharmacy', 'contact:instagram': 'apoteke_b_pharm', 'dispensing': 'yes', 'healthcare': 'pharmacy', 'name': 'B Pharm 73', 'opening_hours': 'Mo-Fr 08:00-19:00; Sa 08:00-18:00', 'operator': 'Apoteke B Pharm', 'phone': '+387 51 224 310', 'website': 'https://bpharm.rs/', 'wheelchair': 'yes'}}"
"{'type': 'node', 'id': 11039486555, 'lat': 44.7771096, 'lon': 17.1855615, 'tags': {'addr:city': 'Banja Luka', 'addr:housenumber': '25', 'addr:postcode': '78000', 'addr:street': 'Jovana Dučića', 'amenity': 'pharmacy', 'contact:instagram': 'apoteke_b_pharm', 'dispensing': 'yes', 'healthcare': 'pharmacy', 'name': 'B Pharm 08', 'opening_hours': 'Mo-Fr 08:00-21:00; Sa 09:00-21:00; Su 09:00-15:30', 'operator': 'Apoteke B Pharm', 'phone': '+387 51 306 909', 'website': 'https://bpharm.rs/'}}"
"{'type': 'node', 'id': 11049504238, 'lat': 44.7747947, 'lon': 17.2050039, 'tags': {'addr:city': 'Banja Luka', 'addr:postcode': '78000', 'addr:street': 'Akademika Jovana Surutke', 'amenity': 'pharmacy', 'contact:facebook': 'mojaapoteka.net', 'contact:instagram': 'mojaapoteka', 'dispensing': 'yes', 'email': 'ap.borik2@mojaapoteka.net', 'healthcare': 'pharmacy', 'name': 'Moja apoteka Borik 2', 'opening_hours': 'Mo-Fr 07:00-20:30; Sa 08:00-20:30', 'operator': 'Moja apoteka', 'phone': '+387 51 965 262', 'website': 'https://mojaapoteka.net/'}}"
"{'type': 'node', 'id': 11049504239, 'lat': 44.7751646, 'lon': 17.2049185, 'tags': {'addr:city': 'Banja Luka', 'addr:postcode': '78000', 'addr:street': 'Akademika Jovana Surutke', 'amenity': 'pharmacy', 'dispensing': 'yes', 'healthcare': 'pharmacy', 'name': 'Viola', 'opening_hours': 'Mo-Fr 07:30-21:00; Sa 08:00-20:00', 'phone': '+387 51 259 626'}}"
"{'type': 'node', 'id': 11049512577, 'lat': 44.7747661, 'lon': 17.2001402, 'tags': {'amenity': 'pharmacy', 'dispensing': 'yes', 'healthcare': 'pharmacy', 'name': 'Vrbas', 'opening_hours': 'Mo-Fr 07:30-21:00; Sa 08:00-16:30', 'operator': 'JZU Apoteka Gradiška'}}"
"{'type': 'node', 'id': 11079615205, 'lat': 44.7723635, 'lon': 17.1993165, 'tags': {'addr:housenumber': '25', 'addr:postcode': '78000', 'addr:street': 'Gundulićeva', 'contact:facebook': 'alfalab.laboratorije', 'contact:instagram': 'alfalab.biomedica.laboratorije', 'healthcare': 'laboratory', 'name': 'AlfaLab Borik', 'opening_hours': 'Mo-Fr 07:00-19:30; Sa 07:30-15:00', 'phone': '+387 51 265 460', 'website': 'https://alfalabbl.com/', 'wheelchair': 'no'}}"
"{'type': 'node', 'id': 11079620805, 'lat': 44.7832988, 'lon': 17.202831, 'tags': {'addr:housenumber': '26c', 'addr:postcode': '78000', 'addr:street': 'Dr Mladena Stojanovića', 'contact:facebook': 'alfalab.laboratorije', 'healthcare': 'laboratory', 'name': 'AlfaLab Malta', 'opening_hours': 'Mo-Fr 07:00-20:00; Sa 07:30-15:00; Su 08:00-14:00', 'phone': '+387 51 813 116', 'website': 'https://alfalabbl.com/'}}"
"{'type': 'node', 'id': 11079625605, 'lat': 44.7827586, 'lon': 17.2022121, 'tags': {'addr:postcode': '78000', 'addr:street': 'Dr Mladena Stojanovića', 'amenity': 'clinic', 'name': 'Dr Grubor', 'phone': '+387 51 328 800'}}"
"{'type': 'node', 'id': 11090531705, 'lat': 44.7647183, 'lon': 17.2023952, 'tags': {'addr:city': 'Banja Luka', 'addr:housenumber': '88', 'addr:postcode': '78000', 'addr:street': 'Bulevar vojvode Stepe Stepanovića', 'amenity': 'pharmacy', 'name': 'Divna', 'opening_hours': 'Mo-Fr 08:00-20:00; Sa 08:00-16:00; Su 09:00-14:00', 'phone': '+387 51 438 530'}}"
"{'type': 'node', 'id': 11090538805, 'lat': 44.7852889, 'lon': 17.1991239, 'tags': {'addr:city': 'Banja Luka', 'addr:postcode': '78000', 'addr:street': 'Kralja Petra II', 'amenity': 'pharmacy', 'contact:facebook': 'apotekaanapharm', 'contact:instagram': 'apoteka_anapharm', 'healthcare': 'pharmacy', 'name': 'Anapharm', 'opening_hours': 'Mo-Sa 08:00-20:00', 'phone': '+387 51 303 200', 'website': 'https://apotekaweb.com/', 'wheelchair': 'limited'}}"
"{'type': 'node', 'id': 11101863387, 'lat': 44.764665, 'lon': 17.1807975, 'tags': {'addr:city': 'Banja Luka', 'addr:housenumber': '33', 'addr:postcode': '78000', 'addr:street': 'Duška Koščice', 'amenity': 'clinic', 'email': 'primamedicabl@gmail.com', 'healthcare': 'clinic', 'name': 'Prima Medica', 'opening_hours': 'Mo-Fr 08:00-20:00; Sa 08:00-14:00', 'phone': '+387 66 788 000', 'phone_1': '+387 51 265 000', 'website': 'https://primamedicabl.com/'}}"
"{'type': 'node', 'id': 11159709589, 'lat': 44.3411767, 'lon': 17.2634587, 'tags': {'amenity': 'pharmacy'}}"
"{'type': 'node', 'id': 11165443105, 'lat': 44.785912, 'lon': 17.199021, 'tags': {'addr:city': 'Banja Luka', 'addr:housenumber': '26', 'addr:postcode': '78000', 'addr:street': 'Trive Amelice', 'amenity': 'clinic', 'contact:instagram': 'dom.zdravlja.bl', 'healthcare': 'clinic', 'healthcare:speciality': 'general', 'name': 'Ambulanta porodične medicine Rosulje', 'name:sr': 'Амбуланта породичне медицине Росуље', 'opening_hours': 'Mo-Fr 07:00-20:30', 'operator': 'JZU Dom zdravlja u Banjoj Luci', 'operator:type': 'public', 'phone': '+387 51 313 594', 'wheelchair': 'yes'}}"
"{'type': 'node', 'id': 11169616237, 'lat': 44.781841, 'lon': 17.17672, 'tags': {'addr:postcode': '78000', 'addr:street': 'Dr Jovana Raškovića', 'amenity': 'pharmacy', 'healthcare': 'pharmacy', 'name': 'Melem', 'phone': '+387 51 219 429'}}"
"{'type': 'node', 'id': 11172078243, 'lat': 44.7627005, 'lon': 17.2012377, 'tags': {'addr:city': 'Banja Luka', 'addr:housenumber': '25', 'addr:postcode': '78000', 'addr:street': 'Majke Jugovića', 'contact:facebook': 'alfalab.laboratorije', 'contact:instagram': 'alfalab.biomedica.laboratorije', 'healthcare': 'laboratory', 'name': 'AlfaLab', 'opening_hours': 'Mo-Fr 07:00-20:00; Sa 07:30-15:00', 'operator': 'AlfaLab', 'phone': '+387 51 923 100', 'website': 'https://alfalabbl.com/'}}"
"{'type': 'node', 'id': 11204540545, 'lat': 44.7754809, 'lon': 17.184553, 'tags': {'amenity': 'clinic', 'healthcare': 'clinic', 'healthcare:speciality': 'diagnostic_radiology', 'name': 'Delta dijagnostika'}}"
"{'type': 'node', 'id': 11210983222, 'lat': 44.8336717, 'lon': 18.1059415, 'tags': {'amenity': 'pharmacy', 'healthcare': 'pharmacy', 'name': 'Apoteka Osječani', 'operator': 'Apoteka Osječani', 'phone': '+38753284719'}}"
"{'type': 'node', 'id': 11212176579, 'lat': 44.7800791, 'lon': 17.1948199, 'tags': {'addr:city': 'Banja Luka', 'addr:postcode': '78000', 'addr:street': 'Dragiše Vasića', 'amenity': 'clinic', 'contact:instagram': 'dom.zdravlja.bl', 'healthcare': 'clinic', 'healthcare:speciality': 'vaccination', 'name': 'Centar za vakcinaciju', 'name:sr': 'Центар за вакцинацију', 'operator': 'JZU Dom zdravlja u Banjoj Luci', 'operator:type': 'public'}}"
"{'type': 'node', 'id': 11225350637, 'lat': 44.3407613, 'lon': 17.2720715, 'tags': {'amenity': 'pharmacy'}}"
"{'type': 'node', 'id': 11229517938, 'lat': 44.7654402, 'lon': 17.211886, 'tags': {'amenity': 'pharmacy', 'healthcare': 'pharmacy', 'name': 'Divna'}}"
"{'type': 'node', 'id': 11230043437, 'lat': 44.765238, 'lon': 17.2049155, 'tags': {'addr:city': 'Banja Luka', 'addr:housenumber': '114', 'addr:postcode': '78000', 'addr:street': 'Bulevar vojvode Stepe Stepanovića', 'amenity': 'clinic', 'name': 'Be Well', 'opening_hours': 'Mo-Fr 07:00-20:00; Sa 07:00-12:00', 'phone': '+387 51 965 256', 'website': 'https://klinikabewell.com/'}}"
"{'type': 'node', 'id': 11249372137, 'lat': 44.7797152, 'lon': 17.1878276, 'tags': {'addr:housenumber': '39e', 'addr:postcode': '78000', 'addr:street': 'Slobodana Jovanovića', 'amenity': 'pharmacy', 'name': 'Novafarm'}}"
"{'type': 'node', 'id': 11267823148, 'lat': 44.7631592, 'lon': 17.2023035, 'tags': {'amenity': 'dentist', 'healthcare': 'dentist', 'name': 'Cvijetić-Đurđević'}}"
"{'type': 'node', 'id': 11282248369, 'lat': 44.775006, 'lon': 17.2046354, 'tags': {'addr:postcode': '78000', 'amenity': 'clinic', 'email': 'info@preventivamedical.com', 'name': 'Preventiva medical', 'opening_hours': 'Mo-Fr 07:00-19:00; Sa 08:00-12:00', 'phone': '+387 51 257 150', 'website': 'https://klinika.preventivamedical.com/'}}"
"{'type': 'node', 'id': 11282357370, 'lat': 44.7647547, 'lon': 17.2115643, 'tags': {'addr:postcode': '78000', 'addr:street': 'Dr Vojislava Đede Kecmanovića', 'amenity': 'pharmacy', 'name': 'Apoteka Plus 6'}}"
"{'type': 'node', 'id': 11300955645, 'lat': 44.785838, 'lon': 17.2049503, 'tags': {'addr:city': 'Banja Luka', 'addr:housenumber': '121a', 'addr:postcode': '78000', 'addr:street': 'Dr Mladena Stojanovića', 'amenity': 'doctors', 'email': 'info@medicolaser.info', 'healthcare': 'doctor', 'healthcare:speciality': 'ophthalmology', 'name': 'Medico Laser', 'opening_hours': 'Mo-Fr 09:00-19:00; Sa 10:00-13:00; PH,Su off', 'phone': '+387 51 318 600', 'website': 'https://www.medicolaser.com/', 'wheelchair': 'yes'}}"
"{'type': 'node', 'id': 11311402669, 'lat': 44.7679419, 'lon': 17.1824088, 'tags': {'addr:city': 'Banja Luka', 'addr:housenumber': '36', 'addr:postcode': '78000', 'addr:street': 'Simeuna Đaka', 'amenity': 'dentist', 'healthcare': 'dentist', 'healthcare:speciality': 'dentist', 'name': 'BriliDent', 'phone': '+387 65 005 858'}}"
"{'type': 'node', 'id': 11315861891, 'lat': 43.8226528, 'lon': 18.2047694, 'tags': {'addr:city': 'Hadžići', 'addr:housenumber': '84', 'addr:postcode': '71240', 'addr:street': 'Hadželi', 'amenity': 'pharmacy', 'dispensing': 'yes', 'healthcare': 'pharmacy', 'name': 'Apoteka Hadžići', 'opening_hours': '24/7'}}"
"{'type': 'node', 'id': 11341845069, 'lat': 44.7778081, 'lon': 17.1950818, 'tags': {'addr:housenumber': '4', 'addr:postcode': '78000', 'addr:street': 'Pave Radana', 'amenity': 'pharmacy', 'name': 'Expera Pharmacy', 'website': 'https://expera.ba/'}}"
"{'type': 'node', 'id': 11349063570, 'lat': 44.797595, 'lon': 17.2077506, 'tags': {'addr:city': 'Banja Luka', 'addr:housenumber': '28', 'addr:postcode': '78000', 'addr:street': 'Knjaza Miloša', 'healthcare': 'laboratory', 'name': 'Medicover Diagnostics', 'opening_hours': 'Mo-Fr 07:00-19:00; Sa 08:00-14:00', 'phone': '+387 51 498 155', 'website': 'https://medicover.ba/'}}"
"{'type': 'node', 'id': 11365168266, 'lat': 44.7749727, 'lon': 17.2041934, 'tags': {'addr:city': 'Banja Luka', 'addr:housenumber': '4', 'addr:postcode': '78000', 'addr:street': 'Branka Ćopića', 'amenity': 'dentist', 'healthcare': 'dentist', 'healthcare:speciality': 'orthodontics', 'name': 'Ortho Smile'}}"
"{'type': 'node', 'id': 11386392986, 'lat': 44.4325222, 'lon': 18.046516, 'tags': {'amenity': 'pharmacy', 'drive_through': 'no', 'healthcare': 'pharmacy', 'name': 'Gradska Ljekarna - Ispostava'}}"
"{'type': 'node', 'id': 11417319169, 'lat': 44.7771452, 'lon': 17.1901497, 'tags': {'addr:city': 'Banja Luka', 'addr:housenumber': '68', 'addr:postcode': '78000', 'addr:street': 'Jovana Dučića', 'amenity': 'clinic', 'email': 'info@medico-s.com', 'name': 'Medico-S', 'opening_hours': 'Mo-Fr 08:00-21:00; Sa 08:00-14:00', 'phone': '+387 51 232 100', 'website': 'https://www.medico-s.com/sh/?gclid=Cj0KCQiA7OqrBhD9ARIsAK3UXh37yIDKyUJKaMOWrydO-52FZlMJYPw9nnN78Y66d_fBKVBcjcmz854aAquyEALw_wcB'}}"
"{'type': 'node', 'id': 11417337669, 'lat': 44.777054, 'lon': 17.190066, 'tags': {'addr:city': 'Banja Luka', 'addr:housenumber': '66', 'addr:postcode': '78000', 'addr:street': 'Jovana Dučića', 'healthcare': 'laboratory', 'name': 'Medicover Diagnostics', 'opening_hours': 'Mo-Fr 07:00-19:00; Sa 08:00-14:00', 'phone': '+387 51 929 000', 'website': 'https://medicover.ba/'}}"
"{'type': 'node', 'id': 11420874870, 'lat': 44.7789076, 'lon': 17.1866888, 'tags': {'addr:city': 'Banja Luka', 'addr:housenumber': '27', 'addr:postcode': '78000', 'addr:street': 'Petra Preradovića', 'amenity': 'clinic', 'email': 'specijalisticki-centar@9doktora.com', 'healthcare': 'clinic', 'name': 'Devet doktora', 'opening_hours': 'Mo-Fr 09:00-20:00; Sa 09:00-14:00', 'phone': '+387 51 313 555', 'website': 'https://9doktora.com/'}}"
"{'type': 'node', 'id': 11432286569, 'lat': 44.7792195, 'lon': 17.1913136, 'tags': {'addr:city': 'Banja Luka', 'addr:housenumber': '57', 'addr:postcode': '78000', 'addr:street': 'Pave Radana', 'amenity': 'clinic', 'contact:facebook': 'deamedica', 'contact:instagram': 'deamedica_', 'email': 'info@deamedica.ba', 'healthcare': 'clinic', 'name': 'Deamedica', 'opening_hours': 'Mo-Fr 08:00-20:00; Sa 08:00-15:00', 'phone': '+387 51 309 222', 'website': 'https://deamedica.ba'}}"
"{'type': 'node', 'id': 11447421275, 'lat': 44.7735215, 'lon': 17.1832268, 'tags': {'addr:city': 'Banja Luka', 'addr:housenumber': '6', 'addr:postcode': '78000', 'addr:street': 'Sime Matavulja', 'amenity': 'doctors', 'healthcare': 'doctor', 'healthcare:speciality': 'dermatology', 'name': 'SKIN dr Mandić', 'phone': '+387 65 093 855'}}"
"{'type': 'node', 'id': 11452271677, 'lat': 44.8039184, 'lon': 17.2084381, 'tags': {'addr:city': 'Banja Luka', 'addr:housenumber': '81', 'addr:postcode': '78000', 'addr:street': 'Knjaza Miloša', 'amenity': 'clinic', 'contact:facebook': '100089228528018', 'contact:instagram': 'medical__group', 'email': 'info@medicalgroup.ba', 'healthcare': 'clinic', 'name': 'MedicalGroup Bolnica', 'opening_hours': 'Mo-Fr 08:00-20:00; Sa 08:00-12:00; PH,Su off', 'phone': '+387 51 818 818', 'survey:date': '2023-12-25', 'website': 'https://medicalgroup.ba/sr', 'wheelchair': 'yes'}}"
"{'type': 'node', 'id': 11455669256, 'lat': 44.2259641, 'lon': 17.6529474, 'tags': {'amenity': 'dentist', 'brand': 'Dentix', 'brand:wikidata': 'Q30505320', 'healthcare': 'dentist', 'name': 'Dentix', 'opening_hours': 'Mo-Fr 09:00-17:00', 'wheelchair': 'no'}}"
"{'type': 'node', 'id': 11508334553, 'lat': 44.7846548, 'lon': 17.178857, 'tags': {'addr:city': 'Banja Luka', 'addr:postcode': '78000', 'addr:street': 'Dvanaest beba', 'amenity': 'clinic', 'healthcare': 'clinic', 'name': 'Urgentni centar UKC RS', 'name:sr': 'Ургентни центар УКЦ РС', 'website': 'https://www.kc-bl.com/Lat/?listing_category=02', 'wheelchair': 'yes'}}"
"{'type': 'node', 'id': 11508334554, 'lat': 44.7835879, 'lon': 17.1780353, 'tags': {'amenity': 'clinic', 'healthcare': 'clinic', 'name': 'Poliklinika UKC RS', 'name:sr': 'Поликлиника УКЦ РС', 'wheelchair': 'yes'}}"
"{'type': 'node', 'id': 11553648151, 'lat': 43.8251547, 'lon': 17.6075012, 'tags': {'addr:city': 'Prozor', 'addr:postcode': '88440', 'addr:street': 'Splitska', 'amenity': 'dentist', 'healthcare': 'dentist', 'name': 'Ordinacija Plecić', 'opening_hours': 'Mo-Su 08:00-17:00', 'payment:cash': 'yes'}}"
"{'type': 'node', 'id': 11564240169, 'lat': 44.7647494, 'lon': 17.2005398, 'tags': {'addr:city': 'Banja Luka', 'addr:housenumber': '89', 'addr:postcode': '78000', 'addr:street': 'Bulevar vojvode Stepe Stepanovića', 'amenity': 'pharmacy', 'name': 'Expera Pharmacy', 'opening_hours': 'Mo-Sa 08:00-20:30; Su 08:00-13:00', 'phone': '+387 51 492 771', 'website': 'https://experapharmacy.com/'}}"
"{'type': 'node', 'id': 11572617414, 'lat': 44.7751168, 'lon': 17.2016551, 'tags': {'addr:city': 'Banja Luka', 'addr:housenumber': '31', 'addr:postcode': '78000', 'addr:street': 'Aleja Svetog Save', 'amenity': 'dentist', 'healthcare': 'dentist', 'healthcare:speciality': 'dentist', 'name': 'Dento Team', 'phone': '+387 65 025 025'}}"
"{'type': 'node', 'id': 11613789390, 'lat': 44.769953, 'lon': 17.1896767, 'tags': {'addr:city': 'Banja Luka', 'addr:housenumber': '2', 'addr:postcode': '78000', 'addr:street': 'Trg Krajine', 'amenity': 'pharmacy', 'contact:instagram': 'mojaapoteka', 'dispensing': 'yes', 'email': 'ap.boska@mojaapoteka.net', 'healthcare': 'pharmacy', 'level': '0', 'name': 'Moja apoteka Boska', 'opening_hours': 'Mo-Fr 07:30-21:00; Sa 08:00-16:00', 'operator': 'Moja apoteka', 'phone': '+387 51 226 990', 'website': 'https://www.mojaapoteka-webshop.net/'}}"
"{'type': 'node', 'id': 11613789391, 'lat': 44.7697102, 'lon': 17.1896213, 'tags': {'addr:city': 'Banja Luka', 'addr:housenumber': '2', 'addr:postcode': '78000', 'addr:street': 'Trg Krajine', 'amenity': 'pharmacy', 'contact:instagram': 'mojaapoteka', 'dispensing': 'yes', 'email': 'ap.boska2@mojaapoteka.net', 'healthcare': 'pharmacy', 'level': '0', 'name': 'Moja apoteka Boska 2', 'opening_hours': 'Mo-Fr 07:30-21:30; Sa 08:00-21:00; Su 08:00-15:00', 'outdoor_seating': 'no', 'phone': '+387 51 213 208', 'website': 'https://www.mojaapoteka-webshop.net'}}"
"{'type': 'node', 'id': 11638160026, 'lat': 44.7802291, 'lon': 17.2045964, 'tags': {'addr:city': 'Banja Luka', 'addr:housenumber': '15e', 'addr:postcode': '78000', 'addr:street': 'Bulevar srpske vojske', 'amenity': 'dentist', 'contact:facebook': '3TDent', 'contact:instagram': '3tdentbl', 'email': '3tdentbl@gmail.com', 'healthcare': 'dentist', 'healthcare:speciality': 'orthodontics;dental_oral_maxillo_facial_surgery;general', 'level': '1', 'name': '3T Dent', 'phone': '+387 65 346 679', 'website': 'https://www.3tdent.com/', 'wheelchair': 'yes'}}"
"{'type': 'node', 'id': 11646357464, 'lat': 44.7794057, 'lon': 17.1993705, 'tags': {'addr:city': 'Banja Luka', 'addr:housenumber': '6', 'addr:postcode': '78000', 'addr:street': 'Dr Mladena Stojanovića', 'healthcare': 'laboratory', 'name': 'Medicover Diagnostics Centralna laboratorija', 'opening_hours': 'Mo-Fr 07:00-19:00; Sa 08:00-14:00', 'phone': '+387 51 232 380', 'website': 'https://medicover.ba/'}}"
"{'type': 'node', 'id': 11649767269, 'lat': 44.7661706, 'lon': 17.2064952, 'tags': {'addr:housenumber': '177', 'addr:postcode': '78000', 'addr:street': 'Bulevar vojvode Stepe Stepanovića', 'amenity': 'pharmacy', 'contact:instagram': 'apoteka7.april', 'healthcare': 'pharmacy', 'name': '7. april'}}"
"{'type': 'node', 'id': 11667055415, 'lat': 44.7640319, 'lon': 17.2022602, 'tags': {'addr:city': 'Banja Luka', 'addr:housenumber': '13', 'addr:postcode': '78000', 'addr:street': 'Slobodana Kusturića', 'amenity': 'dentist', 'healthcare': 'dentist', 'name': 'Nena Dent'}}"
"{'type': 'node', 'id': 11668896544, 'lat': 44.7761665, 'lon': 17.1818195, 'tags': {'addr:city': 'Banja Luka', 'addr:housenumber': '9', 'addr:postcode': '78000', 'addr:street': 'Maksima Gorkog', 'amenity': 'clinic', 'email': 'shbdrkostic@gmail.com', 'healthcare': 'clinic', 'name': 'Dr Kostić', 'opening_hours': 'Mo-Th 08:00-18:00; Fr 10:00-16:00', 'phone': '+387 51 491 999', 'website': 'https://klinikakostic.com/'}}"
"{'type': 'node', 'id': 11677761809, 'lat': 44.7590659, 'lon': 17.1985424, 'tags': {'addr:city': 'Banja Luka', 'addr:housenumber': '76', 'addr:postcode': '78000', 'addr:street': 'Stevana Bulajića', 'amenity': 'dentist', 'healthcare': 'dentist', 'healthcare:speciality': 'dentist', 'name': 'Dr Sukara', 'phone': '+387 51 465 757'}}"
"{'type': 'node', 'id': 11731415364, 'lat': 44.7728069, 'lon': 17.19599, 'tags': {'addr:city': 'Banja Luka', 'addr:housenumber': '19a', 'addr:postcode': '78000', 'addr:street': 'Vase Pelagića', 'amenity': 'clinic', 'email': 'info@mrklinika.ba', 'healthcare': 'clinic', 'name': 'MR Klinika', 'name:en': 'MR Clinic', 'opening_hours': 'Mo-Su 09:00-23:00', 'phone': '+387 66 061 000', 'phone_1': '+387 65 621 111', 'website': 'https://mrklinika.ba/'}}"
"{'type': 'node', 'id': 11735352305, 'lat': 44.7661484, 'lon': 17.1856998, 'tags': {'addr:city': 'Banja Luka', 'addr:housenumber': '14', 'addr:postcode': '78000', 'addr:street': 'Kralja Petra I Karađorđevića', 'amenity': 'pharmacy', 'healthcare': 'pharmacy', 'name': 'Novafarm', 'phone': '+387 51 265 050'}}"
"{'type': 'node', 'id': 11745841770, 'lat': 44.7681752, 'lon': 17.201999, 'tags': {'addr:housenumber': '22', 'addr:postcode': '78000', 'addr:street': 'Save Kovačevića', 'amenity': 'clinic', 'contact:facebook': 'blmedic', 'contact:instagram': 'blmedic', 'email': 'info@blmedic.com', 'name': 'BL Medic', 'phone': '+387 51 250 200'}}"
"{'type': 'node', 'id': 11746930969, 'lat': 44.7713063, 'lon': 17.2079986, 'tags': {'addr:city': 'Banja Luka', 'addr:housenumber': '19', 'addr:postcode': '78000', 'addr:street': 'Rade Vranješević', 'amenity': 'pharmacy', 'name': 'Inka', 'name:en': 'Inka 1', 'name:sr': 'Inka 1', 'phone': '+387 51 498 130'}}"
"{'type': 'node', 'id': 11747871670, 'lat': 44.764678, 'lon': 17.2115021, 'tags': {'addr:city': 'Banja Luka', 'addr:housenumber': '2e', 'addr:postcode': '78000', 'addr:street': 'Dr Vojislava Đede Kecmanovića', 'amenity': 'clinic', 'healthcare:speciality': 'psychiatry;neurology', 'name': 'Mediko Art', 'opening_hours': 'Mo-Fr 09:00-17:00; Sa 09:00-13:00', 'phone': '+387 65 209 919', 'website': 'https://medikoart.ba/'}}"
"{'type': 'node', 'id': 11761561769, 'lat': 44.7722848, 'lon': 17.2052665, 'tags': {'addr:housenumber': '49a', 'addr:postcode': '78000', 'amenity': 'clinic', 'email': 'ehoklinika@gmail.com', 'name': 'Eho', 'phone': '+387 51 258 000;+387 65 355 755', 'website': 'https://ehoklinika.com/'}}"
"{'type': 'node', 'id': 11770039994, 'lat': 44.7776582, 'lon': 17.1920129, 'tags': {'addr:city': 'Banja Luka', 'addr:housenumber': '5c', 'addr:postcode': '78000', 'addr:street': 'Svetozara Markovića', 'amenity': 'clinic', 'email': 'info@dr-vulic.com', 'healthcare': 'clinic', 'name': 'Dr Vulić specijalistički centar', 'opening_hours': 'Mo-Fr 08:00-20:00; Sa 08:00-14:00', 'phone': '+387 51 266 690', 'website': 'https://dr-vulic.com/'}}"
"{'type': 'node', 'id': 11772620669, 'lat': 44.7631111, 'lon': 17.1832016, 'tags': {'addr:city': 'Banja Luka', 'addr:housenumber': '91', 'addr:postcode': '78000', 'addr:street': 'Skendera Kulenovića', 'amenity': 'pharmacy', 'healthcare': 'pharmacy', 'name': 'Mentha 4', 'opening_hours': 'Mo-Fr 08:00-21:00; Sa 08:00-19:00; Su 09:00-13:00', 'phone': '+387 51 430 320'}}"
"{'type': 'node', 'id': 11775689069, 'lat': 44.7975611, 'lon': 17.2079912, 'tags': {'addr:city': 'Banja Luka', 'addr:housenumber': '1', 'addr:postcode': '78000', 'addr:street': 'Ilije Garašanina', 'contact:facebook': 'alfalab.laboratorije', 'contact:instagram': 'alfalab.biomedica.laboratorije', 'healthcare': 'laboratory', 'name': 'AlfaLab', 'opening_hours': 'Mo-Fr 07:00-20:00; Sa 07:30-15:00', 'phone': '+387 51 963 385', 'website': 'https://alfalabbl.com/'}}"
"{'type': 'node', 'id': 11778114202, 'lat': 44.7717449, 'lon': 17.2180424, 'tags': {'addr:city': 'Banja Luka', 'addr:housenumber': '11', 'addr:postcode': '78000', 'addr:street': 'Ada', 'amenity': 'pharmacy', 'email': 'c39@crvenaapoteka.com', 'healthcare': 'pharmacy', 'name': 'Crvena apoteka', 'phone': '+387 51 492 056', 'website': 'https://crvenaapoteka.com/'}}"
"{'type': 'node', 'id': 11780300069, 'lat': 44.7812488, 'lon': 17.2074158, 'tags': {'addr:housenumber': '14', 'addr:postcode': '78000', 'addr:street': 'Frana Supila', 'amenity': 'clinic', 'contact:facebook': '100057079074862', 'contact:instagram': 'libra_s_zu', 'email': 'info@zulibras.com', 'name': 'Libra S', 'opening_hours': 'Mo-Fr 08:00-20:00; Sa 08:00-14:00', 'phone': '+387 51 263 832;+387 66 775 145', 'website': 'https://zulibras.com/?fbclid=PAAaYl_f2OTMHFEJ1eJ47k2LXjAEvHoSP7d9waa0L2UrWPQWd6V4S6HzSe_Ws'}}"
