OSM_Data
"{'type': 'node', 'id': 349622138, 'lat': 4.8644558, 'lon': -74.0383028, 'tags': {'addr:country': 'CO', 'amenity': 'hospital', 'name': 'San Juan de Dios'}}"
"{'type': 'node', 'id': 425354060, 'lat': 5.1660277, 'lon': -73.3669495, 'tags': {'amenity': 'hospital', 'comment': 'convertido a OSM usando http://GaleNUx.com', 'divipola': '15172', 'is_in:country': 'Colombia', 'is_in:state': 'Boyacá', 'name': 'Chinavita', 'note': 'POBLACION, CABECERA MUNICIPAL, 6604f506a4ea9402a4ecc45c73819e5a', 'source': 'OCHA Colombia 2010'}}"
"{'type': 'node', 'id': 459402708, 'lat': 5.0814655, 'lon': -73.6085386, 'tags': {'amenity': 'hospital'}}"
"{'type': 'node', 'id': 529914016, 'lat': 5.4931688, 'lon': -73.4832795, 'tags': {'amenity': 'hospital', 'name': 'Hospital'}}"
"{'type': 'node', 'id': 618516033, 'lat': 5.0108999, 'lon': -73.5383793, 'tags': {'amenity': 'hospital', 'name': 'Centro de Saludd e Manta'}}"
"{'type': 'node', 'id': 628389472, 'lat': 5.7247261, 'lon': -72.9239039, 'tags': {'amenity': 'clinic', 'name': 'Clínica El Laguito'}}"
"{'type': 'node', 'id': 629768708, 'lat': 5.6334887, 'lon': -73.5246157, 'tags': {'amenity': 'pharmacy', 'name': 'La Exitosa'}}"
"{'type': 'node', 'id': 860606634, 'lat': 5.8339767, 'lon': -73.0355312, 'tags': {'amenity': 'pharmacy', 'healthcare': 'pharmacy', 'name': 'salesiano'}}"
"{'type': 'node', 'id': 866992574, 'lat': 5.8288621, 'lon': -73.0310303, 'tags': {'amenity': 'dentist', 'healthcare': 'dentist', 'name': 'PRODENTAL'}}"
"{'type': 'node', 'id': 876383527, 'lat': 5.8256902, 'lon': -73.0331094, 'tags': {'amenity': 'pharmacy', 'dispensing': 'yes', 'healthcare': 'pharmacy', 'name': 'Drogas la Rebaja', 'opening_hours': '24/7'}}"
"{'type': 'node', 'id': 876510393, 'lat': 5.8246999, 'lon': -73.0438613, 'tags': {'amenity': 'doctors', 'healthcare': 'doctor', 'name': 'centro de salud del tundama'}}"
"{'type': 'node', 'id': 876510527, 'lat': 5.8319576, 'lon': -73.0369598, 'tags': {'amenity': 'pharmacy', 'healthcare': 'pharmacy'}}"
"{'type': 'node', 'id': 876529228, 'lat': 5.825382, 'lon': -73.0436983, 'tags': {'amenity': 'pharmacy', 'healthcare': 'pharmacy', 'name': 'drogueria colfamiliar'}}"
"{'type': 'node', 'id': 877638566, 'lat': 5.8291861, 'lon': -73.0350698, 'tags': {'amenity': 'dentist', 'healthcare': 'dentist', 'name': 'Clínica Odontológica Especializada'}}"
"{'type': 'node', 'id': 896398238, 'lat': 5.8292195, 'lon': -73.0311275, 'tags': {'amenity': 'dentist', 'healthcare': 'dentist', 'name': 'prodental'}}"
"{'type': 'node', 'id': 896409017, 'lat': 5.8251822, 'lon': -73.0436582, 'tags': {'amenity': 'pharmacy', 'dispensing': 'drogueria', 'healthcare': 'pharmacy', 'name': 'drogueria colfamiliar'}}"
"{'type': 'node', 'id': 901720568, 'lat': 5.81246, 'lon': -73.0305895, 'tags': {'amenity': 'pharmacy'}}"
"{'type': 'node', 'id': 901724517, 'lat': 5.8123932, 'lon': -73.0305553, 'tags': {'amenity': 'pharmacy', 'healthcare': 'pharmacy'}}"
"{'type': 'node', 'id': 903612976, 'lat': 5.8242575, 'lon': -73.0271291, 'tags': {'amenity': 'pharmacy', 'fixme': 'falta nombre', 'healthcare': 'pharmacy'}}"
"{'type': 'node', 'id': 903613465, 'lat': 5.8293837, 'lon': -73.0352388, 'tags': {'amenity': 'dentist', 'healthcare': 'dentist', 'name': 'especializado'}}"
"{'type': 'node', 'id': 903618166, 'lat': 5.8298984, 'lon': -73.0355799, 'tags': {'amenity': 'pharmacy', 'dispensing': 'Drogueria economia', 'healthcare': 'pharmacy'}}"
"{'type': 'node', 'id': 903618221, 'lat': 5.8263134, 'lon': -73.0334296, 'tags': {'amenity': 'pharmacy', 'dispensing': 'La economica', 'healthcare': 'pharmacy'}}"
"{'type': 'node', 'id': 907186394, 'lat': 5.8232974, 'lon': -73.0379774, 'tags': {'amenity': 'pharmacy', 'dispensing': 'Drogueria', 'healthcare': 'pharmacy'}}"
"{'type': 'node', 'id': 907193027, 'lat': 5.8258199, 'lon': -73.0331848, 'tags': {'amenity': 'pharmacy', 'dispensing': 'Drogueria duitama', 'healthcare': 'pharmacy'}}"
"{'type': 'node', 'id': 907193035, 'lat': 5.824775, 'lon': -73.0351558, 'tags': {'amenity': 'dentist', 'healthcare': 'dentist', 'name': 'Emdi'}}"
"{'type': 'node', 'id': 907201281, 'lat': 5.8283833, 'lon': -73.0348667, 'tags': {'amenity': 'pharmacy', 'dispensing': 'Drogueria la rebaja', 'healthcare': 'pharmacy'}}"
"{'type': 'node', 'id': 907320447, 'lat': 5.7807815, 'lon': -73.117405, 'tags': {'amenity': 'pharmacy', 'dispensing': 'Drogas la rebaja'}}"
"{'type': 'node', 'id': 907370344, 'lat': 5.8262602, 'lon': -73.0342557, 'tags': {'amenity': 'pharmacy', 'dispensing': 'drogas la rebaja', 'healthcare': 'pharmacy'}}"
"{'type': 'node', 'id': 907386391, 'lat': 5.8278178, 'lon': -73.0324522, 'tags': {'amenity': 'pharmacy', 'name': 'Drogas La 17', 'shop': 'chemist'}}"
"{'type': 'node', 'id': 907427762, 'lat': 5.8282771, 'lon': -73.0336819, 'tags': {'amenity': 'pharmacy', 'healthcare': 'pharmacy', 'name': 'Drogueria de San Jose'}}"
"{'type': 'node', 'id': 907449442, 'lat': 5.8250145, 'lon': -73.0373635, 'tags': {'amenity': 'doctors', 'healthcare': 'doctor', 'name': 'cruz roja colombiana seccional duitama'}}"
"{'type': 'node', 'id': 914015901, 'lat': 5.7770142, 'lon': -73.1176287, 'tags': {'amenity': 'pharmacy', 'dispensing': 'drogueria panorama'}}"
"{'type': 'node', 'id': 914015917, 'lat': 5.7726318, 'lon': -73.1160599, 'tags': {'amenity': 'pharmacy', 'dispensing': 'drogas la super rebaja'}}"
"{'type': 'node', 'id': 914033104, 'lat': 5.7815393, 'lon': -73.1172684, 'tags': {'amenity': 'pharmacy', 'dispensing': 'Drogueria mas Descuento'}}"
"{'type': 'node', 'id': 914033115, 'lat': 5.7807654, 'lon': -73.1172738, 'tags': {'amenity': 'pharmacy', 'dispensing': 'drogas la rebaja', 'healthcare': 'pharmacy', 'name': 'La Rebaja Plus'}}"
"{'type': 'node', 'id': 914044034, 'lat': 5.7783584, 'lon': -73.1157895, 'tags': {'amenity': 'pharmacy', 'dispensing': 'Drogueria precios especiales'}}"
"{'type': 'node', 'id': 932332469, 'lat': 5.8242556, 'lon': -73.0273631, 'tags': {'amenity': 'pharmacy', 'healthcare': 'pharmacy', 'name': 'Drogueria upe'}}"
"{'type': 'node', 'id': 932337932, 'lat': 5.8261932, 'lon': -73.0304433, 'tags': {'amenity': 'pharmacy', 'name': 'Drogas Superior', 'shop': 'chemist'}}"
"{'type': 'node', 'id': 932376467, 'lat': 5.8268976, 'lon': -73.0307994, 'tags': {'amenity': 'pharmacy', 'dispensing': 'drogas economia', 'healthcare': 'pharmacy'}}"
"{'type': 'node', 'id': 932376469, 'lat': 5.825554, 'lon': -73.0294088, 'tags': {'amenity': 'pharmacy', 'dispensing': 'daniela', 'healthcare': 'pharmacy'}}"
"{'type': 'node', 'id': 932376472, 'lat': 5.8261759, 'lon': -73.0303242, 'tags': {'amenity': 'pharmacy', 'fixme': 'nombre', 'healthcare': 'pharmacy'}}"
"{'type': 'node', 'id': 933102706, 'lat': 5.827369, 'lon': -73.0352057, 'tags': {'amenity': 'pharmacy', 'dispensing': 'Drogas Ortomedica', 'healthcare': 'pharmacy'}}"
"{'type': 'node', 'id': 1055852728, 'lat': 5.758476, 'lon': -73.441458, 'tags': {'addr:city': 'Arcabuco', 'amenity': 'hospital', 'name': 'E.S.E. Centro de Salud Arcabuco'}}"
"{'type': 'node', 'id': 1059086792, 'lat': 5.8778271, 'lon': -73.5719056, 'tags': {'amenity': 'pharmacy', 'name': 'Drogas la rebaja', 'operator': 'Drogas La Rebaja'}}"
"{'type': 'node', 'id': 1068768950, 'lat': 5.5457046, 'lon': -73.3565352, 'tags': {'amenity': 'pharmacy', 'name': 'Drogas La Rebaja'}}"
"{'type': 'node', 'id': 1068773543, 'lat': 5.5302898, 'lon': -73.3616685, 'tags': {'amenity': 'pharmacy', 'name': 'Drogas Tunja'}}"
"{'type': 'node', 'id': 1122695692, 'lat': 5.044489, 'lon': -73.7968789, 'tags': {'amenity': 'pharmacy', 'name': 'Drogas la economia'}}"
"{'type': 'node', 'id': 1122695763, 'lat': 4.9356273, 'lon': -73.8341535, 'tags': {'amenity': 'hospital', 'name': 'Hospital de Guatavita'}}"
"{'type': 'node', 'id': 1193617545, 'lat': 5.9859583, 'lon': -72.7495746, 'tags': {'amenity': 'hospital', 'name': 'ESE Salud Paz de Río'}}"
"{'type': 'node', 'id': 1422648449, 'lat': 4.9921455, 'lon': -73.8703813, 'tags': {'amenity': 'hospital', 'name': 'Centro de Salud'}}"
"{'type': 'node', 'id': 1513008197, 'lat': 5.5404943, 'lon': -73.3612242, 'tags': {'amenity': 'hospital', 'name': 'Hospital San Rafael'}}"
"{'type': 'node', 'id': 1586454142, 'lat': 5.144467, 'lon': -73.6856162, 'tags': {'amenity': 'pharmacy'}}"
"{'type': 'node', 'id': 1806116460, 'lat': 5.6308346, 'lon': -73.5264271, 'tags': {'amenity': 'pharmacy', 'shop': 'convenience;bakery'}}"
"{'type': 'node', 'id': 2078609637, 'lat': 5.5018202, 'lon': -73.3331581, 'tags': {'amenity': 'hospital', 'name': 'Fe y esperaanza'}}"
"{'type': 'node', 'id': 2137981065, 'lat': 5.5547927, 'lon': -73.3506117, 'tags': {'amenity': 'hospital', 'name': 'Clínica Asorsalud SM Ltda'}}"
"{'type': 'node', 'id': 2138036201, 'lat': 5.5385581, 'lon': -73.3594657, 'tags': {'amenity': 'hospital', 'name': 'IPS Colmédica Las Nieves'}}"
"{'type': 'node', 'id': 2138054543, 'lat': 5.5316863, 'lon': -73.3611868, 'tags': {'addr:city': 'Tunja', 'addr:postcode': '150001', 'amenity': 'pharmacy', 'healthcare': 'pharmacy', 'name': 'Drogas La Rebaja', 'operator': 'Privado'}}"
"{'type': 'node', 'id': 2138224938, 'lat': 5.543513, 'lon': -73.3573052, 'tags': {'amenity': 'hospital', 'name': 'Profamilia'}}"
"{'type': 'node', 'id': 2138362601, 'lat': 5.5568944, 'lon': -73.3504343, 'tags': {'amenity': 'hospital', 'name': 'Salud Coop ISP Norte'}}"
"{'type': 'node', 'id': 2138364457, 'lat': 5.5652956, 'lon': -73.3461643, 'tags': {'amenity': 'pharmacy', 'name': 'Drogas la Rebaja'}}"
"{'type': 'node', 'id': 2138379725, 'lat': 5.5549565, 'lon': -73.3504126, 'tags': {'amenity': 'hospital', 'name': 'Centro Cancerologico'}}"
"{'type': 'node', 'id': 2138381343, 'lat': 5.5335986, 'lon': -73.3664761, 'tags': {'amenity': 'pharmacy', 'name': 'Tienda Naturista El Manantial'}}"
"{'type': 'node', 'id': 2232354044, 'lat': 6.0123225, 'lon': -73.6739731, 'tags': {'addr:city': 'Vélez', 'addr:housenumber': '4-39', 'addr:street': 'Calle 8', 'amenity': 'pharmacy', 'dispensing': 'yes', 'healthcare': 'pharmacy', 'name': 'NicoSan'}}"
"{'type': 'node', 'id': 2232355624, 'lat': 6.0134574, 'lon': -73.6751985, 'tags': {'amenity': 'pharmacy', 'dispensing': 'yes', 'name': 'Drogas La Sexta'}}"
"{'type': 'node', 'id': 2232357778, 'lat': 6.0148954, 'lon': -73.6744098, 'tags': {'amenity': 'pharmacy', 'dispensing': 'yes', 'name': 'Rossy'}}"
"{'type': 'node', 'id': 2232358543, 'lat': 6.0135374, 'lon': -73.6724441, 'tags': {'amenity': 'pharmacy', 'dispensing': 'yes', 'name': 'Diana'}}"
"{'type': 'node', 'id': 2232359128, 'lat': 6.0150551, 'lon': -73.6710673, 'tags': {'addr:city': 'Vélez', 'amenity': 'pharmacy', 'dispensing': 'yes', 'healthcare': 'pharmacy', 'name': 'Droguería Vivir'}}"
"{'type': 'node', 'id': 2232360687, 'lat': 6.0132166, 'lon': -73.6729543, 'tags': {'amenity': 'pharmacy', 'name': 'Casalud'}}"
"{'type': 'node', 'id': 2232363007, 'lat': 6.0141096, 'lon': -73.6732266, 'tags': {'addr:city': 'Vélez', 'amenity': 'pharmacy', 'dispensing': 'yes', 'name': 'AZ Economía'}}"
"{'type': 'node', 'id': 2292973373, 'lat': 5.5475001, 'lon': -73.3551123, 'tags': {'amenity': 'pharmacy', 'name': 'Farmacenter'}}"
"{'type': 'node', 'id': 2292973382, 'lat': 5.5529749, 'lon': -73.3515022, 'tags': {'amenity': 'pharmacy', 'name': 'Droguería colsubsidio', 'opening_hours': '24/7'}}"
"{'type': 'node', 'id': 2292973383, 'lat': 5.5531544, 'lon': -73.3514213, 'tags': {'amenity': 'hospital', 'name': 'Clínica Chía nueva eps'}}"
"{'type': 'node', 'id': 2330004093, 'lat': 6.0127671, 'lon': -73.6712154, 'tags': {'addr:city': 'Vélez', 'addr:street': 'Calle 10', 'amenity': 'dentist', 'healthcare': 'dentist', 'name': 'Odontomed'}}"
"{'type': 'node', 'id': 2332114506, 'lat': 6.013807, 'lon': -73.6726533, 'tags': {'addr:city': 'Vélez', 'amenity': 'pharmacy', 'name': 'Promisalud J.M.'}}"
"{'type': 'node', 'id': 2332621604, 'lat': 6.0153932, 'lon': -73.6743798, 'tags': {'addr:city': 'Vélez', 'amenity': 'pharmacy', 'name': 'Vélez Ache'}}"
"{'type': 'node', 'id': 2332622605, 'lat': 6.0143749, 'lon': -73.6749068, 'tags': {'addr:city': 'Vélez', 'addr:street': 'Carrera 6', 'amenity': 'pharmacy', 'cuisine': 'regional', 'dispensing': 'yes', 'healthcare': 'pharmacy', 'name': 'Droguería Maluvi'}}"
"{'type': 'node', 'id': 2332623304, 'lat': 6.0139989, 'lon': -73.6748787, 'tags': {'addr:city': 'Vélez', 'amenity': 'pharmacy', 'name': 'La Sexta DJ', 'opening_hours': 'Mo-Sa 8:00 - 20:00;Su 8:00 - 12:00'}}"
"{'type': 'node', 'id': 2334549495, 'lat': 6.0146845, 'lon': -73.6743426, 'tags': {'addr:city': 'Vélez', 'addr:street': 'Calle 5A', 'amenity': 'pharmacy', 'contact:website': 'www.offimedicas.com', 'healthcare': 'pharmacy', 'name': 'Dispensario Offimedicas'}}"
"{'type': 'node', 'id': 2337428337, 'lat': 6.0139961, 'lon': -73.6715787, 'tags': {'addr:city': 'Vélez', 'addr:street': 'Carrera 3', 'amenity': 'pharmacy', 'healthcare': 'pharmacy', 'name': 'ProMédica', 'note': 'Con Variedades'}}"
"{'type': 'node', 'id': 2347994676, 'lat': 6.0146899, 'lon': -73.6747235, 'tags': {'addr:city': 'Vélez', 'addr:street': 'Carrera 6', 'amenity': 'pharmacy', 'cuisine': 'regional', 'healthcare': 'pharmacy', 'name': 'Droguería Maluvi', 'opening_hours': 'Mo-Su 08:00-21:00'}}"
"{'type': 'node', 'id': 2348007852, 'lat': 6.0130585, 'lon': -73.6721592, 'tags': {'addr:city': 'Vélez', 'addr:street': 'Carrera 3', 'amenity': 'pharmacy', 'healthcare': 'pharmacy', 'name': 'Médica'}}"
"{'type': 'node', 'id': 2348010987, 'lat': 6.0152964, 'lon': -73.6741213, 'tags': {'addr:city': 'Vélez', 'amenity': 'pharmacy', 'healthcare': 'pharmacy', 'name': 'Droguería Promedicas'}}"
"{'type': 'node', 'id': 2367594103, 'lat': 6.0143457, 'lon': -73.6735424, 'tags': {'addr:city': 'Vélez', 'amenity': 'pharmacy', 'name': 'Humani Economía'}}"
"{'type': 'node', 'id': 2375040488, 'lat': 5.5561644, 'lon': -73.3448848, 'tags': {'amenity': 'pharmacy', 'dispensing': 'yes', 'name': 'Farmacia Medimás'}}"
"{'type': 'node', 'id': 2404327143, 'lat': 5.5701404, 'lon': -73.336675, 'tags': {'amenity': 'pharmacy', 'name': 'Drogas La Rebaja'}}"
"{'type': 'node', 'id': 2502408785, 'lat': 5.8599011, 'lon': -72.9182763, 'tags': {'addr:city': 'Floresta', 'amenity': 'hospital', 'emergency': 'yes', 'healthcare': 'hospital', 'name': 'E.S.E. Centro de Salud Floresta'}}"
"{'type': 'node', 'id': 2585049372, 'lat': 5.3247231, 'lon': -73.4913078, 'tags': {'amenity': 'pharmacy', 'name': 'Santos'}}"
"{'type': 'node', 'id': 2597446565, 'lat': 6.0123143, 'lon': -73.6723807, 'tags': {'addr:city': 'Vélez', 'amenity': 'pharmacy', 'dispensing': 'yes', 'healthcare': 'pharmacy', 'name': 'Droguería La economía'}}"
"{'type': 'node', 'id': 2788494776, 'lat': 6.0122486, 'lon': -73.6724151, 'tags': {'addr:city': 'Vélez', 'addr:street': 'Carrera 3', 'healthcare': 'doctor', 'healthcare:speciality': 'radiology', 'name': 'Franco Neira IPS', 'phone': '+57 3159285491'}}"
"{'type': 'node', 'id': 2926186730, 'lat': 6.0134145, 'lon': -73.6736704, 'tags': {'addr:city': 'Vélez', 'addr:street': 'Calle 9', 'amenity': 'dentist', 'contact:phone': '+57 3132906864', 'healthcare': 'dentist', 'healthcare:speciality': 'orthodontics', 'name': 'Ortodoncia Brackets', 'operator': 'Ana Ossa Sanchez'}}"
"{'type': 'node', 'id': 2926187041, 'lat': 6.0129851, 'lon': -73.673274, 'tags': {'addr:city': 'Vélez', 'addr:street': 'Calle 9', 'amenity': 'dentist', 'healthcare': 'dentist', 'name': 'Ortodoncia Dr. Andres'}}"
"{'type': 'node', 'id': 2942102263, 'lat': 6.0137241, 'lon': -73.6725226, 'tags': {'addr:city': 'Vélez', 'addr:housenumber': '3-78', 'addr:street': 'Calle 10', 'healthcare': 'laboratory', 'name': 'Laboratorio Clínico Dr. Prada', 'opening_hours': 'Mo-Fr 07:00-12:00 open ""toma muestras"", 14:00 - 16:00 open ""entrega resultados""; Sa 08:00 - 13:00; Jan 1-12 Off', 'operator': 'H.P.C.', 'sample_collection': 'yes'}}"
"{'type': 'node', 'id': 2942102264, 'lat': 6.0132673, 'lon': -73.6728706, 'tags': {'addr:city': 'Vélez', 'addr:street': 'Carrera 4', 'amenity': 'doctors', 'contact:mobile': '+57 320 8750973', 'contact:phone': '+57 7564320', 'healthcare': 'doctor', 'healthcare:speciality': 'surgery', 'name': 'Casalud Dr. Cala', 'opening_hours': 'Mo-Fr 08:00-13:00,16:30-19:30; Sa 08:00-14:00'}}"
"{'type': 'node', 'id': 3058492847, 'lat': 5.3655373, 'lon': -73.5242739, 'tags': {'amenity': 'hospital', 'name': 'ESE'}}"
"{'type': 'node', 'id': 3072717035, 'lat': 5.9299483, 'lon': -73.6190875, 'tags': {'addr:city': 'Barbosa', 'amenity': 'pharmacy', 'healthcare': 'pharmacy', 'name': 'Drogas La Rebaja', 'opening_hours': 'Mo-Sa 7:30 - 21:30, Su 8:00 - 20:00', 'operator': 'Rebaja No1', 'phone': '+57 7 7486433;+57 7 7484020', 'website': 'http://www.domicilioslarebaja.com/detalles_pvt.php?idpvt=326#ancla'}}"
"{'type': 'node', 'id': 3072719133, 'lat': 5.9301197, 'lon': -73.6171857, 'tags': {'addr:city': 'Barbosa', 'amenity': 'pharmacy', 'healthcare': 'pharmacy', 'name': 'Droguería Alemana'}}"
"{'type': 'node', 'id': 3224881196, 'lat': 5.4534943, 'lon': -73.3624103, 'tags': {'amenity': 'pharmacy'}}"
"{'type': 'node', 'id': 3356925239, 'lat': 5.8265981, 'lon': -73.0317857, 'tags': {'amenity': 'pharmacy', 'healthcare': 'pharmacy', 'name': 'Droguerías Acuña'}}"
"{'type': 'node', 'id': 3356935507, 'lat': 5.8335009, 'lon': -73.0257029, 'tags': {'amenity': 'hospital', 'healthcare': 'hospital', 'name': 'E.S.E. Salud del Tundama'}}"
"{'type': 'node', 'id': 3483520833, 'lat': 5.8185692, 'lon': -73.0350047, 'tags': {'amenity': 'pharmacy', 'healthcare': 'pharmacy', 'name': 'Drogería Superior'}}"
"{'type': 'node', 'id': 3529395844, 'lat': 5.8308703, 'lon': -73.0344267, 'tags': {'amenity': 'hospital', 'check_date': '2024-04-18', 'healthcare': 'hospital', 'name': 'Centro de Salud COLSUBSIDIO'}}"
"{'type': 'node', 'id': 4144718993, 'lat': 6.0122398, 'lon': -73.6725428, 'tags': {'addr:city': 'Vélez', 'addr:street': 'Carrera 3', 'amenity': 'dentist', 'healthcare': 'dentist', 'name': 'DentiMax'}}"
"{'type': 'node', 'id': 4230327093, 'lat': 5.7136657, 'lon': -73.6026143, 'tags': {'amenity': 'pharmacy', 'healthcare': 'pharmacy', 'name': 'drogueria droxi'}}"
"{'type': 'node', 'id': 4450844924, 'lat': 5.5324044, 'lon': -73.3654228, 'tags': {'amenity': 'clinic', 'name': 'Clínica Santa Teresa'}}"
"{'type': 'node', 'id': 4464100422, 'lat': 5.5567033, 'lon': -73.2828366, 'tags': {'amenity': 'hospital', 'name': 'Nuestra Señora del Rosario de Chivata'}}"
"{'type': 'node', 'id': 4464104705, 'lat': 5.7526742, 'lon': -73.5498633, 'tags': {'amenity': 'hospital', 'name': 'San Antonio de Padua'}}"
"{'type': 'node', 'id': 4464107458, 'lat': 5.5120104, 'lon': -73.2449511, 'tags': {'amenity': 'hospital', 'healthcare': 'hospital', 'name': 'Centro de Salud Siachoque'}}"
"{'type': 'node', 'id': 4478007337, 'lat': 5.8965553, 'lon': -73.1931961, 'tags': {'amenity': 'hospital', 'name': 'Centro de Salud Palermo'}}"
"{'type': 'node', 'id': 4519575832, 'lat': 5.9367846, 'lon': -73.6124415, 'tags': {'amenity': 'hospital', 'name': 'Cafe Salud'}}"
"{'type': 'node', 'id': 4519576970, 'lat': 5.1663199, 'lon': -73.3692422, 'tags': {'amenity': 'hospital', 'name': 'Centro de salud'}}"
"{'type': 'node', 'id': 4519609348, 'lat': 5.8767143, 'lon': -73.5732819, 'tags': {'amenity': 'pharmacy'}}"
"{'type': 'node', 'id': 4660148104, 'lat': 5.828021, 'lon': -73.0327337, 'tags': {'amenity': 'dentist', 'healthcare': 'dentist', 'name': 'Sonria'}}"
"{'type': 'node', 'id': 4695694416, 'lat': 5.1004035, 'lon': -73.0514397, 'tags': {'addr:housenumber': '3 - 54', 'addr:street': 'Calle 3', 'amenity': 'hospital'}}"
"{'type': 'node', 'id': 4823770422, 'lat': 5.7217879, 'lon': -72.9273812, 'tags': {'healthcare': 'yes', 'name': 'Colombiana de Salud'}}"
"{'type': 'node', 'id': 4929615257, 'lat': 5.5348351, 'lon': -73.36016, 'tags': {'amenity': 'hospital', 'name': 'Centro de especialidades medicas'}}"
"{'type': 'node', 'id': 4933410548, 'lat': 5.9362087, 'lon': -73.5134179, 'tags': {'amenity': 'hospital', 'name': 'Centro de Salud'}}"
"{'type': 'node', 'id': 4992697704, 'lat': 5.9353224, 'lon': -73.6136894, 'tags': {'amenity': 'hospital', 'emergency': 'yes', 'name': 'Hospital integrado san bernardo'}}"
"{'type': 'node', 'id': 5045270422, 'lat': 5.3048803, 'lon': -73.8138354, 'tags': {'amenity': 'hospital', 'name': 'ESE HOSPITAL EL SALVADOR', 'name:es': 'ESE HOSPITAL EL SALVADOR'}}"
"{'type': 'node', 'id': 5046424923, 'lat': 5.8770082, 'lon': -73.6798081, 'tags': {'amenity': 'pharmacy', 'name': 'Santander', 'name:es': 'Santander'}}"
"{'type': 'node', 'id': 5046439221, 'lat': 5.8767764, 'lon': -73.6797781, 'tags': {'amenity': 'pharmacy', 'dispensing': 'yes', 'healthcare': 'pharmacy', 'name': 'Farmacia 24 H', 'name:es': 'Los comuneros'}}"
"{'type': 'node', 'id': 5046439225, 'lat': 5.8763709, 'lon': -73.6799713, 'tags': {'amenity': 'pharmacy', 'name': 'Superecomifarma', 'name:es': 'Superecomifarma'}}"
"{'type': 'node', 'id': 5046459625, 'lat': 5.8770864, 'lon': -73.6804349, 'tags': {'amenity': 'pharmacy', 'name': 'Drogueria san jorge', 'name:es': 'Drogueria san jorge'}}"
"{'type': 'node', 'id': 5159877113, 'lat': 5.9889266, 'lon': -72.9134961, 'tags': {'amenity': 'dentist', 'healthcare': 'dentist', 'name': 'Consultorio Dental Dr. Boada'}}"
"{'type': 'node', 'id': 5160711768, 'lat': 5.9891291, 'lon': -72.9119201, 'tags': {'amenity': 'pharmacy', 'name': 'FarmaSalud'}}"
"{'type': 'node', 'id': 5168557246, 'lat': 5.828784, 'lon': -73.0330074, 'tags': {'amenity': 'pharmacy', 'dispensing': 'yes', 'healthcare': 'pharmacy', 'name': 'Droguería Alemana 240', 'shop': 'stationery'}}"
"{'type': 'node', 'id': 5182198932, 'lat': 5.9888837, 'lon': -72.9138468, 'tags': {'amenity': 'pharmacy', 'healthcare': 'pharmacy', 'name': 'Naturista'}}"
"{'type': 'node', 'id': 5293032621, 'lat': 4.9661738, 'lon': -73.9133625, 'tags': {'healthcare': 'yes', 'name': 'Puesto de Salud de Tocancipá'}}"
"{'type': 'node', 'id': 5457409197, 'lat': 6.017888, 'lon': -73.5472765, 'tags': {'amenity': 'hospital', 'healthcare': 'hospital', 'name': 'ESE San José de Pare'}}"
"{'type': 'node', 'id': 5516745526, 'lat': 5.0282317, 'lon': -74.003419, 'tags': {'amenity': 'hospital', 'name': 'Hospital Universitario Samaritano'}}"
"{'type': 'node', 'id': 5520547826, 'lat': 5.3346194, 'lon': -74.0236715, 'tags': {'addr:street': 'Calle 2 No 7 - 42', 'amenity': 'pharmacy', 'name': 'Farmacia Convida', 'opening_hours': 'Mo-Fr 08:00-17:00; Sa 08:00-13:00', 'operator': 'Adriana Cifuentes', 'phone': '+57 3123114757'}}"
"{'type': 'node', 'id': 5520547927, 'lat': 5.3344997, 'lon': -74.0237414, 'tags': {'addr:street': 'Calle 2 No 7-26', 'amenity': 'pharmacy', 'name': 'Drogueria Colpharma san cayetano', 'opening_hours': 'Mo-Fr 08:00-13:00, 14:00-20:00; Sa-Su 09:00-19:00', 'operator': 'Maria Fernanda Gordillo', 'phone': '+57 3134898400'}}"
"{'type': 'node', 'id': 5520576322, 'lat': 5.3338389, 'lon': -74.0241823, 'tags': {'addr:street': 'Calle 2 No 6-25', 'amenity': 'pharmacy', 'email': 'cigoluz@gmail.com', 'name': 'Drogueria Santanderes', 'opening_hours': 'Mo-Su 08:00-12:00, 14:00-17:00', 'operator': 'Gustavo Cifuentes', 'phone': '+57 3134445143'}}"
"{'type': 'node', 'id': 5520668321, 'lat': 5.3347633, 'lon': -74.0240679, 'tags': {'amenity': 'hospital', 'name': 'Puesto de salud san cayetano', 'phone': '+57 3202687213'}}"
"{'type': 'node', 'id': 5538674813, 'lat': 5.7548874, 'lon': -73.4375994, 'tags': {'addr:city': 'Arcabuco', 'addr:street': 'Calle 3', 'amenity': 'pharmacy', 'dispensing': 'yes', 'healthcare': 'pharmacy', 'name': 'Tienda Naturista Natural Gaby 2'}}"
"{'type': 'node', 'id': 5541498299, 'lat': 5.3833383, 'lon': -73.3642781, 'tags': {'addr:housenumber': '5-11', 'addr:street': 'Carrera 2', 'amenity': 'hospital', 'emergency': 'yes', 'healthcare': 'hospital', 'healthcare:speciality': 'emergency', 'name': 'centro de salud jenesano', 'operator': 'ESE MUNICIPAL'}}"
"{'type': 'node', 'id': 5560742888, 'lat': 5.0287993, 'lon': -73.999175, 'tags': {'amenity': 'hospital', 'healthcare': 'hospital', 'name': 'Cruz Roja'}}"
"{'type': 'node', 'id': 5636056514, 'lat': 5.6175914, 'lon': -73.8147462, 'tags': {'addr:housenumber': 'N 9-16', 'addr:street': 'calle 19', 'healthcare': 'laboratory', 'name': 'ARTICULOS ORTOPEDICOS'}}"
"{'type': 'node', 'id': 5636056515, 'lat': 5.6176071, 'lon': -73.8147587, 'tags': {'addr:city': 'Chiquinquirá', 'addr:housenumber': 'N 9-12', 'addr:street': 'calle 19', 'amenity': 'clinic', 'healthcare': 'clinic', 'healthcare:speciality': 'orthopaedics', 'name': 'CLINIC SALUD'}}"
"{'type': 'node', 'id': 5638399348, 'lat': 5.99132, 'lon': -73.9130964, 'tags': {'healthcare': 'centre', 'name': 'Puesto de Salud Sabanagrande', 'operator': 'local'}}"
"{'type': 'node', 'id': 5648395482, 'lat': 5.6187954, 'lon': -73.8147469, 'tags': {'addr:city': 'Chiquinquirá', 'addr:housenumber': 'N 20-06', 'addr:street': 'Carrera 10', 'amenity': 'pharmacy', 'dispensing': 'yes', 'healthcare': 'pharmacy', 'name': 'centro naturista  CIENCIA Y SALUD'}}"
"{'type': 'node', 'id': 5649598201, 'lat': 5.8777445, 'lon': -73.5719818, 'tags': {'amenity': 'pharmacy', 'dispensing': 'yes', 'healthcare': 'pharmacy', 'name': 'la economia', 'operator': 'Drogas la economia'}}"
"{'type': 'node', 'id': 5652496429, 'lat': 5.6167632, 'lon': -73.8160231, 'tags': {'addr:city': 'Chiquinquirá', 'addr:housenumber': '9-26', 'addr:street': 'Calle 17', 'amenity': 'clinic', 'healthcare': 'clinic', 'healthcare:speciality': 'clinic', 'name': 'Medimas EPS'}}"
"{'type': 'node', 'id': 5652517313, 'lat': 5.6148345, 'lon': -73.8157613, 'tags': {'addr:city': 'Chiquinquirá', 'addr:housenumber': '6-80', 'addr:postcode': '154640', 'addr:street': 'Calle 15', 'amenity': 'dentist', 'healthcare': 'dentist', 'name': 'Wilson Ortegon', 'opening_hours': '08:00-20:00'}}"
"{'type': 'node', 'id': 5652584058, 'lat': 5.6143563, 'lon': -73.8151408, 'tags': {'addr:city': 'Chiquinquirá', 'addr:housenumber': '15-27', 'addr:postcode': '154640', 'addr:street': 'carrera 6', 'amenity': 'dentist', 'healthcare': 'dentist'}}"
"{'type': 'node', 'id': 5654693788, 'lat': 5.6146706, 'lon': -73.8152613, 'tags': {'addr:housenumber': '7a-15', 'addr:street': 'Calle 16', 'amenity': 'dentist', 'healthcare': 'dentist', 'name': 'orthoestetik', 'opening_hours': '24/7'}}"
"{'type': 'node', 'id': 5686332037, 'lat': 5.610529, 'lon': -73.8260534, 'tags': {'addr:housenumber': '2-30', 'addr:street': 'Carrera 9c', 'healthcare': 'psychotherapist', 'healthcare:speciality': 'general', 'operator': 'Ruth Lucena Herran Suares'}}"
"{'type': 'node', 'id': 5714601712, 'lat': 5.5638415, 'lon': -73.1893604, 'tags': {'amenity': 'doctors', 'healthcare': 'doctor', 'name': 'Puesto de salud'}}"
"{'type': 'node', 'id': 5754535407, 'lat': 5.8260962, 'lon': -73.03607, 'tags': {'amenity': 'pharmacy', 'healthcare': 'pharmacy', 'name': 'Droguería Biomédica', 'phone': '+57 8 7600391'}}"
"{'type': 'node', 'id': 5780465592, 'lat': 5.8767392, 'lon': -73.5733537, 'tags': {'addr:city': 'Moniquirá', 'addr:housenumber': '7-2', 'addr:postcode': '154290', 'addr:street': 'Calle 19', 'amenity': 'pharmacy', 'dispensing': 'yes', 'healthcare': 'pharmacy', 'name': 'Farmacenter'}}"
"{'type': 'node', 'id': 5784936836, 'lat': 5.876961, 'lon': -73.5725344, 'tags': {'addr:city': 'Moniquirá', 'addr:housenumber': '18-50', 'addr:postcode': '154260', 'addr:street': 'Carrera 6', 'amenity': 'dentist', 'healthcare': 'dentist', 'healthcare:speciality': 'general', 'name': 'OdontoMoni'}}"
"{'type': 'node', 'id': 5791293711, 'lat': 5.8761132, 'lon': -73.5728352, 'tags': {'addr:city': 'Moniquirá', 'addr:housenumber': '7-35', 'addr:postcode': '154290', 'addr:street': 'Calle 18', 'amenity': 'dentist', 'healthcare': 'dentist', 'name': 'Andres lopez ortodoncia'}}"
"{'type': 'node', 'id': 5830121088, 'lat': 5.7248258, 'lon': -72.8499301, 'tags': {'amenity': 'hospital', 'healthcare': 'hospital', 'name': 'Hospital Las Mercedes'}}"
"{'type': 'node', 'id': 5830148788, 'lat': 6.0150389, 'lon': -73.6721368, 'tags': {'addr:city': 'Vélez', 'addr:street': 'Carrera 4', 'amenity': 'dentist', 'healthcare': 'dentist', 'name': 'Odontología'}}"
"{'type': 'node', 'id': 5861139192, 'lat': 5.7464294, 'lon': -73.0029149, 'tags': {'addr:housenumber': '3-25', 'addr:street': 'Carrera 8', 'amenity': 'pharmacy', 'name': 'Hospedaje;Fisiosalud', 'phone': '+57 322 7997930', 'tourism': 'hotel'}}"
"{'type': 'node', 'id': 5889391833, 'lat': 5.8775132, 'lon': -73.5689922, 'tags': {'addr:city': 'Moniquirá', 'addr:housenumber': '16-96', 'addr:postcode': '154260', 'addr:street': 'Carrera 3', 'amenity': 'pharmacy', 'description': 'Centro naturista', 'dispensing': 'yes', 'healthcare': 'pharmacy', 'name': 'centro naturista'}}"
"{'type': 'node', 'id': 5902713910, 'lat': 5.5345732, 'lon': -73.356179, 'tags': {'amenity': 'hospital', 'healthcare': 'hospital', 'name': 'Medicina Legal Sede Boyacá'}}"
"{'type': 'node', 'id': 5924868733, 'lat': 5.802322, 'lon': -72.8050511, 'tags': {'addr:city': 'Gámeza', 'addr:housenumber': '4 - 32', 'addr:postcode': '152020', 'addr:street': 'Calle 3', 'amenity': 'pharmacy', 'name': 'Droguería Gámeza'}}"
"{'type': 'node', 'id': 5999316551, 'lat': 5.5862373, 'lon': -73.5433321, 'tags': {'amenity': 'clinic', 'name': 'Centro de Salud'}}"
"{'type': 'node', 'id': 6088827329, 'lat': 5.935218, 'lon': -73.6128423, 'tags': {'addr:city': 'Barbosa', 'amenity': 'dentist', 'healthcare': 'dentist', 'healthcare:speciality': 'dentist;orthodontics', 'name': 'Odontólogo Juan Guillermo Velasco'}}"
"{'type': 'node', 'id': 6101373744, 'lat': 6.0621093, 'lon': -73.6377123, 'tags': {'addr:city': 'Chipatá', 'amenity': 'pharmacy', 'dispensing': 'yes', 'healthcare': 'pharmacy', 'name': 'Droguería El Rosal'}}"
"{'type': 'node', 'id': 6138353054, 'lat': 5.5439915, 'lon': -73.359711, 'tags': {'amenity': 'hospital', 'healthcare': 'hospital', 'name': 'Clínica Los Andes'}}"
"{'type': 'node', 'id': 6149443605, 'lat': 5.0776316, 'lon': -73.3636178, 'tags': {'addr:city': 'garagoa', 'addr:housenumber': 'Calle 6 No. 8 – 206', 'addr:postcode': '152860', 'addr:street': 'calle 6', 'amenity': 'school', 'denomination': 'catholic', 'healthcare': 'hospital', 'name': 'Institucion Educativa tecnico industrial ""Marco Aurelio Bernal"" de Garagoa sede tecnica', 'religion': 'christian'}}"
"{'type': 'node', 'id': 6175441589, 'lat': 5.7539743, 'lon': -72.7977365, 'tags': {'amenity': 'pharmacy'}}"
"{'type': 'node', 'id': 6182102785, 'lat': 5.755065, 'lon': -73.4365954, 'tags': {'amenity': 'doctors', 'healthcare': 'doctor', 'name': 'Consultorio odontológico'}}"
"{'type': 'node', 'id': 6182202886, 'lat': 5.7544172, 'lon': -73.4360206, 'tags': {'amenity': 'pharmacy', 'healthcare': 'pharmacy', 'name': 'Droguería Central Anny'}}"
"{'type': 'node', 'id': 6182203086, 'lat': 5.7541851, 'lon': -73.4362406, 'tags': {'amenity': 'pharmacy', 'healthcare': 'pharmacy', 'name': 'Droguería Familiar Mary', 'opening_hours': '24/7', 'phone': '+57 3142320456'}}"
"{'type': 'node', 'id': 6182287087, 'lat': 5.7536956, 'lon': -73.4363942, 'tags': {'amenity': 'pharmacy', 'healthcare': 'pharmacy', 'name': 'Centro Naturista Casa China - Helenn With'}}"
"{'type': 'node', 'id': 6182287088, 'lat': 5.7537835, 'lon': -73.4363669, 'tags': {'amenity': 'pharmacy', 'healthcare': 'pharmacy', 'name': 'Drogueria PG'}}"
"{'type': 'node', 'id': 6291667287, 'lat': 5.5255176, 'lon': -73.3575025, 'tags': {'healthcare': 'alternative', 'name': 'Drogería'}}"
"{'type': 'node', 'id': 6344082586, 'lat': 5.6985636, 'lon': -73.7661181, 'tags': {'amenity': 'pharmacy', 'name': 'San Vicente Ferrer'}}"
"{'type': 'node', 'id': 6346190586, 'lat': 5.6978619, 'lon': -73.7658476, 'tags': {'amenity': 'pharmacy', 'name': 'Droguería San Pablo'}}"
"{'type': 'node', 'id': 6365790130, 'lat': 5.6214916, 'lon': -73.6212795, 'tags': {'addr:city': 'Sutamarchán', 'addr:postcode': '153860', 'addr:street': 'calle 5', 'amenity': 'dentist', 'healthcare': 'dentist', 'healthcare:speciality': 'dentist', 'name': 'odontologia', 'operator': 'doctora Sandra Lizarazo'}}"
"{'type': 'node', 'id': 6376236013, 'lat': 4.9077053, 'lon': -73.3726188, 'tags': {'amenity': 'restaurant', 'cuisine': 'american', 'healthcare': 'hospital'}}"
"{'type': 'node', 'id': 6388327566, 'lat': 5.9176216, 'lon': -73.7911199, 'tags': {'addr:city': 'Sucre', 'addr:housenumber': '4-04', 'addr:street': 'Carrera 4', 'amenity': 'doctors', 'building:levels': '1', 'healthcare': 'doctor', 'name': 'Coosalud'}}"
"{'type': 'node', 'id': 6403353286, 'lat': 5.8026912, 'lon': -73.972181, 'tags': {'healthcare': 'yes', 'name': 'ESE San José de Florian'}}"
"{'type': 'node', 'id': 6404156985, 'lat': 5.8023627, 'lon': -73.9713437, 'tags': {'amenity': 'pharmacy', 'healthcare': 'pharmacy', 'name': 'Droguería Florian'}}"
"{'type': 'node', 'id': 6412889635, 'lat': 6.1285755, 'lon': -73.5086105, 'tags': {'addr:city': 'san benito', 'addr:housenumber': 'Kilometro 0 vía san Benito – La Aguada', 'amenity': 'hospital', 'emergency': 'no', 'healthcare': 'hospital', 'healthcare:speciality': 'general;medico_rural', 'name': 'ESE san benito'}}"
"{'type': 'node', 'id': 6414470692, 'lat': 6.069446, 'lon': -73.4124286, 'tags': {'amenity': 'pharmacy', 'description': 'DROGUERIA QUE LABORA DE LUNES A DOMINGO EN HORARIO DE 07.00 A 20:00', 'healthcare': 'pharmacy', 'name': 'Droguería Uni-Vacata', 'note': 'ADMINSITRADA POR SU PROPIETARIA', 'opening_hours': 'Mo-Su 07:00-20:00'}}"
"{'type': 'node', 'id': 6414658787, 'lat': 6.0690658, 'lon': -73.4131883, 'tags': {'amenity': 'pharmacy', 'description': 'SERVICIO DE 07:00 A 21:00 DE LUNES A DOMINGO', 'healthcare': 'pharmacy', 'name': 'Droguería Santamaría', 'opening_hours': 'Mo-Su 07:00-21:00'}}"
"{'type': 'node', 'id': 6414711394, 'lat': 6.0707276, 'lon': -73.4092071, 'tags': {'addr:city': 'Vador Real', 'addr:housenumber': '5', 'addr:postcode': '683049', 'addr:street': 'VIA OIBA', 'amenity': 'hospital', 'healthcare': 'hospital', 'name': 'Puesto de Salud Vado Real'}}"
"{'type': 'node', 'id': 6415374565, 'lat': 5.5007891, 'lon': -73.3326528, 'tags': {'amenity': 'pharmacy', 'name': 'Droguería Santuario'}}"
"{'type': 'node', 'id': 6415375431, 'lat': 5.4003132, 'lon': -73.3353337, 'tags': {'amenity': 'pharmacy'}}"
"{'type': 'node', 'id': 6421992375, 'lat': 5.923339, 'lon': -73.9212147, 'tags': {'amenity': 'hospital', 'healthcare': 'hospital'}}"
"{'type': 'node', 'id': 6423559055, 'lat': 6.1602642, 'lon': -73.4491294, 'tags': {'addr:city': 'San Jose de Suaita', 'addr:street': 'Salida a Guadalupe', 'amenity': 'hospital', 'healthcare': 'hospital', 'healthcare:speciality': 'general', 'name': 'Puesto de Salud San José de Suaita'}}"
"{'type': 'node', 'id': 6429385596, 'lat': 5.7301187, 'lon': -73.9336777, 'tags': {'healthcare': 'centre', 'name': 'Centro de Salud Santa Barbara'}}"
"{'type': 'node', 'id': 6439272579, 'lat': 4.9714968, 'lon': -73.3790608, 'tags': {'amenity': 'hospital', 'healthcare': 'hospital'}}"
"{'type': 'node', 'id': 6443467386, 'lat': 5.6394014, 'lon': -73.448978, 'tags': {'amenity': 'hospital', 'name': 'Centro de Salud ESE San Pedro de Iguaque'}}"
"{'type': 'node', 'id': 6450880751, 'lat': 5.0830768, 'lon': -73.3646473, 'tags': {'addr:city': 'Garagoa', 'addr:street': 'Carrera 12', 'amenity': 'dentist', 'healthcare': 'dentist', 'name': 'Laboratorio dental luzmar'}}"
"{'type': 'node', 'id': 6467995487, 'lat': 4.970126, 'lon': -73.3790737, 'tags': {'amenity': 'pharmacy', 'name': 'Droguería Kevin'}}"
"{'type': 'node', 'id': 6470160185, 'lat': 5.6306372, 'lon': -73.5245318, 'tags': {'amenity': 'hospital', 'name': 'Hospital san francisco'}}"
"{'type': 'node', 'id': 6496078984, 'lat': 5.317288, 'lon': -73.5737263, 'tags': {'amenity': 'pharmacy', 'name': 'Drogeria H.R'}}"
"{'type': 'node', 'id': 6632303905, 'lat': 6.0255337, 'lon': -73.5730264, 'tags': {'addr:city': 'Güepsa', 'amenity': 'pharmacy', 'healthcare': 'pharmacy', 'name': 'Drogas Edifer'}}"
"{'type': 'node', 'id': 6824072506, 'lat': 5.9305795, 'lon': -73.6179945, 'tags': {'amenity': 'pharmacy', 'dispensing': 'yes', 'healthcare': 'pharmacy', 'name': 'La Economia'}}"
"{'type': 'node', 'id': 6824072508, 'lat': 5.9307289, 'lon': -73.6178845, 'tags': {'amenity': 'pharmacy', 'dispensing': 'yes', 'healthcare': 'pharmacy', 'name': 'Drogeria Colombia'}}"
"{'type': 'node', 'id': 6824072512, 'lat': 5.9311678, 'lon': -73.6174124, 'tags': {'amenity': 'pharmacy', 'dispensing': 'yes', 'healthcare': 'pharmacy', 'name': 'La Venecia'}}"
"{'type': 'node', 'id': 6824072518, 'lat': 5.9301936, 'lon': -73.618275, 'tags': {'addr:city': 'Barbosa', 'addr:street': 'Calle 9', 'amenity': 'pharmacy', 'dispensing': 'yes', 'healthcare': 'pharmacy', 'name': 'Drogas La Economía'}}"
"{'type': 'node', 'id': 6873708226, 'lat': 5.5687592, 'lon': -73.3399186, 'tags': {'amenity': 'hospital', 'healthcare': 'hospital', 'healthcare:speciality': 'general', 'name': 'veterinaria Animalitos'}}"
"{'type': 'node', 'id': 6886517353, 'lat': 6.0184251, 'lon': -73.5473718, 'tags': {'addr:city': 'San Jose de Pare', 'healthcare': 'rehabilitation', 'name': 'Centro de fe y esperanza mision panamericana'}}"
"{'type': 'node', 'id': 7050481124, 'lat': 5.2818935, 'lon': -73.1695176, 'tags': {'amenity': 'pharmacy', 'name': 'Droguería Andrea', 'opening_hours': '08:00 - 20:00', 'operator': 'Rojas Elizabeth', 'phone': '+57 310 7922516'}}"
"{'type': 'node', 'id': 7393737949, 'lat': 5.8275905, 'lon': -73.036066, 'tags': {'amenity': 'hospital', 'healthcare': 'hospital', 'name': 'Clínica Tundama'}}"
"{'type': 'node', 'id': 7477297468, 'lat': 6.0156327, 'lon': -73.674518, 'tags': {'addr:city': 'Vélez', 'amenity': 'clinic', 'healthcare': 'clinic', 'name': 'Clínica IPS Casalud', 'operator': 'DCU', 'operator:type': 'private'}}"
"{'type': 'node', 'id': 7490718943, 'lat': 5.9266042, 'lon': -73.9196218, 'tags': {'amenity': 'pharmacy', 'healthcare': 'pharmacy', 'name': 'Drogería D&D', 'operator': 'Dana Gabriela Zárate'}}"
"{'type': 'node', 'id': 7600393670, 'lat': 6.1786194, 'lon': -73.5900287, 'tags': {'addr:city': 'La Paz', 'amenity': 'pharmacy', 'dispensing': 'yes', 'healthcare': 'pharmacy', 'name': 'Droguería Santa Helena MG'}}"
"{'type': 'node', 'id': 7600432481, 'lat': 6.1784707, 'lon': -73.5898684, 'tags': {'addr:city': 'La Paz', 'amenity': 'pharmacy', 'dispensing': 'yes', 'healthcare': 'pharmacy', 'name': 'Droguería Monterey'}}"
"{'type': 'node', 'id': 8279192391, 'lat': 6.0152233, 'lon': -73.6735935, 'tags': {'addr:city': 'Vélez', 'addr:street': 'Calle 10', 'amenity': 'pharmacy', 'dispensing': 'yes', 'healthcare': 'pharmacy', 'name': 'Farmacia Hospital', 'opening_hours': '24/7', 'operator': 'Hospital'}}"
"{'type': 'node', 'id': 8395375710, 'lat': 6.0132704, 'lon': -73.6734858, 'tags': {'addr:city': 'Vélez', 'addr:housenumber': '4-42', 'addr:street': 'Calle 9', 'amenity': 'doctors', 'contact:website': 'avanzarfos.com', 'healthcare': 'doctor', 'name': 'Nueva EPS - IPS Fundacion Avanzar Fos', 'operator': 'Fundación Avanzar Fos'}}"
"{'type': 'node', 'id': 8713132371, 'lat': 5.3820449, 'lon': -73.6868831, 'tags': {'addr:postcode': '250610', 'amenity': 'hospital', 'description': 'Delimitación y ubicación ESE Hospital San José', 'emergency': 'yes', 'healthcare': 'hospital', 'healthcare:speciality': 'general;paediatrics;covid19;vaccination', 'name': 'ESE Hospital San José de Guachetá', 'operator': 'Gobernación de Cundinamarca', 'operator:type': 'public'}}"
"{'type': 'node', 'id': 8713441758, 'lat': 5.3855445, 'lon': -73.6857703, 'tags': {'addr:city': 'Guachetá', 'addr:postcode': '250610', 'addr:street': 'Calle 5', 'amenity': 'pharmacy', 'dispensing': 'yes', 'drive_through': 'yes', 'healthcare': 'pharmacy', 'name': 'Droguería San José', 'opening_hours': 'Mo-Su 09:00-21:00', 'payment:cash': 'yes', 'payment:credit_cards': 'yes', 'wheelchair': 'yes'}}"
"{'type': 'node', 'id': 8713552197, 'lat': 5.3479761, 'lon': -73.8987289, 'tags': {'addr:city': 'Carmen de Carupa', 'addr:housenumber': '1E-50', 'addr:street': 'Calle 2', 'amenity': 'hospital', 'emergency': 'yes', 'healthcare': 'hospital', 'name': 'Ese Hospital Habacuc Calderon', 'operator': 'Municipal', 'operator:type': 'public'}}"
"{'type': 'node', 'id': 8713658281, 'lat': 5.3488552, 'lon': -73.9012034, 'tags': {'amenity': 'pharmacy', 'dispensing': 'no', 'healthcare': 'pharmacy', 'name': 'Drogas Carupa JR', 'opening_hours': 'Mo-Su 07:00-20:00'}}"
"{'type': 'node', 'id': 8716015198, 'lat': 5.4054567, 'lon': -73.7660151, 'tags': {'amenity': 'hospital', 'healthcare': 'hospital', 'name': 'Puesto de Salud el Salvador'}}"
"{'type': 'node', 'id': 8716015202, 'lat': 5.4049814, 'lon': -73.7663852, 'tags': {'amenity': 'pharmacy', 'dispensing': 'yes', 'healthcare': 'pharmacy', 'name': 'Drogueria Droxi'}}"
"{'type': 'node', 'id': 8716015203, 'lat': 5.4068827, 'lon': -73.7652265, 'tags': {'amenity': 'pharmacy', 'dispensing': 'yes', 'healthcare': 'pharmacy', 'name': 'Drogueria Droxi'}}"
"{'type': 'node', 'id': 8902471590, 'lat': 5.8335702, 'lon': -73.0260453, 'tags': {'amenity': 'clinic', 'healthcare': 'clinic', 'name': 'ESE Salud del Tundama'}}"
"{'type': 'node', 'id': 8909891417, 'lat': 5.9308631, 'lon': -73.6170581, 'tags': {'addr:city': 'Barbosa', 'addr:housenumber': '8-25', 'addr:street': 'Calle 9', 'amenity': 'doctors', 'contact:email': 'ambientsalud@gmail.com', 'contact:mobile': '+57 3118596855', 'contact:website': 'ambientsalud.com', 'contact:whatsapp': '+57 3203173766', 'healthcare': 'doctor', 'healthcare:speciality': 'occupational', 'name': 'AmbientSalud', 'opening_hours': 'Mo-Fr 07:00-12:00,14:00-17:00; PH off', 'operator': 'Fernando Abril Diaz'}}"
"{'type': 'node', 'id': 8910069209, 'lat': 5.7594446, 'lon': -73.9132766, 'tags': {'addr:city': 'Albania', 'addr:street': 'Calle 3', 'amenity': 'pharmacy', 'dispensing': 'yes', 'healthcare': 'pharmacy', 'name': 'Droguería Miscelanea La Economía'}}"
"{'type': 'node', 'id': 8944615618, 'lat': 5.9298696, 'lon': -73.6199198, 'tags': {'addr:city': 'Barbosa', 'addr:street': 'Carrera 10', 'amenity': 'doctors', 'healthcare': 'doctor', 'healthcare:speciality': 'urology', 'name': 'Unidad de Urología'}}"
"{'type': 'node', 'id': 9342452661, 'lat': 5.8101025, 'lon': -73.0297051, 'tags': {'amenity': 'hospital', 'name': 'Yarmuk Medical Center'}}"
"{'type': 'node', 'id': 9670602116, 'lat': 5.9566349, 'lon': -72.9488213, 'tags': {'amenity': 'pharmacy', 'name': 'Droguería Narvaez'}}"
"{'type': 'node', 'id': 9702004775, 'lat': 5.0957846, 'lon': -73.4431158, 'tags': {'amenity': 'hospital', 'healthcare': 'hospital', 'name': 'E.S.E. La Capilla'}}"
"{'type': 'node', 'id': 9712282991, 'lat': 5.1021796, 'lon': -73.0519071, 'tags': {'amenity': 'pharmacy'}}"
"{'type': 'node', 'id': 9712282993, 'lat': 5.1019939, 'lon': -73.0512272, 'tags': {'amenity': 'pharmacy'}}"
"{'type': 'node', 'id': 9725072939, 'lat': 5.9895389, 'lon': -73.7707774, 'tags': {'addr:city': 'Bolívar', 'addr:street': 'Calle 9', 'amenity': 'pharmacy', 'dispensing': 'yes', 'healthcare': 'pharmacy', 'name': 'Emysalud'}}"
"{'type': 'node', 'id': 9728023856, 'lat': 5.6198684, 'lon': -73.8173325, 'tags': {'addr:housenumber': '18-73', 'addr:street': 'Carrera 13', 'amenity': 'pharmacy', 'name': 'Drogueria Dismed', 'opening_hours': '07:00-22:00'}}"
"{'type': 'node', 'id': 9728023866, 'lat': 5.6165644, 'lon': -73.8163903, 'tags': {'addr:city': 'Chiquinquirá', 'addr:street': 'Carrera 10 16 28', 'amenity': 'pharmacy', 'name': 'drogueria alemana', 'opening_hours': 'Mo-Sa 08:00-20:00'}}"
"{'type': 'node', 'id': 9728023899, 'lat': 5.6237856, 'lon': -73.8095406, 'tags': {'addr:city': 'Chiquinquirá', 'addr:housenumber': '28-37', 'addr:street': 'Carrera 10', 'amenity': 'pharmacy', 'name': 'drogueria macdrogas', 'opening_hours': '08:00-20:00'}}"
"{'type': 'node', 'id': 9728023907, 'lat': 5.6135594, 'lon': -73.8178575, 'tags': {'addr:city': 'Chiquinquirá', 'addr:housenumber': '12-13', 'addr:street': 'Carrera 8', 'amenity': 'hospital', 'healthcare': 'hospital', 'name': 'Mediseasum'}}"
"{'type': 'node', 'id': 9728023908, 'lat': 5.6143752, 'lon': -73.8176446, 'tags': {'addr:housenumber': '8-47', 'addr:street': 'Calle 14', 'healthcare': 'optometrist', 'name': 'Óptica San José', 'shop': 'optician'}}"
"{'type': 'node', 'id': 9728023912, 'lat': 5.6137783, 'lon': -73.8176148, 'tags': {'addr:housenumber': '12-51', 'addr:street': 'Carrera 8', 'amenity': 'hospital', 'healthcare': 'hospital', 'name': 'galenos'}}"
"{'type': 'node', 'id': 9728023915, 'lat': 5.6142868, 'lon': -73.8175873, 'tags': {'addr:housenumber': '8-47', 'addr:street': 'Calle 14', 'amenity': 'dentist', 'healthcare': 'dentist', 'name': 'Laboratorio Dental'}}"
"{'type': 'node', 'id': 9728023923, 'lat': 5.6141013, 'lon': -73.8181626, 'tags': {'addr:city': 'Chiquinquirá', 'addr:housenumber': '12-04', 'addr:street': 'Carrera 9', 'amenity': 'pharmacy', 'name': 'farmacenter'}}"
"{'type': 'node', 'id': 9760286437, 'lat': 5.8761476, 'lon': -73.5747461, 'tags': {'addr:street': 'Calle 19', 'amenity': 'hospital', 'name': 'Hospital San Jose'}}"
"{'type': 'node', 'id': 9764467920, 'lat': 5.9647267, 'lon': -73.6031085, 'tags': {'addr:city': 'Cite', 'addr:street': 'Carrera 3', 'amenity': 'pharmacy', 'dispensing': 'yes', 'healthcare': 'pharmacy', 'name': 'Farmacia Alifarma'}}"
"{'type': 'node', 'id': 9768160255, 'lat': 5.9900149, 'lon': -73.7708529, 'tags': {'addr:city': 'Bolívar', 'addr:street': 'Carrera 4', 'amenity': 'pharmacy', 'dispensing': 'yes', 'healthcare': 'pharmacy', 'name': 'Droguería Comunal'}}"
"{'type': 'node', 'id': 9768162851, 'lat': 5.989917, 'lon': -73.7708566, 'tags': {'addr:city': 'Bolívar', 'addr:street': 'Carrera 4', 'amenity': 'pharmacy', 'dispensing': 'yes', 'healthcare': 'pharmacy', 'name': 'Farmacia Emedicaz'}}"
"{'type': 'node', 'id': 9811193644, 'lat': 5.818046, 'lon': -73.0342587, 'tags': {'healthcare': 'laboratory', 'name': 'Colcan', 'phone': '+57 601 7437777', 'website': 'https://laboratoriocolcan.com/'}}"
"{'type': 'node', 'id': 9828583321, 'lat': 5.9293264, 'lon': -73.6178681, 'tags': {'addr:city': 'Barbosa', 'addr:street': 'Carrera 8', 'amenity': 'pharmacy', 'healthcare': 'pharmacy', 'name': 'Drogueria Central', 'wheelchair': 'limited'}}"
"{'type': 'node', 'id': 9915303817, 'lat': 4.8922762, 'lon': -74.0356121, 'tags': {'amenity': 'clinic', 'name': 'Compensar Cajicá'}}"
"{'type': 'node', 'id': 9935875090, 'lat': 5.8341743, 'lon': -73.0351359, 'tags': {'addr:city': 'Duitama', 'addr:street': 'Avenida Circunvalar', 'amenity': 'pharmacy', 'healthcare': 'pharmacy', 'name': 'Drogueria Salesiano'}}"
"{'type': 'node', 'id': 9935881434, 'lat': 5.8355552, 'lon': -73.0325691, 'tags': {'amenity': 'pharmacy', 'name': 'Droguería San Rafael', 'shop': 'convenience'}}"
"{'type': 'node', 'id': 9951123242, 'lat': 5.8318687, 'lon': -73.0311263, 'tags': {'amenity': 'pharmacy'}}"
"{'type': 'node', 'id': 9951246274, 'lat': 5.8261482, 'lon': -73.0343407, 'tags': {'amenity': 'pharmacy', 'name': 'La Rebaja'}}"
"{'type': 'node', 'id': 9966234691, 'lat': 5.8267386, 'lon': -73.032954, 'tags': {'amenity': 'pharmacy', 'name': 'la economica'}}"
"{'type': 'node', 'id': 9966234692, 'lat': 5.8302843, 'lon': -73.0338564, 'tags': {'amenity': 'pharmacy', 'name': 'Drogeria super'}}"
"{'type': 'node', 'id': 9966275206, 'lat': 5.8273801, 'lon': -73.0335632, 'tags': {'amenity': 'pharmacy', 'name': 'Droguería Alemana'}}"
"{'type': 'node', 'id': 9966276257, 'lat': 5.8271997, 'lon': -73.0338507, 'tags': {'amenity': 'pharmacy', 'name': 'Drogas La Económica'}}"
"{'type': 'node', 'id': 9995235136, 'lat': 5.9275278, 'lon': -73.6250582, 'tags': {'addr:city': 'Barbosa', 'amenity': 'pharmacy', 'dispensing': 'yes', 'healthcare': 'pharmacy', 'name': 'Droguería Acapulco'}}"
"{'type': 'node', 'id': 10025938120, 'lat': 5.1964947, 'lon': -73.1441809, 'tags': {'amenity': 'pharmacy', 'dispensing': 'yes', 'healthcare': 'pharmacy', 'name': 'Droguería Popular'}}"
"{'type': 'node', 'id': 10046210684, 'lat': 5.1971256, 'lon': -73.1437846, 'tags': {'amenity': 'pharmacy', 'dispensing': 'yes', 'healthcare': 'pharmacy', 'name': 'Droguería Pardo'}}"
"{'type': 'node', 'id': 10112776673, 'lat': 5.0226618, 'lon': -74.0031291, 'tags': {'amenity': 'pharmacy', 'branch': 'Zipaquirá Centro', 'brand': 'Cruz Verde', 'brand:wikidata': 'Q5856071', 'healthcare': 'pharmacy', 'name': 'Cruz Verde', 'operator': 'Cruz Verde'}}"
"{'type': 'node', 'id': 10172144216, 'lat': 5.8283943, 'lon': -73.0329617, 'tags': {'amenity': 'pharmacy', 'name': 'Cruz Verde', 'operator': 'Cruz Verde'}}"
"{'type': 'node', 'id': 10175992773, 'lat': 5.8118483, 'lon': -73.030196, 'tags': {'amenity': 'pharmacy', 'name': 'Drogería La Alemana'}}"
"{'type': 'node', 'id': 10184810612, 'lat': 5.7806216, 'lon': -73.117461, 'tags': {'amenity': 'pharmacy', 'name': 'Droguería Más Descuentos'}}"
"{'type': 'node', 'id': 10299500504, 'lat': 5.7461546, 'lon': -73.0032123, 'tags': {'amenity': 'pharmacy', 'name': 'Droguería médica'}}"
"{'type': 'node', 'id': 10642795525, 'lat': 5.9994614, 'lon': -73.6722817, 'tags': {'addr:city': 'Vélez', 'amenity': 'pharmacy', 'healthcare': 'pharmacy', 'name': 'Droguería H.E.'}}"
"{'type': 'node', 'id': 10673389451, 'lat': 6.0146894, 'lon': -73.6748687, 'tags': {'addr:city': 'Vélez', 'addr:street': 'Carrera 6', 'amenity': 'dentist', 'healthcare': 'dentist', 'name': 'Dental Smile'}}"
"{'type': 'node', 'id': 10687266025, 'lat': 6.013254, 'lon': -73.6734594, 'tags': {'addr:city': 'Vélez', 'addr:street': 'Calle 9', 'healthcare': 'laboratory', 'name': 'Bacteriologa Gina Castañeda', 'opening_hours': 'Mo-Fr 6:30-7:30 open ""toma muestra"" || Mo-Fr 7:30-8:30 open ""toma y resultados"" || Mo-Fr 8:30-9:00 open ""entrega resultados""', 'operator': 'G.C.', 'sample_collection': 'yes'}}"
"{'type': 'node', 'id': 10731052765, 'lat': 6.0136231, 'lon': -73.6739631, 'tags': {'addr:city': 'Vélez', 'addr:street': 'Calle 9', 'healthcare': 'laboratory', 'name': 'Laboratorio Clínico VelSalud', 'sample_collection': 'yes'}}"
"{'type': 'node', 'id': 10731150752, 'lat': 6.0147219, 'lon': -73.6749779, 'tags': {'addr:city': 'Vélez', 'addr:street': 'Carrera 6', 'healthcare': 'laboratory', 'name': 'Laboratorio Clínico'}}"
"{'type': 'node', 'id': 10731437425, 'lat': 6.0135759, 'lon': -73.6728871, 'tags': {'addr:city': 'Vélez', 'addr:street': 'Carrera 4', 'amenity': 'pharmacy', 'healthcare': 'pharmacy', 'name': 'Pharmasan'}}"
"{'type': 'node', 'id': 10731483781, 'lat': 6.0138469, 'lon': -73.6737105, 'tags': {'addr:city': 'Vélez', 'addr:street': 'Carrera 5', 'amenity': 'doctors', 'healthcare': 'doctor', 'name': 'Dr. Elkin Quiroga'}}"
"{'type': 'node', 'id': 10731520425, 'lat': 6.0132261, 'lon': -73.6735791, 'tags': {'addr:city': 'Vélez', 'addr:street': 'Calle 9', 'healthcare': 'physiotherapist'}}"
"{'type': 'node', 'id': 10741840469, 'lat': 6.0122556, 'lon': -73.672299, 'tags': {'addr:city': 'Vélez', 'addr:street': 'Calle 9', 'amenity': 'pharmacy', 'healthcare': 'pharmacy', 'name': 'Droguería Economía'}}"
"{'type': 'node', 'id': 10742420451, 'lat': 5.8339275, 'lon': -73.0298233, 'tags': {'amenity': 'pharmacy', 'dispensing': 'yes', 'healthcare': 'pharmacy', 'name': 'Green Farm'}}"
"{'type': 'node', 'id': 10742438322, 'lat': 5.8129827, 'lon': -73.0315596, 'tags': {'amenity': 'pharmacy', 'dispensing': 'yes', 'healthcare': 'pharmacy', 'name': 'Super'}}"
"{'type': 'node', 'id': 10743540290, 'lat': 5.8090898, 'lon': -73.0322769, 'tags': {'amenity': 'pharmacy', 'dispensing': 'yes', 'healthcare': 'pharmacy', 'name': 'Droguería Surdisalud'}}"
"{'type': 'node', 'id': 10743554811, 'lat': 5.8753369, 'lon': -72.9815807, 'tags': {'amenity': 'dentist', 'healthcare': 'dentist', 'healthcare:speciality': 'orthodontics'}}"
"{'type': 'node', 'id': 10743554833, 'lat': 5.8749138, 'lon': -72.9818623, 'tags': {'amenity': 'pharmacy', 'dispensing': 'yes', 'healthcare': 'pharmacy', 'name': 'Droguería Universal'}}"
"{'type': 'node', 'id': 10853339683, 'lat': 5.9313878, 'lon': -73.6167914, 'tags': {'addr:city': 'Barbosa', 'addr:street': 'Calle 10', 'amenity': 'pharmacy', 'healthcare': 'pharmacy', 'name': 'Droguería Dr. Martinez'}}"
"{'type': 'node', 'id': 10853387514, 'lat': 5.9312958, 'lon': -73.6166868, 'tags': {'addr:city': 'Barbosa', 'addr:street': 'Calle 10', 'amenity': 'pharmacy', 'healthcare': 'pharmacy', 'name': 'Droguería Granada'}}"
"{'type': 'node', 'id': 10853401872, 'lat': 5.9313131, 'lon': -73.6175773, 'tags': {'addr:city': 'Barbosa', 'addr:street': 'Carrera 9', 'amenity': 'pharmacy', 'healthcare': 'pharmacy', 'name': 'Droguería Alemana'}}"
"{'type': 'node', 'id': 10925028295, 'lat': 5.9312354, 'lon': -73.6162301, 'tags': {'addr:city': 'Barbosa', 'addr:street': 'Calle 10', 'amenity': 'dentist', 'healthcare': 'dentist', 'healthcare:speciality': 'orthodontics', 'name': 'DentArte'}}"
"{'type': 'node', 'id': 11359548260, 'lat': 5.8331087, 'lon': -73.0300068, 'tags': {'amenity': 'pharmacy'}}"
"{'type': 'node', 'id': 11369985385, 'lat': 5.833767, 'lon': -73.0291425, 'tags': {'amenity': 'clinic'}}"
"{'type': 'node', 'id': 11372605581, 'lat': 5.8251689, 'lon': -73.0385719, 'tags': {'amenity': 'pharmacy'}}"
"{'type': 'node', 'id': 11374404721, 'lat': 5.8342193, 'lon': -73.0411226, 'tags': {'amenity': 'pharmacy'}}"
"{'type': 'node', 'id': 11374409801, 'lat': 5.8265525, 'lon': -73.0335682, 'tags': {'amenity': 'pharmacy', 'level': '1', 'operator': 'La Rebaja'}}"
"{'type': 'node', 'id': 11374514185, 'lat': 5.8153666, 'lon': -73.0263839, 'tags': {'amenity': 'pharmacy', 'healthcare': 'pharmacy', 'name': 'Droguería El Milagro'}}"
"{'type': 'node', 'id': 11406549589, 'lat': 6.0689782, 'lon': -73.4138744, 'tags': {'addr:city': 'Vado Real', 'amenity': 'pharmacy', 'healthcare': 'pharmacy', 'name': 'Droguería Gladyfarma'}}"
"{'type': 'node', 'id': 11413925046, 'lat': 5.8242937, 'lon': -73.0275761, 'tags': {'amenity': 'pharmacy'}}"
"{'type': 'node', 'id': 11413981101, 'lat': 5.8215676, 'lon': -73.0345723, 'tags': {'amenity': 'pharmacy', 'name': 'Droguería Super Descuentos'}}"
"{'type': 'node', 'id': 11417907782, 'lat': 5.8112986, 'lon': -73.0298245, 'tags': {'amenity': 'pharmacy', 'name': 'Droguería Nuevo Milenio'}}"
"{'type': 'node', 'id': 11418088137, 'lat': 5.8100725, 'lon': -73.0633736, 'tags': {'amenity': 'clinic'}}"
"{'type': 'node', 'id': 11418116935, 'lat': 5.8040912, 'lon': -73.0390312, 'tags': {'amenity': 'pharmacy', 'name': 'Droguería Koldescuentos'}}"
"{'type': 'node', 'id': 11418408832, 'lat': 5.829064, 'lon': -73.0343085, 'tags': {'amenity': 'pharmacy', 'name': 'Centro naturista ""El Mana""'}}"
"{'type': 'node', 'id': 11418432560, 'lat': 5.8289353, 'lon': -73.0342206, 'tags': {'amenity': 'pharmacy', 'name': 'Droguerías Colombia Farma'}}"
"{'type': 'node', 'id': 11418607203, 'lat': 5.8282028, 'lon': -73.0347383, 'tags': {'amenity': 'pharmacy', 'name': 'Droguería Pro Económica'}}"
"{'type': 'node', 'id': 11423278046, 'lat': 5.8288546, 'lon': -73.0328963, 'tags': {'amenity': 'pharmacy', 'name': 'Natursalud', 'opening_hours': 'Mo-Fr 08:00-19:00', 'phone': '+57 311 3502457'}}"
"{'type': 'node', 'id': 11438963106, 'lat': 5.7266349, 'lon': -72.8513788, 'tags': {'amenity': 'pharmacy', 'name': 'Farmacia Monguí'}}"
"{'type': 'node', 'id': 11492263674, 'lat': 6.0139778, 'lon': -73.6748887, 'tags': {'addr:city': 'Vélez', 'addr:street': 'Carrera 6', 'amenity': 'dentist', 'healthcare': 'dentist', 'name': 'Odontología Integral', 'operator': 'Cesar Parada'}}"
"{'type': 'node', 'id': 11492917172, 'lat': 5.8784251, 'lon': -73.5710914, 'tags': {'amenity': 'hospital', 'name': 'Hospital Regional de Moniquirá'}}"
"{'type': 'node', 'id': 11500276094, 'lat': 6.062558, 'lon': -73.6367183, 'tags': {'addr:city': 'Chipatá', 'amenity': 'pharmacy', 'healthcare': 'pharmacy', 'name': 'Droguería Anail'}}"
"{'type': 'node', 'id': 11632510149, 'lat': 5.7094879, 'lon': -72.9355479, 'tags': {'addr:city': 'sogamoso', 'addr:street': 'Carrera 14', 'amenity': 'hospital', 'healthcare': 'hospital', 'name': 'clinica valle del sol'}}"
"{'type': 'node', 'id': 11639970901, 'lat': 5.2170755, 'lon': -73.6000027, 'tags': {'healthcare': 'centro_de_vida_sensorial', 'name': 'Centro de Vida Sensorial', 'office': 'therapist'}}"
"{'type': 'node', 'id': 11697579530, 'lat': 5.716178, 'lon': -72.9253846, 'tags': {'healthcare': 'laboratory', 'name': 'Laboratorio Clínico Winlab'}}"
"{'type': 'node', 'id': 11697579531, 'lat': 5.7161933, 'lon': -72.9254175, 'tags': {'amenity': 'pharmacy', 'name': 'Drogueria Alemana'}}"
"{'type': 'node', 'id': 11730832937, 'lat': 6.0111034, 'lon': -73.6719738, 'tags': {'addr:city': 'Vélez', 'addr:housenumber': '8-16', 'addr:street': 'Carrera 2', 'contact:mobile': '3006556285', 'healthcare': 'occupational_therapist', 'healthcare:speciality': 'neurology', 'name': 'IPS Crea'}}"
"{'type': 'node', 'id': 11730853828, 'lat': 6.0121797, 'lon': -73.6702961, 'tags': {'addr:city': 'Vélez', 'addr:street': 'Carrera 1', 'healthcare': 'physiotherapist', 'name': 'Centro de terapia física y respiratoria', 'operator': 'LJMA'}}"
"{'type': 'node', 'id': 11734139920, 'lat': 5.9321466, 'lon': -73.6162152, 'tags': {'addr:city': 'Barbosa', 'addr:street': 'Carrera 9', 'amenity': 'dentist', 'healthcare': 'dentist', 'name': 'Radiografía dental'}}"
"{'type': 'node', 'id': 11824769699, 'lat': 5.929128, 'lon': -73.618169, 'tags': {'addr:city': 'Barbosa', 'addr:street': 'Carrera 8', 'amenity': 'doctors', 'healthcare': 'doctor', 'healthcare:speciality': 'occupational', 'name': 'CRC Centro médico especializado'}}"
"{'type': 'node', 'id': 11824785560, 'lat': 5.9294031, 'lon': -73.6181375, 'tags': {'addr:city': 'Barbosa', 'addr:street': 'Carrera 8', 'amenity': 'doctors', 'healthcare': 'doctor', 'healthcare:speciality': 'occupational', 'name': 'CRC Los Coches La Provincia'}}"
"{'type': 'node', 'id': 11824845692, 'lat': 5.9300754, 'lon': -73.6166777, 'tags': {'amenity': 'pharmacy', 'healthcare': 'pharmacy', 'name': 'Droguería La super economía LN'}}"
"{'type': 'node', 'id': 11828432627, 'lat': 6.013137, 'lon': -73.6750194, 'tags': {'addr:city': 'Vélez', 'addr:street': 'Calle 8', 'healthcare': 'speech_therapist', 'name': 'Fonoaudiologa'}}"
"{'type': 'node', 'id': 11846017225, 'lat': 5.6403668, 'lon': -73.5177484, 'tags': {'amenity': 'hospital', 'healthcare': 'hospital'}}"
"{'type': 'node', 'id': 11872239493, 'lat': 5.9295348, 'lon': -73.6180529, 'tags': {'addr:city': 'Barbosa', 'addr:street': 'Calle 7', 'amenity': 'doctors', 'healthcare': 'doctor', 'healthcare:speciality': 'occupational', 'name': 'CRC La Unión'}}"
"{'type': 'node', 'id': 12050124406, 'lat': 4.8779882, 'lon': -72.8958978, 'tags': {'amenity': 'pharmacy', 'healthcare': 'pharmacy'}}"
"{'type': 'node', 'id': 12111986975, 'lat': 5.7191573, 'lon': -72.9227647, 'tags': {'healthcare': 'nurse', 'level': '1', 'name': 'Enfermeria Col Rosario', 'operator': 'Colegio Nuestra Señora del Rosario Sogamoso'}}"
"{'type': 'node', 'id': 12128088523, 'lat': 6.0578079, 'lon': -73.482587, 'tags': {'addr:city': 'Santana', 'addr:housenumber': '2\\24', 'addr:street': 'Calle 4', 'amenity': 'pharmacy', 'healthcare': 'pharmacy', 'name': 'Drogueria Maluvi'}}"
"{'type': 'node', 'id': 12142949049, 'lat': 6.057583, 'lon': -73.4828404, 'tags': {'addr:housenumber': '4/54', 'addr:street': 'Carrera 4', 'amenity': 'dentist', 'healthcare': 'dentist'}}"
"{'type': 'node', 'id': 12178152750, 'lat': 6.0574976, 'lon': -73.4818543, 'tags': {'amenity': 'pharmacy', 'healthcare': 'pharmacy'}}"
"{'type': 'node', 'id': 12182636773, 'lat': 5.9318864, 'lon': -73.6157508, 'tags': {'addr:city': 'Barbosa', 'amenity': 'pharmacy', 'healthcare': 'pharmacy', 'name': 'Droguería Modern'}}"
"{'type': 'node', 'id': 12182654810, 'lat': 5.9306642, 'lon': -73.6167638, 'tags': {'addr:city': 'Barbosa', 'amenity': 'pharmacy', 'healthcare': 'pharmacy'}}"
"{'type': 'node', 'id': 12228411393, 'lat': 4.9133483, 'lon': -74.0287944, 'tags': {'amenity': 'pharmacy', 'healthcare': 'pharmacy', 'name': 'Drogerías Jhonfarma'}}"
"{'type': 'node', 'id': 12231122033, 'lat': 4.9156106, 'lon': -74.0271874, 'tags': {'healthcare': 'yes', 'name': 'Nueva EPS'}}"
"{'type': 'node', 'id': 12231155329, 'lat': 4.914679, 'lon': -74.027778, 'tags': {'amenity': 'dentist', 'healthcare': 'dentist', 'name': 'Dra. Carolina Espinosa'}}"
"{'type': 'node', 'id': 12232413060, 'lat': 4.9178338, 'lon': -74.0261929, 'tags': {'amenity': 'pharmacy', 'healthcare': 'pharmacy', 'name': 'La Rebaja'}}"
"{'type': 'node', 'id': 12246310141, 'lat': 4.9169975, 'lon': -74.0234997, 'tags': {'amenity': 'pharmacy', 'healthcare': 'pharmacy', 'name': 'Drogerías Super Descuentos'}}"
"{'type': 'node', 'id': 12247615042, 'lat': 4.9178244, 'lon': -74.0255786, 'tags': {'amenity': 'pharmacy', 'brand': 'Cruz Verde', 'brand:wikidata': 'Q5856071', 'healthcare': 'pharmacy', 'name': 'Cruz Verde'}}"
"{'type': 'node', 'id': 12449834625, 'lat': 5.9301077, 'lon': -73.619885, 'tags': {'addr:city': 'Barbosa', 'addr:street': 'Carrera 10', 'amenity': 'pharmacy', 'healthcare': 'pharmacy', 'name': 'Maxifarma'}}"
"{'type': 'node', 'id': 12466301085, 'lat': 4.8807154, 'lon': -74.0362146, 'tags': {'amenity': 'dentist', 'check_date': '2024-12-31', 'healthcare': 'dentist'}}"
"{'type': 'node', 'id': 12467980465, 'lat': 4.9191423, 'lon': -74.0258699, 'tags': {'amenity': 'pharmacy', 'brand': 'Cruz Verde', 'brand:wikidata': 'Q5856071', 'check_date': '2025-01-01', 'healthcare': 'pharmacy', 'name': 'Cruz Verde'}}"
"{'type': 'node', 'id': 12484794601, 'lat': 5.5407571, 'lon': -73.3605076, 'tags': {'addr:postcode': '150002', 'addr:street': 'Avenida Colon #27-56', 'amenity': 'clinic', 'name': 'Edificio Colón - Corporación Medico Empresarial', 'opening_hours': 'Mo-Sa 07:00-18:00'}}"
