OSM_Data
"{'type': 'node', 'id': 1332347786, 'lat': -24.1162559, 'lon': -49.3457299, 'tags': {'amenity': 'hospital'}}"
"{'type': 'node', 'id': 2115182806, 'lat': -24.1138913, 'lon': -49.4697428, 'tags': {'amenity': 'hospital', 'name': 'Santa Casa de Sengés'}}"
"{'type': 'node', 'id': 2136173291, 'lat': -24.151858, 'lon': -49.8256709, 'tags': {'amenity': 'hospital', 'name': 'Hospital Municipal 18 de Dezembro'}}"
"{'type': 'node', 'id': 2136827903, 'lat': -24.1414129, 'lon': -49.8250834, 'tags': {'amenity': 'hospital', 'name': 'Unidade Central de Saúde'}}"
"{'type': 'node', 'id': 2238450448, 'lat': -23.8493019, 'lon': -50.1902422, 'tags': {'amenity': 'hospital', 'name': 'Hospital de Misericórdia São João Batista'}}"
"{'type': 'node', 'id': 2238562858, 'lat': -23.8489044, 'lon': -50.1850253, 'tags': {'amenity': 'hospital'}}"
"{'type': 'node', 'id': 2383598530, 'lat': -23.6208615, 'lon': -50.1707716, 'tags': {'amenity': 'hospital', 'name': 'Hospital Anita Canet'}}"
"{'type': 'node', 'id': 2581307272, 'lat': -23.2958166, 'lon': -50.0769689, 'tags': {'amenity': 'pharmacy', 'healthcare': 'pharmacy'}}"
"{'type': 'node', 'id': 2581307273, 'lat': -23.2956541, 'lon': -50.0767247, 'tags': {'amenity': 'pharmacy', 'healthcare': 'pharmacy'}}"
"{'type': 'node', 'id': 2581307274, 'lat': -23.2953875, 'lon': -50.076346, 'tags': {'amenity': 'pharmacy', 'healthcare': 'pharmacy'}}"
"{'type': 'node', 'id': 2581307275, 'lat': -23.296704, 'lon': -50.0762646, 'tags': {'amenity': 'pharmacy', 'healthcare': 'pharmacy'}}"
"{'type': 'node', 'id': 2581307276, 'lat': -23.2951827, 'lon': -50.0773582, 'tags': {'amenity': 'pharmacy'}}"
"{'type': 'node', 'id': 2581307277, 'lat': -23.2949519, 'lon': -50.077022, 'tags': {'amenity': 'pharmacy', 'healthcare': 'pharmacy'}}"
"{'type': 'node', 'id': 4997345125, 'lat': -23.1996327, 'lon': -49.7602124, 'tags': {'amenity': 'hospital', 'healthcare': 'hospital', 'name': 'PSF - Secretaria de Saúde', 'name:pt': 'PSF - Secretaria de Saúde'}}"
"{'type': 'node', 'id': 4997345126, 'lat': -23.1991838, 'lon': -49.7622999, 'tags': {'amenity': 'hospital', 'healthcare': 'hospital', 'name': 'CENTRO DE SAÚDE DR AGNELO', 'name:pt': 'CENTRO DE SAÚDE DR AGNELO'}}"
"{'type': 'node', 'id': 5253955197, 'lat': -23.4392174, 'lon': -50.2467946, 'tags': {'amenity': 'hospital', 'healthcare': 'hospital'}}"
"{'type': 'node', 'id': 5256850086, 'lat': -23.5682004, 'lon': -49.9141245, 'tags': {'amenity': 'clinic', 'healthcare': 'clinic'}}"
"{'type': 'node', 'id': 5256850093, 'lat': -23.5676301, 'lon': -49.9132148, 'tags': {'amenity': 'hospital', 'healthcare': 'hospital'}}"
"{'type': 'node', 'id': 9986942216, 'lat': -23.7776913, 'lon': -49.9574119, 'tags': {'amenity': 'clinic', 'healthcare': 'clinic', 'name': 'UBS - Central'}}"
"{'type': 'node', 'id': 9988712545, 'lat': -23.779932, 'lon': -49.9554336, 'tags': {'amenity': 'hospital', 'healthcare': 'hospital', 'name': 'Casa de Caridade Hospital São Vicente de Paula'}}"
"{'type': 'node', 'id': 9988712547, 'lat': -23.7736584, 'lon': -49.9483954, 'tags': {'amenity': 'clinic', 'healthcare': 'clinic', 'name': 'UBS Bairro Alto'}}"
"{'type': 'node', 'id': 11146217221, 'lat': -23.2009699, 'lon': -49.371331, 'tags': {'addr:city': 'Piraju', 'addr:housenumber': '360', 'addr:street': 'Rua Dino Bonameti', 'amenity': 'clinic', 'healthcare': 'clinic', 'name': 'Centro de Atenção Psicossocial Doutor Wandercy Bérgamo'}}"
"{'type': 'node', 'id': 12423401752, 'lat': -24.0506236, 'lon': -50.4550419, 'tags': {'addr:city': 'Curiúva', 'addr:postcode': '84280-000', 'addr:street': 'rodovia do papel', 'amenity': 'hospital', 'healthcare': 'hospital', 'healthcare:speciality': 'general', 'name': 'Hospital Municipal de Curiuva', 'operator': 'coinbeach', 'operator:type': 'public'}}"
