OSM_Data
"{'type': 'node', 'id': 349525377, 'lat': 44.6824636, 'lon': -90.166243, 'tags': {'addr:city': 'Marshfield', 'addr:housenumber': '1600', 'addr:postcode': '54449', 'addr:street': 'North Chestnut Avenue', 'amenity': 'hospital', 'contact:phone': '+1 715 384 2188', 'contact:website': 'http://www.co.wood.wi.us/Departments/Norwood/', 'emergency': 'no', 'gnis:feature_id': '1847067', 'healthcare': 'hospital', 'healthcare:speciality': 'psychiatry', 'name': 'Norwood Health Center'}}"
"{'type': 'node', 'id': 349525396, 'lat': 44.6619381, 'lon': -90.1776544, 'tags': {'addr:city': 'Marshfield', 'addr:housenumber': '630', 'addr:postcode': '54449', 'addr:state': 'WI', 'addr:street': 'South Central Avenue', 'addr:unit': '106', 'amenity': 'pharmacy', 'dispensing': 'yes', 'drive_through': 'yes', 'healthcare': 'pharmacy', 'name': 'Marshfield Clinic Central Avenue Pharmacy', 'phone': '+1 715 389 5900', 'website': 'https://www.marshfieldclinic.org/Locations/Centers/Marshfield%20Clinic%20Pharmacy%20on%20Central%20Avenue'}}"
"{'type': 'node', 'id': 3855770657, 'lat': 44.3654386, 'lon': -89.8160311, 'tags': {'addr:city': 'Wisconsin Rapids', 'addr:housenumber': '3215', 'addr:postcode': '54494', 'addr:state': 'WI', 'addr:street': '8th Street S', 'amenity': 'pharmacy', 'healthcare': 'pharmacy', 'name': 'Daly Drug'}}"
"{'type': 'node', 'id': 3856486669, 'lat': 44.3800932, 'lon': -89.8302319, 'tags': {'addr:city': 'Wisconsin Rapids', 'addr:housenumber': '406', 'addr:postcode': '54494', 'addr:state': 'WI', 'addr:street': 'Daly Avenue', 'amenity': 'dentist', 'healthcare': 'dentist', 'name': 'Riverhill Dental Associates'}}"
"{'type': 'node', 'id': 3886814419, 'lat': 44.9704149, 'lon': -89.6363089, 'tags': {'addr:city': 'Wausau', 'addr:housenumber': '102', 'addr:postcode': '54401', 'addr:state': 'WI', 'addr:street': 'West Bridge Street', 'amenity': 'pharmacy', 'brand': 'CVS Pharmacy', 'brand:website': 'https://www.cvs.com/', 'brand:wikidata': 'Q2078880', 'brand:wikipedia': 'en:CVS Pharmacy', 'healthcare': 'pharmacy', 'name': 'CVS Pharmacy', 'short_name': 'CVS', 'website': 'https://www.cvs.com/store-locator/wausau-wi-pharmacies/102-central-bridge-st-wausau-wi-54401/storeid=10172'}}"
"{'type': 'node', 'id': 4418197434, 'lat': 44.6714614, 'lon': -90.171798, 'tags': {'addr:city': 'Marshfield', 'addr:housenumber': '409', 'addr:postcode': '54449', 'addr:state': 'WI', 'addr:street': 'South Chestnut Avenue', 'addr:unit': '2', 'healthcare': 'optometrist', 'name': 'Marshfield Clinic Marshfield Eye Center', 'operator': 'Marshfield Clinic', 'phone': '+1 715 387 1844', 'website': 'https://www.marshfieldclinic.org/Locations/Centers/Marshfield%20Eye%20Center'}}"
"{'type': 'node', 'id': 4484341693, 'lat': 44.3725553, 'lon': -89.8178361, 'tags': {'amenity': 'pharmacy', 'brand': 'CVS Pharmacy', 'brand:website': 'https://www.cvs.com/', 'brand:wikidata': 'Q2078880', 'brand:wikipedia': 'en:CVS Pharmacy', 'dispensing': 'yes', 'healthcare': 'pharmacy', 'name': 'CVS Pharmacy', 'name:en': 'CVS', 'short_name': 'CVS', 'website': 'https://www.cvs.com/store-locator/wisconsin-rapids-wi-pharmacies/2410-south-8th-st-wisconsin-rapids-wi-54494/storeid=10163'}}"
"{'type': 'node', 'id': 4655920212, 'lat': 44.6776664, 'lon': -90.1772794, 'tags': {'addr:city': 'Marshfield', 'addr:housenumber': '1000', 'addr:postcode': '54449', 'addr:state': 'WI', 'addr:street': 'North Oak Avenue', 'amenity': 'clinic', 'healthcare': 'clinic', 'name': 'Marshfield Clinic Marshfield Center', 'operator': 'Marshfield Clinic', 'operator:wikidata': 'Q17020389', 'phone': '+1 715 387 5511', 'website': 'https://www.marshfieldclinic.org/Locations/Centers/Marshfield%20Eye%20Center'}}"
"{'type': 'node', 'id': 4789093813, 'lat': 44.3835327, 'lon': -89.824929, 'tags': {'amenity': 'dentist', 'healthcare': 'dentist', 'name': ""O'Leary Orthodontics""}}"
"{'type': 'node', 'id': 4816998291, 'lat': 44.3814222, 'lon': -89.817893, 'tags': {'addr:city': 'Wisconsin Rapids', 'addr:housenumber': '1100', 'addr:postcode': '54494', 'addr:state': 'WI', 'addr:street': '8th Street South', 'healthcare': 'alternative', 'healthcare:speciality': 'chiropractic', 'name': 'Rapids Chiropractic'}}"
"{'type': 'node', 'id': 4925422972, 'lat': 44.379808, 'lon': -89.8160823, 'tags': {'addr:city': 'Wisconsin Rapids', 'addr:housenumber': '1355', 'addr:postcode': '54494', 'addr:state': 'WI', 'addr:street': '8th Street South', 'amenity': 'clinic', 'brand': 'Planned Parenthood', 'brand:wikidata': 'Q2553262', 'healthcare': 'counselling', 'healthcare:counselling': 'antenatal;sexual', 'name': 'Planned Parenthood', 'name:en': 'Planned Parenthood Wisconsin Rapids Health Center'}}"
"{'type': 'node', 'id': 5244830255, 'lat': 44.9084127, 'lon': -89.5872875, 'tags': {'addr:city': 'Village of Weston', 'addr:housenumber': '2903', 'addr:postcode': '54476', 'addr:state': 'WI', 'addr:street': 'Norma Avenue', 'healthcare': 'yes', 'name': 'A1 Home Health Care', 'phone': '+1-715-432-0911'}}"
"{'type': 'node', 'id': 5618561285, 'lat': 44.9032866, 'lon': -89.5495835, 'tags': {'amenity': 'dentist', 'healthcare': 'dentist', 'name': 'Midwest Family Dental'}}"
"{'type': 'node', 'id': 5746229789, 'lat': 44.9699358, 'lon': -89.6282185, 'tags': {'addr:city': 'Wausau', 'addr:housenumber': '200', 'addr:postcode': '54403', 'addr:state': 'WI', 'addr:street': 'East Bridge Street', 'addr:unit': '100', 'amenity': 'dentist', 'healthcare': 'dentist', 'name': 'Quirt Family Dentistry'}}"
"{'type': 'node', 'id': 5746236935, 'lat': 44.9697746, 'lon': -89.6267581, 'tags': {'addr:city': 'Wausau', 'addr:housenumber': '310', 'addr:postcode': '54403', 'addr:state': 'WI', 'addr:street': 'East Bridge Street', 'amenity': 'pharmacy', 'dispensing': 'yes', 'healthcare': 'pharmacy', 'name': ""Young's Drug Store""}}"
"{'type': 'node', 'id': 5747678915, 'lat': 45.147055, 'lon': -89.1349052, 'tags': {'addr:city': 'Antigo', 'addr:housenumber': '1111', 'addr:postcode': '54409', 'addr:state': 'WI', 'addr:street': 'Langlade Road', 'amenity': 'dentist', 'healthcare': 'dentist', 'name': 'Bridge Clinic Antigo Dental Clinic', 'operator': 'Bridge Community Health Clinic'}}"
"{'type': 'node', 'id': 5747698189, 'lat': 45.1764509, 'lon': -89.6811036, 'tags': {'addr:city': 'Merrill', 'addr:housenumber': '503', 'addr:postcode': '54452', 'addr:state': 'WI', 'addr:street': 'South Center Avenue', 'addr:unit': '6', 'amenity': 'dentist', 'healthcare': 'dentist', 'name': 'Bridge Clinic Merrill Dental Clinic'}}"
"{'type': 'node', 'id': 5747775950, 'lat': 44.5009967, 'lon': -89.5633524, 'tags': {'amenity': 'pharmacy', 'brand': 'Walgreens', 'brand:wikidata': 'Q1591889', 'dispensing': 'yes', 'healthcare': 'pharmacy', 'name': 'Walgreens'}}"
"{'type': 'node', 'id': 5757682046, 'lat': 44.5321948, 'lon': -89.5759794, 'tags': {'addr:unit': 'K', 'amenity': 'clinic', 'brand': 'Healthfirst', 'brand:website': 'http://www.healthfirstnetwork.org/', 'check_date:opening_hours': '2022-08-15', 'healthcare': 'clinic', 'healthcare:counselling': 'nutrition;sexual', 'healthcare:speciality': 'gynaecology;urology', 'lgbtq': 'welcome', 'lgbtq:trans': 'welcome', 'name': 'Healthfirst', 'opening_hours': 'Mo 09:00-18:00; Tu-We 08:00-17:00; Th 07:00-16:00; Fr 08:30-14:30; Sa-Su off', 'phone': '+1 800-246-5743'}}"
"{'type': 'node', 'id': 5757697116, 'lat': 44.5291396, 'lon': -89.57381, 'tags': {'addr:housenumber': '632', 'addr:street': 'Isadore Street', 'healthcare': 'alternative', 'name': 'Pain Relief & Healing Center'}}"
"{'type': 'node', 'id': 5854334260, 'lat': 44.9562084, 'lon': -89.6258898, 'tags': {'healthcare': 'psychotherapist'}}"
"{'type': 'node', 'id': 5857434685, 'lat': 44.9586833, 'lon': -89.6687298, 'tags': {'addr:city': 'Wausau', 'addr:housenumber': '2600', 'addr:postcode': '54401', 'addr:state': 'WI', 'addr:street': 'Stewart Avenue', 'addr:unit': '266', 'amenity': 'clinic', 'healthcare': 'clinic', 'name': 'Marshfield Clinic Wausau Oral and Maxillofacial Center', 'operator': 'Marshfield Clinic', 'operator:wikidata': 'Q17020389', 'operator:wikipedia': 'en:Marshfield Clinic'}}"
"{'type': 'node', 'id': 5857445247, 'lat': 44.9045332, 'lon': -89.5751837, 'tags': {'drive_through': 'yes', 'healthcare': 'alternative', 'healthcare:speciality': 'chiropractic'}}"
"{'type': 'node', 'id': 5859233620, 'lat': 44.8910196, 'lon': -89.5797387, 'tags': {'addr:city': 'Weston', 'addr:housenumber': '3501', 'addr:postcode': '54476', 'addr:state': 'WI', 'addr:street': 'Cranberry Boulevard', 'amenity': 'clinic', 'healthcare': 'clinic', 'name': 'Marshfield Clinic Weston Center', 'operator': 'Marshfield Clinic', 'operator:wikidata': 'Q17020389', 'wikidata': 'Q50036590'}}"
"{'type': 'node', 'id': 5859236393, 'lat': 44.8972847, 'lon': -89.5715385, 'tags': {'addr:city': 'Weston', 'addr:housenumber': '4107', 'addr:postcode': '54476', 'addr:state': 'WI', 'addr:street': 'Barbican Avenue', 'amenity': 'clinic', 'healthcare': 'clinic', 'name': 'Marshfield Clinic Weston Oral and Maxillofacial Surgery Center', 'operator': 'Marshfield Clinic'}}"
"{'type': 'node', 'id': 5859312022, 'lat': 44.7829881, 'lon': -89.6829699, 'tags': {'addr:city': 'Mosinee', 'addr:housenumber': '390', 'addr:postcode': '54455', 'addr:state': 'WI', 'addr:street': 'Orbitting Drive', 'amenity': 'clinic', 'healthcare': 'clinic', 'name': 'Marshfield Clinic Mosinee Center', 'operator': 'Marshfield Clinic', 'operator:wikidata': 'Q17020389'}}"
"{'type': 'node', 'id': 5905784384, 'lat': 44.6619353, 'lon': -90.1763116, 'tags': {'addr:city': 'Marshfield', 'addr:housenumber': '601', 'addr:postcode': '54449', 'addr:state': 'WI', 'addr:street': 'South Central Avenue', 'addr:unit': '300', 'healthcare': 'audiologist', 'name': 'The Hearing House', 'opening_hours': 'Mo-Th 08:30-17:00; Fr 08:30-16:00', 'phone': '+1-715-384-4700', 'shop': 'hearing_aids', 'website': 'https://thehearinghouse.com'}}"
"{'type': 'node', 'id': 5905795410, 'lat': 44.9560874, 'lon': -89.680344, 'tags': {'addr:city': 'Wausau', 'addr:housenumber': '3530', 'addr:postcode': '54401', 'addr:state': 'WI', 'addr:street': 'Stewart Avenue', 'healthcare': 'audiologist', 'name': 'The Hearing House', 'opening_hours': 'Mo-Th 09:00-16:30', 'phone': '+1-715-261-2971', 'shop': 'hearing_aids', 'website': 'https://thehearinghouse.com/'}}"
"{'type': 'node', 'id': 5938940254, 'lat': 44.5429693, 'lon': -89.5442053, 'tags': {'addr:city': 'Stevens Point', 'addr:housenumber': '4100', 'addr:postcode': '54482', 'addr:state': 'WI', 'addr:street': 'Stanley Street', 'amenity': 'clinic', 'healthcare': 'clinic', 'healthcare:speciality': 'oncology', 'name': 'Marshfield Clinic Stevens Point Cancer Center', 'operator': 'Marshfield Clinic', 'operator:wikidata': 'Q17020389'}}"
"{'type': 'node', 'id': 5938983166, 'lat': 44.6800209, 'lon': -90.1620714, 'tags': {'addr:city': 'Marshfield', 'addr:housenumber': '212', 'addr:postcode': '54449', 'addr:state': 'WI', 'addr:street': 'East Upham Street', 'amenity': 'clinic', 'healthcare': 'clinic', 'name': 'Marshfield Clinic Marshfield Plaza Therapy Center', 'operator': 'Marshfield Clinic', 'operator:wikidata': 'Q17020389'}}"
"{'type': 'node', 'id': 5940818235, 'lat': 44.6768998, 'lon': -90.178312, 'tags': {'addr:city': 'Marshfield', 'addr:housenumber': '611', 'addr:postcode': '54449', 'addr:state': 'WI', 'addr:street': 'Saint Joseph Avenue', 'amenity': 'hospital', 'emergency': 'yes', 'healthcare': 'hospital', 'name': ""Marshfield Children's Hospital"", 'operator': 'Marshfield Clinic'}}"
"{'type': 'node', 'id': 5965166588, 'lat': 44.9551828, 'lon': -89.6238355, 'tags': {'addr:city': 'Wausau', 'addr:housenumber': '215', 'addr:postcode': '54403', 'addr:state': 'WI', 'addr:street': 'Grand Avenue', 'healthcare': 'alternative', 'healthcare:speciality': 'chiropractic', 'name': 'Meverdeen Chiropractic'}}"
"{'type': 'node', 'id': 5971796786, 'lat': 44.9696523, 'lon': -89.6534673, 'tags': {'addr:city': 'Wausau', 'addr:country': 'US', 'addr:housenumber': '550', 'addr:postcode': '54401', 'addr:state': 'WI', 'addr:street': 'N 17th Ave', 'amenity': 'dentist', 'healthcare': 'dentist', 'name': 'Wanserski Dental Center For Complex Dentistry', 'phone': '+1 715-848-2435', 'website': 'http://wanserskidental.com'}}"
"{'type': 'node', 'id': 5973735896, 'lat': 44.96604, 'lon': -89.6552303, 'tags': {'addr:city': 'Wausau', 'addr:housenumber': '301', 'addr:postcode': '54401', 'addr:state': 'WI', 'addr:street': 'North 17th Avenue', 'addr:unit': '200', 'amenity': 'dentist', 'healthcare': 'dentist', 'name': 'Wausau Smiles Dental'}}"
"{'type': 'node', 'id': 5983997289, 'lat': 44.4528428, 'lon': -89.5241701, 'tags': {'amenity': 'dentist', 'healthcare': 'dentist', 'name': 'Quirt Family Dentral'}}"
"{'type': 'node', 'id': 6032244349, 'lat': 44.3751255, 'lon': -89.8159396, 'tags': {'addr:city': 'Wisconsin Rapids', 'addr:housenumber': '841', 'addr:postcode': '54494', 'addr:state': 'WI', 'addr:street': 'Goodnow Avenue', 'addr:unit': '103', 'amenity': 'clinic', 'healthcare': 'clinic', 'name': 'Eye Clinic of Wisconsin'}}"
"{'type': 'node', 'id': 6032251939, 'lat': 44.5353575, 'lon': -89.5513588, 'tags': {'addr:city': 'Stevens Point', 'addr:housenumber': '3401', 'addr:postcode': '54481', 'addr:state': 'WI', 'addr:street': 'Stanley Street', 'amenity': 'clinic', 'healthcare': 'clinic', 'name': 'Eye Clinic of Wisconsin'}}"
"{'type': 'node', 'id': 6033391160, 'lat': 45.1763909, 'lon': -89.680925, 'tags': {'addr:city': 'Merrill', 'addr:housenumber': '503', 'addr:postcode': '54452', 'addr:state': 'WI', 'addr:street': 'South Center Avenue', 'addr:unit': '3', 'amenity': 'clinic', 'healthcare': 'clinic', 'name': 'Eye Clinic of Wisconsin'}}"
"{'type': 'node', 'id': 6033394834, 'lat': 45.161619, 'lon': -89.140612, 'tags': {'addr:city': 'Antigo', 'addr:housenumber': '109', 'addr:postcode': '54409', 'addr:state': 'WI', 'addr:street': 'State Highway 64', 'amenity': 'clinic', 'healthcare': 'clinic', 'name': 'Eye Clinic of Wisconsin'}}"
"{'type': 'node', 'id': 6062422428, 'lat': 44.957535, 'lon': -89.6226098, 'tags': {'amenity': 'dentist', 'healthcare': 'dentist', 'name': 'Dr. Aicher & Dr. Sun Dentistry'}}"
"{'type': 'node', 'id': 6062422429, 'lat': 44.9575526, 'lon': -89.623089, 'tags': {'amenity': 'dentist', 'healthcare': 'dentist', 'name': 'Advanced Dental Professionals'}}"
"{'type': 'node', 'id': 6074748049, 'lat': 44.965398, 'lon': -89.669617, 'tags': {'addr:city': 'Wausau', 'addr:housenumber': '215', 'addr:postcode': '54401', 'addr:state': 'WI', 'addr:street': 'North 28th Avenue', 'amenity': 'clinic', 'healthcare': 'clinic', 'healthcare:speciality': 'oncology', 'name': 'Aspirus Regional Cancer Center', 'operator': 'Aspirus', 'operator:wikidata': 'Q30270800'}}"
"{'type': 'node', 'id': 6074783121, 'lat': 44.968664, 'lon': -89.6609696, 'tags': {'addr:city': 'Wausau', 'addr:housenumber': '425', 'addr:postcode': '54401', 'addr:state': 'WI', 'addr:street': 'Windridge Drive', 'amenity': 'clinic', 'healthcare': 'clinic', 'name': 'Aspirus Occupational Health', 'operator': 'Aspirus', 'operator:wikidata': 'Q30270800'}}"
"{'type': 'node', 'id': 6074783122, 'lat': 44.9688092, 'lon': -89.6610369, 'tags': {'addr:city': 'Wausau', 'addr:housenumber': '425', 'addr:postcode': '54401', 'addr:state': 'WI', 'addr:street': 'Windridge Drive', 'amenity': 'clinic', 'healthcare': 'clinic', 'name': 'Wausau Family Medicine', 'operator': 'Aspirus', 'operator:wikidata': 'Q30270800'}}"
"{'type': 'node', 'id': 6074783669, 'lat': 44.968295, 'lon': -89.676851, 'tags': {'addr:city': 'Wausau', 'addr:housenumber': '3200', 'addr:postcode': '54401', 'addr:state': 'WI', 'addr:street': 'Westhill Drive', 'addr:unit': '100', 'amenity': 'clinic', 'healthcare': 'clinic', 'name': 'Aspirus Pediatric Outpatient Therapies - Wausau', 'operator': 'Aspirus', 'operator:wikidata': 'Q30270800'}}"
"{'type': 'node', 'id': 6074978985, 'lat': 44.9686978, 'lon': -89.6716242, 'tags': {'addr:city': 'Wausau', 'addr:housenumber': '2800', 'addr:postcode': '54401', 'addr:state': 'WI', 'addr:street': 'Westhill Drive', 'amenity': 'clinic', 'healthcare': 'clinic', 'name': 'Spine & Brain Group, S.C.'}}"
"{'type': 'node', 'id': 6074978986, 'lat': 44.9686978, 'lon': -89.671905, 'tags': {'addr:city': 'Wausau', 'addr:housenumber': '2800', 'addr:postcode': '54401', 'addr:state': 'WI', 'addr:street': 'Westhill Drive', 'amenity': 'clinic', 'healthcare': 'clinic', 'name': 'Associates in Pathology, S.C.'}}"
"{'type': 'node', 'id': 6074978987, 'lat': 44.969073, 'lon': -89.6734897, 'tags': {'amenity': 'clinic', 'healthcare': 'clinic', 'name': 'Wausau Oral Surgery & Dental Implant Center, S.C.'}}"
"{'type': 'node', 'id': 6074989352, 'lat': 44.9687287, 'lon': -89.6775328, 'tags': {'addr:city': 'Wausau', 'addr:housenumber': '3200', 'addr:postcode': '54401', 'addr:state': 'WI', 'addr:street': 'Westhill Drive', 'amenity': 'clinic', 'healthcare': 'clinic', 'name': 'ENT & Allergy Associates, S.C.'}}"
"{'type': 'node', 'id': 6074989353, 'lat': 44.968839, 'lon': -89.677383, 'tags': {'addr:city': 'Wausau', 'addr:housenumber': '3200', 'addr:postcode': '54401', 'addr:state': 'WI', 'addr:street': 'Westhill Drive', 'amenity': 'clinic', 'healthcare': 'clinic', 'name': 'Orthopedic Associates of Wausau, S.C.'}}"
"{'type': 'node', 'id': 6074989354, 'lat': 44.9689008, 'lon': -89.6772395, 'tags': {'addr:city': 'Wausau', 'addr:housenumber': '3200', 'addr:postcode': '54401', 'addr:state': 'WI', 'addr:street': 'Westhill Drive', 'amenity': 'clinic', 'healthcare': 'clinic', 'name': 'Radiology Associates of Wausau, S.P.'}}"
"{'type': 'node', 'id': 6074989355, 'lat': 44.9683402, 'lon': -89.6771023, 'tags': {'addr:city': 'Wausau', 'addr:housenumber': '3200', 'addr:postcode': '54401', 'addr:state': 'WI', 'addr:street': 'Westhill Drive', 'amenity': 'clinic', 'healthcare': 'clinic', 'name': 'Timothy C. Romang, M.D., S.C.'}}"
"{'type': 'node', 'id': 6090336512, 'lat': 44.9644478, 'lon': -89.6677897, 'tags': {'addr:city': 'Wausau', 'addr:housenumber': '2720', 'addr:postcode': '54401', 'addr:state': 'WI', 'addr:street': 'Plaza Drive', 'addr:unit': '1300', 'amenity': 'clinic', 'healthcare': 'clinic', 'name': 'Aspirus Family Health Specialists', 'operator': 'Aspirus', 'operator:type': 'ngo', 'operator:wikidata': 'Q30270800'}}"
"{'type': 'node', 'id': 6090336513, 'lat': 44.964489, 'lon': -89.6679352, 'tags': {'addr:city': 'Wausau', 'addr:housenumber': '2720', 'addr:postcode': '54401', 'addr:state': 'WI', 'addr:street': 'Plaza Drive', 'addr:unit': '1100', 'amenity': 'clinic', 'healthcare': 'clinic', 'name': 'Aspirus Family Walk-In', 'operator': 'Aspirus', 'operator:type': 'ngo', 'operator:wikidata': 'Q30270800'}}"
"{'type': 'node', 'id': 6090360959, 'lat': 44.968939, 'lon': -89.6732381, 'tags': {'addr:city': 'Wausau', 'addr:housenumber': '3000', 'addr:postcode': '54401', 'addr:state': 'WI', 'addr:street': 'Westhill Drive', 'addr:unit': '108', 'amenity': 'clinic', 'healthcare': 'clinic', 'healthcare:speciality': 'nephrology', 'name': 'Aspirus Nephrology Clinic', 'operator': 'Aspirus', 'operator:wikidata': 'Q30270800'}}"
"{'type': 'node', 'id': 6090360960, 'lat': 44.9683678, 'lon': -89.6769583, 'tags': {'addr:city': 'Wausau', 'addr:housenumber': '3200', 'addr:postcode': '54401', 'addr:state': 'WI', 'addr:street': 'Westhill Drive', 'addr:unit': '100', 'amenity': 'clinic', 'healthcare': 'clinic', 'name': 'Aspirus Outpatient Therapy Services', 'operator': 'Aspirus', 'operator:wikidata': 'Q30270800'}}"
"{'type': 'node', 'id': 6090360961, 'lat': 44.9658045, 'lon': -89.6674243, 'tags': {'addr:city': 'Wausau', 'addr:housenumber': '425', 'addr:postcode': '54401', 'addr:state': 'WI', 'addr:street': 'Pine Ridge Boulevard', 'addr:unit': '103', 'amenity': 'pharmacy', 'dispensing': 'yes', 'healthcare': 'pharmacy', 'name': 'Aspirus Pharmacy', 'operator': 'Aspirus'}}"
"{'type': 'node', 'id': 6090385060, 'lat': 44.9324081, 'lon': -89.657939, 'tags': {'addr:city': 'Wausau', 'addr:housenumber': '2600', 'addr:postcode': '54401', 'addr:state': 'WI', 'addr:street': 'Rib Mountain Drive', 'addr:unit': '200', 'amenity': 'clinic', 'healthcare': 'clinic', 'healthcare:speciality': 'plastic_surgery', 'name': 'Aspirus Plastic Surgery', 'operator': 'Aspirus'}}"
"{'type': 'node', 'id': 6090394113, 'lat': 44.9823983, 'lon': -89.6466375, 'tags': {'addr:city': 'Wausau', 'addr:housenumber': '1445', 'addr:postcode': '54401', 'addr:state': 'WI', 'addr:street': 'Merrill Avenue', 'amenity': 'clinic', 'healthcare': 'clinic', 'healthcare:speciality': 'podiatry', 'name': 'Aspirus Podiatry Associates', 'operator': 'Aspirus'}}"
"{'type': 'node', 'id': 6090415630, 'lat': 44.9653153, 'lon': -89.622958, 'tags': {'addr:city': 'Wausau', 'addr:housenumber': '1015', 'addr:postcode': '54403', 'addr:state': 'WI', 'addr:street': 'North 6th Street', 'healthcare': 'alternative', 'healthcare:speciality': 'chiropractic', 'name': 'Bautch Chiropractic East', 'operator': 'Bautch Chiropractic'}}"
"{'type': 'node', 'id': 6090467203, 'lat': 44.9684687, 'lon': -89.6533908, 'tags': {'addr:city': 'Wausau', 'addr:housenumber': '517', 'addr:postcode': '54401', 'addr:state': 'WI', 'addr:street': 'North 17th Avenue', 'addr:unit': '103', 'amenity': 'clinic', 'healthcare': 'clinic', 'healthcare:speciality': 'neurology', 'name': 'Acuity Neurology, S.C.'}}"
"{'type': 'node', 'id': 6090467204, 'lat': 44.9619004, 'lon': -89.6573171, 'tags': {'addr:city': 'Wausau', 'addr:housenumber': '200', 'addr:postcode': '54401', 'addr:state': 'WI', 'addr:street': 'South 18th Avenue', 'amenity': 'clinic', 'healthcare': 'clinic', 'name': 'Astia Health', 'website': 'https://astiahealth.com/'}}"
"{'type': 'node', 'id': 6090478155, 'lat': 44.9586998, 'lon': -89.6685661, 'tags': {'addr:city': 'Wausau', 'addr:housenumber': '2600', 'addr:postcode': '54401', 'addr:state': 'WI', 'addr:street': 'Stewart Avenue', 'addr:unit': '270', 'healthcare': 'psychotherapist', 'healthcare:speciality': 'psychiatry', 'name': 'Affiliated Family Psychiatry of Wausau, S.C.'}}"
"{'type': 'node', 'id': 6090478156, 'lat': 44.9586488, 'lon': -89.6689366, 'tags': {'addr:city': 'Wausau', 'addr:housenumber': '2600', 'addr:postcode': '54401', 'addr:state': 'WI', 'addr:street': 'Stewart Avenue', 'addr:unit': '38', 'healthcare': 'psychotherapist', 'healthcare:speciality': 'psychiatry;psychology', 'name': 'Achieve Center'}}"
"{'type': 'node', 'id': 6090478157, 'lat': 44.9577458, 'lon': -89.6695657, 'tags': {'addr:city': 'Wausau', 'addr:housenumber': '2620', 'addr:postcode': '54401', 'addr:state': 'WI', 'addr:street': 'Stewart Avenue', 'addr:unit': '310', 'healthcare': 'psychotherapist', 'name': 'Charis Counseling, LLC'}}"
"{'type': 'node', 'id': 6090478159, 'lat': 44.9555942, 'lon': -89.6808118, 'tags': {'addr:city': 'Wausau', 'addr:housenumber': '3540', 'addr:postcode': '54401', 'addr:state': 'WI', 'addr:street': 'Stewart Avenue', 'addr:unit': 'A', 'healthcare': 'alternative', 'healthcare:speciality': 'chiropractic', 'name': 'Bautch Chiropractic'}}"
"{'type': 'node', 'id': 6090478160, 'lat': 44.9558855, 'lon': -89.6816146, 'tags': {'addr:city': 'Wausau', 'addr:housenumber': '3600', 'addr:postcode': '54401', 'addr:state': 'WI', 'addr:street': 'Stewart Avenue', 'addr:unit': 'B', 'amenity': 'clinic', 'healthcare': 'clinic', 'name': 'Behavioral Health Clinic, LLC'}}"
"{'type': 'node', 'id': 6090514861, 'lat': 44.9612085, 'lon': -89.6284929, 'tags': {'addr:city': 'Wausau', 'addr:housenumber': '500', 'addr:postcode': '54403', 'addr:state': 'WI', 'addr:street': 'North 3rd Street', 'addr:unit': '319B', 'healthcare': 'psychotherapist', 'healthcare:speciality': 'psychology', 'name': 'Steven A. Benson, Ph.D, LLC'}}"
"{'type': 'node', 'id': 6090514862, 'lat': 44.9566908, 'lon': -89.6219755, 'tags': {'addr:city': 'Wausau', 'addr:housenumber': '631', 'addr:postcode': '54403', 'addr:state': 'WI', 'addr:street': 'Forest Street', 'healthcare': 'psychotherapist', 'name': 'Center for Human Development'}}"
"{'type': 'node', 'id': 6174272075, 'lat': 44.9349757, 'lon': -89.6171558, 'tags': {'addr:city': 'Wausau', 'addr:housenumber': '2106', 'addr:postcode': '54403', 'addr:state': 'WI', 'addr:street': 'Grand Avenue', 'amenity': 'pharmacy', 'dispensing': 'yes', 'healthcare': 'pharmacy', 'name': ""Young's Drug Store""}}"
"{'type': 'node', 'id': 6174316970, 'lat': 44.9132658, 'lon': -89.6103153, 'tags': {'addr:city': 'Schofield', 'addr:housenumber': '734', 'addr:postcode': '54476', 'addr:state': 'WI', 'addr:street': 'Schofield Avenue', 'amenity': 'pharmacy', 'dispensing': 'yes', 'healthcare': 'pharmacy', 'name': ""Young's Drug Store""}}"
"{'type': 'node', 'id': 6195982066, 'lat': 44.4967634, 'lon': -89.5158416, 'tags': {'amenity': 'dentist', 'brand': 'Aspen Dental', 'brand:wikidata': 'Q4807808', 'healthcare': 'dentist', 'name': 'Aspen Dental'}}"
"{'type': 'node', 'id': 6196731170, 'lat': 45.1812309, 'lon': -89.6849054, 'tags': {'amenity': 'clinic', 'healthcare': 'clinic', 'name': 'Family Foot and Ankle Clinic'}}"
"{'type': 'node', 'id': 6281150042, 'lat': 44.9666838, 'lon': -89.6683561, 'tags': {'addr:city': 'Wausau', 'addr:housenumber': '425', 'addr:postcode': '54401', 'addr:state': 'WI', 'addr:street': 'Pine Ridge Boulevard', 'amenity': 'pharmacy', 'dispensing': 'yes', 'healthcare': 'pharmacy', 'name': 'Aspirus Pharmacy - Wausau', 'operator': 'Aspirus', 'operator:type': 'ngo', 'operator:wikidata': 'Q30270800'}}"
"{'type': 'node', 'id': 6419759142, 'lat': 44.9630455, 'lon': -89.6282177, 'tags': {'healthcare': 'psychotherapist', 'name': 'Peaceful Solutions'}}"
"{'type': 'node', 'id': 6719975339, 'lat': 44.9171776, 'lon': -89.6110688, 'tags': {'addr:city': 'Schofield', 'addr:housenumber': '1105', 'addr:postcode': '54476', 'addr:state': 'WI', 'addr:street': 'South Grand Avenue', 'addr:unit': '1', 'alt_name': 'ARCW', 'amenity': 'clinic', 'healthcare': 'clinic', 'healthcare:speciality': 'AIDS', 'name': 'Vivent Health', 'old_name': 'AIDS Resource Center of Wisconsin', 'phone': '+1 715-355-6867', 'website': 'https://viventhealth.org/locations/wausau/'}}"
"{'type': 'node', 'id': 6836434317, 'lat': 44.5237755, 'lon': -89.5489691, 'tags': {'amenity': 'pharmacy', 'brand': 'Walgreens', 'brand:wikidata': 'Q1591889', 'dispensing': 'yes', 'healthcare': 'pharmacy', 'name': 'Walgreens'}}"
"{'type': 'node', 'id': 7650999435, 'lat': 44.9691046, 'lon': -89.6588319, 'tags': {'amenity': 'pharmacy', 'dispensing': 'yes', 'healthcare': 'pharmacy', 'name': 'Aspirus Pharmacy - Wausau - Westwood Center Boulevard', 'old_name': 'Ascension Medical Group - Wetwood Pharmacy', 'operator': 'Aspirus', 'operator:wikidata': 'Q30270800'}}"
"{'type': 'node', 'id': 7650999442, 'lat': 44.9680164, 'lon': -89.6540653, 'tags': {'amenity': 'clinic', 'healthcare': 'clinic', 'name': 'Electrolysis and Laser Center'}}"
"{'type': 'node', 'id': 7650999475, 'lat': 44.9681029, 'lon': -89.6540203, 'tags': {'amenity': 'dentist', 'healthcare': 'dentist', 'name': 'First Impressions, S.C.'}}"
"{'type': 'node', 'id': 7651013336, 'lat': 44.9672632, 'lon': -89.6537203, 'tags': {'amenity': 'clinic', 'healthcare': 'clinic', 'name': 'Sport & Spine'}}"
"{'type': 'node', 'id': 7681014512, 'lat': 44.4985856, 'lon': -89.5165204, 'tags': {'addr:city': 'Stevens Point', 'addr:housenumber': '5409', 'addr:postcode': '54482', 'addr:state': 'WI', 'addr:street': 'Vern Holmes Drive', 'amenity': 'clinic', 'healthcare': 'clinic', 'name': 'Aspirus Plover Clinic - Vern Holmes Drive', 'old_name': 'Aspirus Stevens Point Clinic', 'operator': 'Aspirus'}}"
"{'type': 'node', 'id': 7828026552, 'lat': 44.3941729, 'lon': -89.8317859, 'tags': {'amenity': 'clinic', 'branch': 'Outpatient Clinic', 'healthcare': 'clinic', 'healthcare:for': 'veterans', 'name': 'VA Clinic', 'operator': 'VA', 'operator:wikidata': 'Q6580225', 'operator:wikipedia': 'en:Veterans Health Administration', 'short_name': 'VA'}}"
"{'type': 'node', 'id': 7863088164, 'lat': 45.1769281, 'lon': -89.6534238, 'tags': {'amenity': 'clinic', 'healthcare': 'clinic', 'name': 'Aspirus'}}"
"{'type': 'node', 'id': 8166230974, 'lat': 44.6682959, 'lon': -90.173119, 'tags': {'addr:city': 'Marshfield', 'addr:housenumber': '146', 'addr:postcode': '54449', 'addr:state': 'WI', 'addr:street': 'North Central Avenue', 'amenity': 'clinic', 'healthcare': 'clinic', 'name': 'Aspirus Clinic - Marshfield', 'operator': 'Aspirus'}}"
"{'type': 'node', 'id': 8202164858, 'lat': 45.141392, 'lon': -89.13997, 'tags': {'addr:city': 'Antigo', 'addr:housenumber': '110', 'addr:postcode': '54409', 'addr:state': 'WI', 'addr:street': '5th Avenue', 'amenity': 'clinic', 'healthcare': 'clinic', 'name': 'Aspirus Antigo Clinic', 'operator': 'Aspirus'}}"
"{'type': 'node', 'id': 8202164860, 'lat': 45.1397276, 'lon': -89.1394343, 'tags': {'addr:city': 'Antigo', 'addr:housenumber': '501', 'addr:postcode': '54409', 'addr:state': 'WI', 'addr:street': 'Aurora Street', 'amenity': 'clinic', 'healthcare': 'clinic', 'name': 'Volm Cancer Center - Aspirus Langlade Hospital'}}"
"{'type': 'node', 'id': 8202164861, 'lat': 45.139866, 'lon': -89.1394781, 'tags': {'addr:city': 'Antigo', 'addr:housenumber': '501', 'addr:postcode': '54409', 'addr:state': 'WI', 'addr:street': 'Aurora Street', 'amenity': 'clinic', 'healthcare': 'clinic', 'name': 'Aspirus Kidney Care - Antigo', 'operator': 'Aspirus'}}"
"{'type': 'node', 'id': 8202545801, 'lat': 45.1472192, 'lon': -89.1348785, 'tags': {'amenity': 'clinic', 'healthcare': 'clinic', 'name': 'Steve A. Weber, D.O.'}}"
"{'type': 'node', 'id': 8202545802, 'lat': 45.141257, 'lon': -89.1399669, 'tags': {'addr:city': 'Antigo', 'addr:housenumber': '112', 'addr:postcode': '54409', 'addr:state': 'WI', 'addr:street': '5th Avenue', 'amenity': 'clinic', 'healthcare': 'clinic', 'name': 'Aspirus Langlade Health and Rehabilitation', 'operator': 'Aspirus'}}"
"{'type': 'node', 'id': 8202545803, 'lat': 45.1399131, 'lon': -89.1393108, 'tags': {'addr:city': 'Antigo', 'addr:housenumber': '501', 'addr:postcode': '54409', 'addr:state': 'WI', 'addr:street': 'Aurora Street', 'amenity': 'clinic', 'healthcare': 'clinic', 'name': ""St. Joseph's Outpatient Center-Antigo"", 'operator': 'Aspirus'}}"
"{'type': 'node', 'id': 8202545804, 'lat': 45.1411533, 'lon': -89.1399617, 'tags': {'addr:city': 'Antigo', 'addr:housenumber': '110', 'addr:postcode': '54409', 'addr:state': 'WI', 'addr:street': '5th Avenue', 'amenity': 'clinic', 'healthcare': 'clinic', 'name': 'Walkabout Orthotics & Prosthetics-Antigo', 'website': 'https://walkaboutwausau.com/'}}"
"{'type': 'node', 'id': 8202570755, 'lat': 45.1483091, 'lon': -89.1329831, 'tags': {'addr:city': 'Antigo', 'addr:housenumber': '1225', 'addr:postcode': '54409', 'addr:state': 'WI', 'addr:street': 'Langlade Road', 'amenity': 'clinic', 'healthcare': 'clinic', 'name': 'North Central Health Care - Antigo Behavioral Health', 'operator': 'North Central Health Care'}}"
"{'type': 'node', 'id': 8202570756, 'lat': 45.1388948, 'lon': -89.1526137, 'tags': {'addr:city': 'Antigo', 'addr:housenumber': '436', 'addr:postcode': '54409', 'addr:state': 'WI', 'addr:street': 'Superior Street', 'healthcare': 'alternative', 'healthcare:speciality': 'chiropractic', 'name': 'Krueger Chiropractic, LLC'}}"
"{'type': 'node', 'id': 8202570757, 'lat': 45.1641843, 'lon': -89.1475889, 'tags': {'addr:city': 'Antigo', 'addr:housenumber': '2327', 'addr:postcode': '54409', 'addr:state': 'WI', 'addr:street': 'Neva Road', 'healthcare': 'alternative', 'healthcare:speciality': 'chiropractic', 'name': 'Joint & Spine'}}"
"{'type': 'node', 'id': 8202570764, 'lat': 45.1595223, 'lon': -89.1515789, 'tags': {'addr:city': 'Antigo', 'addr:housenumber': '725', 'addr:postcode': '54409', 'addr:state': 'WI', 'addr:street': 'Ackley Street', 'amenity': 'clinic', 'healthcare': 'clinic', 'name': 'Health In Motion of WI, LLC - Antigo'}}"
"{'type': 'node', 'id': 8202570765, 'lat': 45.1595411, 'lon': -89.1517621, 'tags': {'addr:city': 'Antigo', 'addr:housenumber': '720', 'addr:postcode': '54409', 'addr:state': 'WI', 'addr:street': 'Ackley Street', 'amenity': 'clinic', 'healthcare': 'clinic', 'name': 'Family Foot & Ankle Clinic, LLC - Antigo'}}"
"{'type': 'node', 'id': 8202570767, 'lat': 45.143631, 'lon': -89.1525396, 'tags': {'amenity': 'clinic', 'healthcare': 'clinic', 'name': 'Antigo Vision Clinic, S.C.'}}"
"{'type': 'node', 'id': 8202570768, 'lat': 45.1437491, 'lon': -89.1524726, 'tags': {'addr:city': 'Antigo', 'addr:housenumber': '836', 'addr:postcode': '54409', 'addr:state': 'WI', 'addr:street': 'Superior Street', 'addr:unit': '109', 'healthcare': 'psychotherapist', 'name': 'Compass Counseling Wausau, LLC - Antigo'}}"
"{'type': 'node', 'id': 8744138858, 'lat': 44.5209367, 'lon': -89.5506634, 'tags': {'addr:city': 'Stevens Point', 'addr:housenumber': '1500', 'addr:postcode': '54481', 'addr:state': 'WI', 'addr:street': 'Pinecrest Avenue', 'amenity': 'pharmacy', 'dispensing': 'yes', 'drive_through': 'no', 'healthcare': 'pharmacy', 'note': ""Metro Market is a Roundy's store. Roundy's is a subsidiary of Kroger."", 'opening_hours': 'Mo-Fr  09:00-20:00; Sa 10:00-18:00; Su 10:00-17:00', 'operator': 'Metro Market', 'phone': '+1-715-345-7175', 'website': 'https://www.metromarket.net/stores/details/534/00132'}}"
"{'type': 'node', 'id': 8794662528, 'lat': 44.5238656, 'lon': -89.5835033, 'tags': {'addr:floor': '2', 'addr:unit': '202', 'fixme': 'Exact location in the building unknown.', 'healthcare': 'psychotherapist', 'level': '1', 'name': 'Riverwood Counseling Associates', 'ref:level': '2'}}"
"{'type': 'node', 'id': 8806949737, 'lat': 45.1824187, 'lon': -89.6821985, 'tags': {'addr:city': 'Merrill', 'addr:housenumber': '101', 'addr:postcode': '54452', 'addr:state': 'WI', 'addr:street': 'North Center Avenue', 'amenity': 'pharmacy', 'brand': 'Walgreens', 'brand:wikidata': 'Q1591889', 'dispensing': 'yes', 'drive_through': 'yes', 'healthcare': 'pharmacy', 'name': 'Walgreens', 'ref': '10574'}}"
"{'type': 'node', 'id': 8870888203, 'lat': 44.5342535, 'lon': -89.5744491, 'tags': {'healthcare': 'alternative', 'healthcare:speciality': 'massage_therapy;reiki', 'level': '-1', 'name': 'Angels of Awyn', 'website': 'https://www.angelsofawyn.com/'}}"
"{'type': 'node', 'id': 8878255308, 'lat': 44.4968095, 'lon': -89.5299552, 'tags': {'addr:city': 'Plover', 'addr:housenumber': '2016', 'addr:postcode': '54467', 'addr:state': 'WI', 'contact:facebook': 'https://www.facebook.com/InfinityWellnessAndChiropractic', 'healthcare': 'alternative', 'healthcare:speciality': 'chiropractic', 'name': 'Infinity Wellness and Chiropractic', 'website': 'https://infinitywellnessandchiropractic.com/'}}"
"{'type': 'node', 'id': 8878255310, 'lat': 44.4968213, 'lon': -89.5301492, 'tags': {'addr:city': 'Plover', 'addr:housenumber': '2020', 'addr:postcode': '54467', 'addr:state': 'WI', 'healthcare': 'podiatrist', 'name': 'C. Thomas DeRoche, DPM', 'website': 'https://www.derochefootcare.com/'}}"
"{'type': 'node', 'id': 8878255311, 'lat': 44.496845, 'lon': -89.5305013, 'tags': {'addr:city': 'Plover', 'addr:postcode': '54467', 'addr:state': 'WI', 'amenity': 'dentist', 'brand': 'First Impressions S.C.', 'contact:facebook': 'https://www.facebook.com/FIDKIDSPlover/', 'healthcare': 'dentist', 'healthcare:speciality': 'orthodontics;paediatric_dentistry', 'name': 'First Impressions S.C.', 'website': 'https://fidkids.com/locations/stevens-point-dental-office/'}}"
"{'type': 'node', 'id': 8878255312, 'lat': 44.4968049, 'lon': -89.5298762, 'tags': {'addr:city': 'Plover', 'addr:housenumber': '2016', 'addr:postcode': '54467', 'addr:state': 'WI', 'healthcare': 'alternative', 'healthcare:speciality': 'aromatherapy;massage_therapy', 'name': 'Holistic Healing Therapies', 'phone': '+1 309-319-4489', 'website': 'https://www.beautynailhairsalons.com/US/Plover/1927614197544112/Holistic-Healing-Therapies%2C-LLC'}}"
"{'type': 'node', 'id': 8889768963, 'lat': 44.5327008, 'lon': -89.5759815, 'tags': {'addr:unit': 'E', 'amenity': 'clinic', 'brand': 'Advanced Physical Therapy & Sports Medicine', 'healthcare': 'clinic', 'healthcare:speciality': 'physiotherapy', 'name': 'Advanced Physical Therapy Associates', 'phone': '+1 715-345-2797', 'website': 'https://www.advancedptsm.com/stevens-point-clinics'}}"
"{'type': 'node', 'id': 8952181097, 'lat': 44.5348767, 'lon': -89.5497084, 'tags': {'addr:housenumber': '122', 'amenity': 'doctors', 'brand': 'Ascension', 'building': 'yes', 'healthcare': 'doctor', 'healthcare:speciality': 'psychiatry', 'name': 'Ascension Behavioral Health Building 2', 'opening_hours': '""by appointment""'}}"
"{'type': 'node', 'id': 8952181098, 'lat': 44.5354412, 'lon': -89.5497879, 'tags': {'amenity': 'clinic', 'building': 'yes', 'healthcare': 'clinic', 'healthcare:speciality': 'podiatry', 'name': 'Family Foot & Ankle Clinic', 'payment:discover_card': 'yes', 'payment:mastercard': 'yes', 'payment:visa': 'yes', 'phone': '+1 715-241-8100'}}"
"{'type': 'node', 'id': 8952181100, 'lat': 44.5345507, 'lon': -89.551438, 'tags': {'addr:housenumber': '3398', 'building': 'yes', 'healthcare': 'psychotherapist', 'name': 'Ascension Behavioral Health Building 1', 'opening_hours': 'Mo-We 07:00-19:00; Th 07:00-18:00; Fr 07:00-15:00'}}"
"{'type': 'node', 'id': 8955390839, 'lat': 44.5232794, 'lon': -89.5818881, 'tags': {'amenity': 'doctors', 'healthcare': 'doctor', 'healthcare:speciality': 'chiropractic', 'name': 'Compass Chiropractic', 'phone': '+1 715-344-2990'}}"
"{'type': 'node', 'id': 9138499757, 'lat': 44.6798542, 'lon': -90.1620666, 'tags': {'healthcare': 'alternative', 'healthcare:speciality': 'chiropractic', 'name': 'Dragt Chiropractic', 'phone': '7153849050', 'website': 'https://www.dragtchiro.com/'}}"
"{'type': 'node', 'id': 9712445468, 'lat': 44.3853301, 'lon': -89.7988786, 'tags': {'amenity': 'dentist', 'brand': 'Midwest Dental', 'healthcare': 'dentist', 'level': '0', 'name': 'Midwest Dental'}}"
"{'type': 'node', 'id': 9740495457, 'lat': 44.5428126, 'lon': -89.544334, 'tags': {'amenity': 'clinic', 'healthcare': 'clinic', 'name': 'Marshfield Clinic-Stevens Point Center', 'operator': 'Marshfield Clinic', 'operator:wikidata': 'Q17020389'}}"
"{'type': 'node', 'id': 9918314418, 'lat': 45.4764951, 'lon': -89.712381, 'tags': {'amenity': 'dentist', 'healthcare': 'dentist', 'healthcare:speciality': 'orthodontics', 'name': 'Fehrman Orthodontics', 'website': 'https://www.fehrmanorthodontics.com'}}"
"{'type': 'node', 'id': 10014429305, 'lat': 44.5075403, 'lon': -89.1312393, 'tags': {'healthcare': 'physiotherapist', 'name': 'Advanced Physical Therapy Associates'}}"
"{'type': 'node', 'id': 10114140898, 'lat': 45.1486191, 'lon': -89.6277724, 'tags': {'Category': 'Laboratory Weighing', 'addr:city': 'Merrill', 'addr:housenumber': 'W4039', 'addr:postcode': '54452', 'addr:state': 'WI', 'addr:street': 'Alpine Avenue', 'country': 'USA', 'healthcare': 'laboratory', 'name': 'E & B Scale Services, Inc', 'opening_hours': 'Mo-Fr 07:00-16:00, Sa 07:00-12:00, Su 07:30-12:00', 'operator': 'Ken Asmundsem', 'payment:american_express': 'yes', 'payment:cash': 'yes', 'payment:checks': 'yes', 'payment:discover': 'yes', 'payment:mastercard': 'yes', 'payment:visa': 'yes', 'phone': '715-536-9092', 'website': 'https://ebscaleservicesinc.com'}}"
"{'type': 'node', 'id': 10635352152, 'lat': 44.9535448, 'lon': -89.6244975, 'tags': {'addr:city': 'Wausau', 'addr:housenumber': '360', 'addr:postcode': '54403', 'addr:state': 'WI', 'addr:street': 'Grand Avenue', 'addr:unit': '600', 'amenity': 'clinic', 'healthcare': 'clinic', 'name': 'Wausau Free Clinic'}}"
"{'type': 'node', 'id': 10983323495, 'lat': 44.6609822, 'lon': -90.1773653, 'tags': {'amenity': 'dentist', 'healthcare': 'dentist', 'name': 'Mapleleaf Dental'}}"
"{'type': 'node', 'id': 11453884294, 'lat': 44.9546087, 'lon': -89.6836392, 'tags': {'amenity': 'clinic', 'healthcare': 'clinic', 'name': 'Pro Physical Therapy & Hand Center'}}"
"{'type': 'node', 'id': 11453914255, 'lat': 44.9547524, 'lon': -89.6841255, 'tags': {'amenity': 'clinic', 'healthcare': 'clinic', 'name': 'Orthopaedic Associates of Wausau'}}"
"{'type': 'node', 'id': 12033786734, 'lat': 44.4930308, 'lon': -89.5102592, 'tags': {'amenity': 'pharmacy', 'brand': 'Walmart', 'brand:wikidata': 'Q483551', 'dispensing': 'yes', 'drive_through': 'no', 'healthcare': 'pharmacy', 'name': 'Walmart Pharmacy', 'opening_hours': 'Mo-Sa 09:00-19:00; Su 10:00-18:00', 'website': 'https://www.walmart.com/store/1828-plover-wi/pharmacy'}}"
"{'type': 'node', 'id': 12189337521, 'lat': 44.5293017, 'lon': -89.5743518, 'tags': {'addr:city': 'Stevens Point', 'addr:housenumber': '641', 'addr:postcode': '54481', 'addr:state': 'WI', 'addr:street': 'Division Street', 'addr:unit': 'Suite A', 'healthcare': 'physiotherapist', 'name': 'Advanced Physical Therapy Associates - Stevens Point North', 'phone': '+1-715-345-2797', 'website': 'https://www.advancedptsm.com/stevens-point-north'}}"
"{'type': 'node', 'id': 12288157392, 'lat': 44.8972462, 'lon': -89.6101556, 'tags': {'addr:city': 'Rothschild', 'addr:housenumber': '1105', 'addr:postcode': '54474', 'addr:state': 'WI', 'addr:street': 'East Grand Avenue', 'amenity': 'clinic', 'healthcare': 'clinic', 'healthcare:for': 'veteran', 'name': 'Wausau VA Clinic', 'operator': 'VA', 'operator:wikidata': 'Q6580225', 'phone': '+1-715-842-2834', 'short_name': 'VA', 'website': 'https://www.va.gov/tomah-health-care/locations/wausau-va-clinic/'}}"
