OSM_Data
"{'type': 'node', 'id': 772575588, 'lat': 32.0449011, 'lon': 118.7706098, 'tags': {'amenity': 'hospital', 'name': '江苏省口腔医院'}}"
"{'type': 'node', 'id': 772584568, 'lat': 32.0525487, 'lon': 118.7739688, 'tags': {'amenity': 'hospital', 'healthcare': 'hospital', 'healthcare:speciality': 'paediatrics', 'name': '南京儿童医院'}}"
"{'type': 'node', 'id': 1507211942, 'lat': 32.0213223, 'lon': 118.8229651, 'tags': {'amenity': 'hospital', 'name': '南京南方医院', 'name:ja': '南京南方医院', 'source': 'GPS', 'source:name': 'photograph'}}"
"{'type': 'node', 'id': 1510034226, 'lat': 32.0125211, 'lon': 118.688774, 'tags': {'amenity': 'hospital', 'name': '江心洲医院', 'source': 'bing', 'source:name': 'photograph'}}"
"{'type': 'node', 'id': 1574334139, 'lat': 31.8986387, 'lon': 118.8223394, 'tags': {'amenity': 'hospital', 'healthcare': 'hospital', 'name': '南京同仁医院', 'source:name': 'survey'}}"
"{'type': 'node', 'id': 1678011831, 'lat': 32.0988245, 'lon': 118.9035714, 'tags': {'amenity': 'hospital', 'healthcare': 'hospital', 'name': '仙林医院'}}"
"{'type': 'node', 'id': 1971860653, 'lat': 32.2007676, 'lon': 119.4649781, 'tags': {'amenity': 'hospital', 'healthcare': 'hospital', 'name': '京口区机关卫生服务站'}}"
"{'type': 'node', 'id': 1971939419, 'lat': 32.1946826, 'lon': 119.4719796, 'tags': {'amenity': 'pharmacy', 'name': '苏祥药店'}}"
"{'type': 'node', 'id': 1971939982, 'lat': 32.2018883, 'lon': 119.4508233, 'tags': {'amenity': 'hospital', 'emergency': 'yes', 'name': '长城门诊部'}}"
"{'type': 'node', 'id': 1971949468, 'lat': 32.2140726, 'lon': 119.4477147, 'tags': {'addr:housename': '苏祥药店', 'addr:housenumber': '苏祥药店', 'addr:postcode': '212003', 'addr:street': '解放路', 'alt_name': '苏祥药店', 'amenity': 'pharmacy', 'int_name': '苏祥药店', 'name': '苏祥药店', 'old_name': '苏祥药店'}}"
"{'type': 'node', 'id': 1971958459, 'lat': 32.1959699, 'lon': 119.4568783, 'tags': {'amenity': 'pharmacy', 'name': '祥云药业'}}"
"{'type': 'node', 'id': 1971967620, 'lat': 32.1935822, 'lon': 119.4751701, 'tags': {'amenity': 'pharmacy', 'name': '康德药店'}}"
"{'type': 'node', 'id': 1971978007, 'lat': 32.1949721, 'lon': 119.4621194, 'tags': {'amenity': 'pharmacy', 'healthcare': 'pharmacy', 'name': '存仁堂医药连锁'}}"
"{'type': 'node', 'id': 1971979535, 'lat': 32.2020088, 'lon': 119.4511564, 'tags': {'amenity': 'pharmacy', 'healthcare': 'pharmacy', 'name': '存仁堂'}}"
"{'type': 'node', 'id': 1971995855, 'lat': 32.1966472, 'lon': 119.4608662, 'tags': {'amenity': 'hospital', 'healthcare': 'hospital', 'name': '镇江口腔医院'}}"
"{'type': 'node', 'id': 1971998989, 'lat': 32.1970803, 'lon': 119.4608029, 'tags': {'amenity': 'pharmacy', 'healthcare': 'pharmacy', 'name': '南水桥药店'}}"
"{'type': 'node', 'id': 1972031795, 'lat': 32.209561, 'lon': 119.4479078, 'tags': {'addr:housenumber': '怀润堂大药房', 'addr:postcode': '212003', 'addr:street': '解放路', 'amenity': 'pharmacy', 'dispensing': 'no', 'name': '怀润堂大药房'}}"
"{'type': 'node', 'id': 1972032255, 'lat': 32.1984812, 'lon': 119.4562314, 'tags': {'amenity': 'hospital', 'name': '名典宠物医院'}}"
"{'type': 'node', 'id': 1972036428, 'lat': 32.2107227, 'lon': 119.4586628, 'tags': {'amenity': 'pharmacy', 'healthcare': 'pharmacy', 'name': '开泰大药房'}}"
"{'type': 'node', 'id': 1972098249, 'lat': 32.2055801, 'lon': 119.4521018, 'tags': {'amenity': 'pharmacy', 'name': '至善堂大药房'}}"
"{'type': 'node', 'id': 1972098267, 'lat': 32.2137364, 'lon': 119.4526117, 'tags': {'amenity': 'pharmacy', 'name': '北固山药房'}}"
"{'type': 'node', 'id': 1972098331, 'lat': 32.2044952, 'lon': 119.4535022, 'tags': {'amenity': 'hospital', 'healthcare': 'hospital', 'name': '正东路社区卫生服务中心'}}"
"{'type': 'node', 'id': 1972103005, 'lat': 32.2057532, 'lon': 119.4427865, 'tags': {'amenity': 'pharmacy', 'name': '祥云药业'}}"
"{'type': 'node', 'id': 1972128848, 'lat': 32.1994245, 'lon': 119.459973, 'tags': {'amenity': 'pharmacy', 'healthcare': 'pharmacy', 'name': '长生居药店'}}"
"{'type': 'node', 'id': 2048008621, 'lat': 32.2036245, 'lon': 119.4552142, 'tags': {'amenity': 'hospital', 'healthcare': 'hospital', 'name': '镇江市第四人民医院'}}"
"{'type': 'node', 'id': 2048011981, 'lat': 32.2077323, 'lon': 119.4392497, 'tags': {'amenity': 'hospital', 'healthcare': 'hospital', 'name': '镇江市第一人民医院'}}"
"{'type': 'node', 'id': 2048017464, 'lat': 32.1936015, 'lon': 119.407664, 'tags': {'amenity': 'hospital', 'healthcare': 'hospital', 'name': '镇江市中西结合肾病医院'}}"
"{'type': 'node', 'id': 2062878986, 'lat': 32.2045405, 'lon': 119.4335751, 'tags': {'amenity': 'pharmacy', 'name': '新主张药店'}}"
"{'type': 'node', 'id': 2062878989, 'lat': 32.2031488, 'lon': 119.4341099, 'tags': {'amenity': 'pharmacy', 'name': '存仁堂医药'}}"
"{'type': 'node', 'id': 2062879011, 'lat': 32.2015901, 'lon': 119.4335751, 'tags': {'amenity': 'hospital', 'healthcare': 'hospital', 'name': '镇江中山医院'}}"
"{'type': 'node', 'id': 2062879027, 'lat': 32.2055909, 'lon': 119.4330477, 'tags': {'amenity': 'hospital', 'name': '黄山医院'}}"
"{'type': 'node', 'id': 2062879040, 'lat': 32.1958314, 'lon': 119.4357621, 'tags': {'amenity': 'hospital', 'name': '润州区民健康复门诊部'}}"
"{'type': 'node', 'id': 2062879041, 'lat': 32.2104181, 'lon': 119.4345342, 'tags': {'addr:housenumber': '47号', 'addr:street': '宝塔路横街', 'amenity': 'hospital', 'healthcare': 'hospital', 'name': '润州区宝康门诊'}}"
"{'type': 'node', 'id': 2062879056, 'lat': 32.192808, 'lon': 119.4354617, 'tags': {'amenity': 'pharmacy', 'name': '大德生'}}"
"{'type': 'node', 'id': 2153973734, 'lat': 32.0366292, 'lon': 118.7890299, 'tags': {'amenity': 'hospital', 'healthcare': 'hospital', 'name': '八一医院', 'name:zh': '八一医院', 'name:zh-Hans': '八一医院', 'name:zh-Hant': '八一醫院'}}"
"{'type': 'node', 'id': 2327961420, 'lat': 32.0381939, 'lon': 118.7925246, 'tags': {'amenity': 'pharmacy', 'name': '先声再康药房'}}"
"{'type': 'node', 'id': 2354666998, 'lat': 32.1442713, 'lon': 118.7271234, 'tags': {'amenity': 'pharmacy', 'brand': '益丰大药房', 'brand:en': 'Yifeng Pharmacy', 'brand:wikidata': 'Q109766741', 'brand:zh': '益丰大药房', 'healthcare': 'pharmacy', 'name': '益丰大药房', 'name:en': 'Yifeng Pharmacy', 'name:zh': '益丰大药房'}}"
"{'type': 'node', 'id': 2430259731, 'lat': 32.3962297, 'lon': 119.4472398, 'tags': {'amenity': 'hospital', 'name': '扬州市第一人民医院', 'source': 'Bing'}}"
"{'type': 'node', 'id': 2696060923, 'lat': 32.0222044, 'lon': 118.855745, 'tags': {'amenity': 'hospital', 'healthcare': 'hospital'}}"
"{'type': 'node', 'id': 2699660773, 'lat': 32.0660825, 'lon': 118.623863, 'tags': {'amenity': 'hospital', 'name': '南京市浦口区中医院'}}"
"{'type': 'node', 'id': 2699673492, 'lat': 32.0660097, 'lon': 118.6251826, 'tags': {'amenity': 'hospital', 'name': '益丰大药房'}}"
"{'type': 'node', 'id': 2776540948, 'lat': 32.0665418, 'lon': 118.7474057, 'tags': {'amenity': 'hospital', 'emergency': 'yes', 'name': '南京艺术学院卫生所', 'wheelchair': 'yes'}}"
"{'type': 'node', 'id': 2787350620, 'lat': 32.1174846, 'lon': 119.1712028, 'tags': {'amenity': 'hospital', 'healthcare': 'hospital', 'name': '亭子卫生院'}}"
"{'type': 'node', 'id': 3233806861, 'lat': 32.194944, 'lon': 119.429346, 'tags': {'amenity': 'pharmacy', 'healthcare': 'pharmacy', 'name': '江大药店'}}"
"{'type': 'node', 'id': 3233964361, 'lat': 32.192616, 'lon': 119.414282, 'tags': {'amenity': 'pharmacy', 'healthcare': 'pharmacy', 'name': '存仁堂'}}"
"{'type': 'node', 'id': 3240693689, 'lat': 32.1329351, 'lon': 118.9341816, 'tags': {'amenity': 'hospital', 'healthcare': 'hospital', 'name': '医务室'}}"
"{'type': 'node', 'id': 3259459961, 'lat': 32.1546399, 'lon': 118.708356, 'tags': {'amenity': 'hospital', 'healthcare': 'hospital', 'name': '南京长海医院'}}"
"{'type': 'node', 'id': 3659825067, 'lat': 32.1808631, 'lon': 118.6971982, 'tags': {'amenity': 'hospital'}}"
"{'type': 'node', 'id': 3659825085, 'lat': 32.2042662, 'lon': 118.7387333, 'tags': {'amenity': 'hospital', 'name': '南钢医院'}}"
"{'type': 'node', 'id': 3659829032, 'lat': 32.1740887, 'lon': 118.711982, 'tags': {'amenity': 'hospital', 'name': '高新区医院'}}"
"{'type': 'node', 'id': 3887118658, 'lat': 32.0360045, 'lon': 118.7898348, 'tags': {'amenity': 'pharmacy', 'brand': '益丰大药房', 'brand:en': 'Yifeng Pharmacy', 'brand:wikidata': 'Q109766741', 'brand:zh': '益丰大药房', 'healthcare': 'pharmacy', 'name': '益丰大药房', 'name:en': 'Yifeng Pharmacy', 'name:zh': '益丰大药房'}}"
"{'type': 'node', 'id': 4080934511, 'lat': 31.7811861, 'lon': 118.8516662, 'tags': {'amenity': 'hospital', 'healthcare': 'hospital', 'name': '南京市江宁区第三人民医院'}}"
"{'type': 'node', 'id': 4142084665, 'lat': 32.3183003, 'lon': 118.8330826, 'tags': {'amenity': 'hospital', 'emergency': 'yes', 'name': '六合区中医院'}}"
"{'type': 'node', 'id': 4403656724, 'lat': 32.0427255, 'lon': 118.7710466, 'tags': {'amenity': 'hospital'}}"
"{'type': 'node', 'id': 4403838612, 'lat': 32.0294201, 'lon': 118.7660739, 'tags': {'amenity': 'hospital', 'name': '南京水西门老年护理院'}}"
"{'type': 'node', 'id': 4415977740, 'lat': 32.0970286, 'lon': 118.7808243, 'tags': {'amenity': 'pharmacy', 'name': '健兴堂大药房'}}"
"{'type': 'node', 'id': 4415977749, 'lat': 32.0958828, 'lon': 118.7806268, 'tags': {'amenity': 'hospital', 'name': '小市社区卫生服务中心'}}"
"{'type': 'node', 'id': 4415977761, 'lat': 32.0965669, 'lon': 118.7817117, 'tags': {'amenity': 'clinic', 'name': '新华诊所'}}"
"{'type': 'node', 'id': 4696544290, 'lat': 32.1045726, 'lon': 118.9032636, 'tags': {'amenity': 'hospital', 'healthcare': 'hospital', 'name': '校医院'}}"
"{'type': 'node', 'id': 4697397790, 'lat': 32.0382182, 'lon': 118.7892745, 'tags': {'addr:housenumber': '44', 'addr:street': '紅花地', 'amenity': 'clinic', 'name': '秦淮区妇幼保健所'}}"
"{'type': 'node', 'id': 5067276922, 'lat': 32.0736624, 'lon': 118.7759487, 'tags': {'addr:street': '童家巷', 'amenity': 'pharmacy', 'name:en': 'China Pharmaceutical university Xuanwumen'}}"
"{'type': 'node', 'id': 5251808322, 'lat': 32.0707995, 'lon': 118.7815085, 'tags': {'addr:housenumber': '1栋', 'addr:postcode': '210000', 'addr:street': '百子亭', 'amenity': 'hospital', 'healthcare': 'hospital', 'name': '江苏省肿瘤医院', 'name:en': 'Jiangsu Cancer Hospital', 'name:zh': '江苏省肿瘤医院', 'name:zh-Hans': '江苏省肿瘤医院', 'name:zh-Hant': '江蘇省腫瘤醫院'}}"
"{'type': 'node', 'id': 5255317820, 'lat': 31.9338627, 'lon': 118.8890748, 'tags': {'addr:city': '南京市', 'addr:district': '江宁区', 'addr:province': '江苏省', 'addr:street': '龙眠大道', 'amenity': 'hospital', 'emergency': 'yes', 'healthcare': 'hospital', 'name': '逸夫医院'}}"
"{'type': 'node', 'id': 5314427222, 'lat': 32.0731683, 'lon': 118.7717142, 'tags': {'amenity': 'hospital', 'name': '中大医院', 'name:en': 'Zhongda Hospital, Southeast University'}}"
"{'type': 'node', 'id': 5522511479, 'lat': 32.0836934, 'lon': 118.7670555, 'tags': {'amenity': 'clinic', 'healthcare': 'clinic', 'name': '学校门诊'}}"
"{'type': 'node', 'id': 5536911663, 'lat': 32.0825425, 'lon': 118.8222197, 'tags': {'amenity': 'hospital', 'healthcare': 'hospital'}}"
"{'type': 'node', 'id': 5549283141, 'lat': 32.0247696, 'lon': 118.7490939, 'tags': {'amenity': 'hospital', 'healthcare': 'hospital', 'name': '江苏省第二中医院'}}"
"{'type': 'node', 'id': 5577963568, 'lat': 32.0977977, 'lon': 118.932021, 'tags': {'amenity': 'hospital', 'healthcare': 'hospital', 'name': '泰康仙林鼓楼医院'}}"
"{'type': 'node', 'id': 5752850194, 'lat': 32.0359061, 'lon': 118.8982851, 'tags': {'amenity': 'hospital', 'healthcare': 'hospital', 'name': '花港社区卫生服务站'}}"
"{'type': 'node', 'id': 5843771695, 'lat': 31.9824111, 'lon': 118.7270558, 'tags': {'amenity': 'hospital', 'healthcare': 'hospital', 'name:en': 'Jiangsu international travel healthcare center'}}"
"{'type': 'node', 'id': 6348688896, 'lat': 32.0788678, 'lon': 118.8116747, 'tags': {'amenity': 'hospital', 'healthcare': 'hospital'}}"
"{'type': 'node', 'id': 6420322167, 'lat': 32.1768801, 'lon': 118.6675011, 'tags': {'amenity': 'hospital', 'name': '花旗医院'}}"
"{'type': 'node', 'id': 7403767595, 'lat': 32.046007, 'lon': 118.8181199, 'tags': {'amenity': 'hospital', 'healthcare': 'hospital', 'name': '熊猫医院', 'name:zh': '熊猫医院', 'name:zh-Hans': '熊猫医院', 'name:zh-Hant': '熊貓醫院'}}"
"{'type': 'node', 'id': 7689193084, 'lat': 31.7632682, 'lon': 118.2215347, 'tags': {'amenity': 'dentist', 'healthcare': 'dentist', 'name': '张记口腔门诊', 'name:en': 'Zhang Ji Oral Clinic', 'name:zh': '张记口腔门诊'}}"
"{'type': 'node', 'id': 7863703693, 'lat': 31.9714091, 'lon': 118.7721657, 'tags': {'amenity': 'hospital', 'healthcare': 'hospital'}}"
"{'type': 'node', 'id': 7863703696, 'lat': 31.971402, 'lon': 118.7713537, 'tags': {'amenity': 'hospital', 'healthcare': 'hospital'}}"
"{'type': 'node', 'id': 7915864004, 'lat': 31.9557884, 'lon': 118.7954679, 'tags': {'amenity': 'hospital', 'healthcare': 'hospital'}}"
"{'type': 'node', 'id': 7915864005, 'lat': 31.9558765, 'lon': 118.7935305, 'tags': {'amenity': 'hospital', 'healthcare': 'hospital'}}"
"{'type': 'node', 'id': 7915864006, 'lat': 31.955881, 'lon': 118.7939167, 'tags': {'amenity': 'hospital', 'healthcare': 'hospital'}}"
"{'type': 'node', 'id': 7915864008, 'lat': 31.9559129, 'lon': 118.7944746, 'tags': {'amenity': 'hospital', 'healthcare': 'hospital'}}"
"{'type': 'node', 'id': 7915864009, 'lat': 31.9559629, 'lon': 118.7927848, 'tags': {'amenity': 'hospital', 'healthcare': 'hospital'}}"
"{'type': 'node', 'id': 7977643295, 'lat': 32.0043386, 'lon': 118.7653945, 'tags': {'amenity': 'pharmacy', 'healthcare': 'pharmacy'}}"
"{'type': 'node', 'id': 7985404179, 'lat': 32.048469, 'lon': 118.7901751, 'tags': {'amenity': 'pharmacy', 'healthcare': 'pharmacy'}}"
"{'type': 'node', 'id': 7985405359, 'lat': 32.0417226, 'lon': 118.755643, 'tags': {'amenity': 'pharmacy'}}"
"{'type': 'node', 'id': 7985409198, 'lat': 32.0401638, 'lon': 118.7484306, 'tags': {'amenity': 'pharmacy', 'name:en': 'Yifeng Pharmacy'}}"
"{'type': 'node', 'id': 7985418506, 'lat': 32.0416917, 'lon': 118.8069112, 'tags': {'amenity': 'pharmacy', 'healthcare': 'pharmacy'}}"
"{'type': 'node', 'id': 8223414291, 'lat': 32.1035392, 'lon': 119.1170874, 'tags': {'amenity': 'hospital', 'healthcare': 'hospital', 'name': '华山社区卫生服务站'}}"
"{'type': 'node', 'id': 8223414292, 'lat': 32.102508, 'lon': 119.0838619, 'tags': {'amenity': 'hospital', 'healthcare': 'hospital', 'name': '卫生服务点'}}"
"{'type': 'node', 'id': 8226914914, 'lat': 32.1244963, 'lon': 119.0238021, 'tags': {'amenity': 'pharmacy', 'dispensing': 'yes', 'healthcare': 'pharmacy'}}"
"{'type': 'node', 'id': 8482713106, 'lat': 32.2074049, 'lon': 119.4389524, 'tags': {'amenity': 'pharmacy', 'dispensing': 'yes', 'healthcare': 'pharmacy'}}"
"{'type': 'node', 'id': 8482713110, 'lat': 32.2076708, 'lon': 119.4382574, 'tags': {'amenity': 'pharmacy', 'dispensing': 'yes', 'healthcare': 'pharmacy'}}"
"{'type': 'node', 'id': 8482713113, 'lat': 32.2072958, 'lon': 119.4383387, 'tags': {'amenity': 'pharmacy', 'dispensing': 'yes', 'healthcare': 'pharmacy', 'name': '大众医药'}}"
"{'type': 'node', 'id': 8482713114, 'lat': 32.2074541, 'lon': 119.4394648, 'tags': {'amenity': 'hospital', 'healthcare': 'hospital', 'name': '镇江市儿童医院'}}"
"{'type': 'node', 'id': 8482713142, 'lat': 32.2084434, 'lon': 119.4410351, 'tags': {'amenity': 'hospital', 'healthcare': 'hospital', 'name': '镇江康复眼科医院'}}"
"{'type': 'node', 'id': 8516261442, 'lat': 32.0847097, 'lon': 118.751028, 'tags': {'addr:housenumber': '307-1', 'addr:postcode': '210003', 'addr:street': '中山北路', 'amenity': 'hospital', 'healthcare': 'hospital', 'name': '南京儿童医院'}}"
"{'type': 'node', 'id': 8516261445, 'lat': 32.0851269, 'lon': 118.7516011, 'tags': {'amenity': 'hospital', 'healthcare': 'hospital'}}"
"{'type': 'node', 'id': 8827506995, 'lat': 31.4418998, 'lon': 119.4441869, 'tags': {'amenity': 'pharmacy'}}"
"{'type': 'node', 'id': 8829683358, 'lat': 31.4242824, 'lon': 119.4833487, 'tags': {'amenity': 'pharmacy'}}"
"{'type': 'node', 'id': 8892028868, 'lat': 32.0414026, 'lon': 118.7815441, 'tags': {'amenity': 'pharmacy', 'brand': 'Watsons', 'brand:wikidata': 'Q7974785', 'brand:wikipedia': 'en:Watsons', 'dispensing': 'yes', 'healthcare': 'pharmacy', 'name': 'Watsons', 'name:zh': '屈臣氏'}}"
"{'type': 'node', 'id': 8904177117, 'lat': 32.1015195, 'lon': 118.9151905, 'tags': {'amenity': 'clinic', 'name': '轩德堂中医门诊'}}"
"{'type': 'node', 'id': 9168779507, 'lat': 32.0362448, 'lon': 118.7405258, 'tags': {'healthcare': 'yes', 'name': '固生堂南京宁西中医门诊部'}}"
"{'type': 'node', 'id': 9516996694, 'lat': 32.3457869, 'lon': 119.3921073, 'tags': {'alt_name': '医务室;扬子津校区医务室', 'amenity': 'clinic', 'healthcare': 'clinic', 'name': '扬州大学扬子津校区卫生所'}}"
"{'type': 'node', 'id': 9518509143, 'lat': 32.3465509, 'lon': 119.3916495, 'tags': {'healthcare': 'counselling', 'healthcare:speciality': 'psychiatry', 'name': '心理咨询', 'opening_hours': 'unknown'}}"
"{'type': 'node', 'id': 9620918476, 'lat': 32.0390059, 'lon': 118.6414522, 'tags': {'amenity': 'pharmacy', 'dispensing': 'yes', 'healthcare': 'pharmacy', 'name': '南京人民药店'}}"
"{'type': 'node', 'id': 9722010991, 'lat': 32.0566603, 'lon': 118.9052284, 'tags': {'healthcare': 'yes', 'name': '新冠肺炎核酸检测'}}"
"{'type': 'node', 'id': 9938580862, 'lat': 32.0081325, 'lon': 118.6796514, 'tags': {'healthcare': 'yes', 'name': '新冠肺炎核酸检测'}}"
"{'type': 'node', 'id': 11524440034, 'lat': 32.1359873, 'lon': 118.6960475, 'tags': {'amenity': 'clinic', 'healthcare': 'clinic', 'name': '卫生所'}}"
"{'type': 'node', 'id': 11559766179, 'lat': 32.1757918, 'lon': 119.0702708, 'tags': {'amenity': 'clinic'}}"
"{'type': 'node', 'id': 11578192970, 'lat': 31.9554053, 'lon': 118.8108111, 'tags': {'amenity': 'dentist', 'healthcare': 'dentist', 'name': '江苏省口腔医院-第六门诊部', 'opening_hours': '周一至周日 09:00-17:30', 'phone': '+86 25 5228 3229'}}"
"{'type': 'node', 'id': 11578193338, 'lat': 31.9475051, 'lon': 118.8180264, 'tags': {'healthcare': 'audiologist', 'name': '杨波采耳'}}"
"{'type': 'node', 'id': 11586907866, 'lat': 31.9620877, 'lon': 118.8527266, 'tags': {'amenity': 'clinic', 'healthcare': 'clinic', 'name': '时花卫生所', 'opening_hours': '周一至周日 08:00-11:30,13:30-20:00'}}"
"{'type': 'node', 'id': 11601342612, 'lat': 31.9456803, 'lon': 118.8701803, 'tags': {'amenity': 'clinic', 'healthcare': 'clinic', 'name': '南京赐康诊所', 'opening_hours': '08:00-21:00', 'phone': '+86 25 5271 9423'}}"
"{'type': 'node', 'id': 11659047418, 'lat': 31.9393031, 'lon': 118.8401569, 'tags': {'amenity': 'pharmacy', 'healthcare': 'pharmacy', 'name': '南京佑华大药房', 'opening_hours': '07:30-22:30', 'phone': '+86 25 5216 8351'}}"
"{'type': 'node', 'id': 11786153208, 'lat': 31.9759749, 'lon': 118.8379798, 'tags': {'amenity': 'pharmacy', 'healthcare': 'pharmacy', 'name': '嘉伦光彩大药房', 'opening_hours': '9:00-22:00'}}"
"{'type': 'node', 'id': 11786706394, 'lat': 32.0017811, 'lon': 118.784931, 'tags': {'amenity': 'hospital', 'healthcare': 'hospital', 'name': '普天职工医院'}}"
"{'type': 'node', 'id': 11786706536, 'lat': 32.0016493, 'lon': 118.7892997, 'tags': {'amenity': 'pharmacy', 'healthcare': 'pharmacy', 'name': '南京上元堂药店', 'opening_hours': '07:30-21:30', 'phone': '+86 25 8649 4677'}}"
"{'type': 'node', 'id': 11811229567, 'lat': 32.2115859, 'lon': 119.4360188, 'tags': {'amenity': 'pharmacy', 'healthcare': 'pharmacy', 'name': '海王星辰健康药房(宝塔路店)'}}"
"{'type': 'node', 'id': 12067881933, 'lat': 32.1336672, 'lon': 118.8844835, 'tags': {'amenity': 'pharmacy', 'healthcare': 'pharmacy', 'name': '先声再康药房', 'operator': '先声再康江苏药业有限公司'}}"
"{'type': 'node', 'id': 12099109620, 'lat': 32.1171863, 'lon': 118.870803, 'tags': {'amenity': 'pharmacy', 'healthcare': 'pharmacy', 'name': '先声再康尧化一村药店'}}"
"{'type': 'node', 'id': 12099109621, 'lat': 32.1173564, 'lon': 118.8711205, 'tags': {'amenity': 'pharmacy', 'healthcare': 'pharmacy', 'name': '奇冠药店'}}"
"{'type': 'node', 'id': 12116975644, 'lat': 32.1197435, 'lon': 118.8426505, 'tags': {'amenity': 'pharmacy', 'name': '南京人民药店no.8'}}"
"{'type': 'node', 'id': 12121318874, 'lat': 32.1180613, 'lon': 118.8521021, 'tags': {'amenity': 'pharmacy', 'healthcare': 'pharmacy', 'name': '先声再康药店丁家庄药店', 'operator': '先声再康'}}"
"{'type': 'node', 'id': 12121653517, 'lat': 31.9643059, 'lon': 118.7100779, 'tags': {'healthcare': 'podiatrist', 'operator': '百姓足疗'}}"
"{'type': 'node', 'id': 12121663595, 'lat': 31.9617971, 'lon': 118.7095824, 'tags': {'healthcare': 'yes', 'name': '建邺区莲花社区卫生服务中心'}}"
"{'type': 'node', 'id': 12121663596, 'lat': 31.9614625, 'lon': 118.7089119, 'tags': {'healthcare': 'yes', 'name': '南京健华康复医院'}}"
"{'type': 'node', 'id': 12131253011, 'lat': 31.8108887, 'lon': 118.6978599, 'tags': {'healthcare': 'yes', 'name': '公塘社区卫生服务站'}}"
"{'type': 'node', 'id': 12140673917, 'lat': 32.1647599, 'lon': 118.8642383, 'tags': {'amenity': 'pharmacy', 'name': '康悦大药房'}}"
"{'type': 'node', 'id': 12151359810, 'lat': 32.1337776, 'lon': 118.8457122, 'tags': {'amenity': 'pharmacy', 'name': '叮当智慧药房'}}"
"{'type': 'node', 'id': 12151359812, 'lat': 32.1333233, 'lon': 118.8445012, 'tags': {'amenity': 'clinic', 'name': '春树诊所'}}"
"{'type': 'node', 'id': 12151881116, 'lat': 32.1354674, 'lon': 118.8433841, 'tags': {'amenity': 'pharmacy', 'name': '南京颐和堂平价药店'}}"
"{'type': 'node', 'id': 12151881118, 'lat': 32.1346816, 'lon': 118.8437971, 'tags': {'amenity': 'clinic', 'name': '南京栖霞寿富诊所'}}"
"{'type': 'node', 'id': 12151881119, 'lat': 32.1345294, 'lon': 118.8438696, 'tags': {'amenity': 'pharmacy', 'name': '益丰大药房'}}"
"{'type': 'node', 'id': 12151944902, 'lat': 32.1330462, 'lon': 118.8438843, 'tags': {'amenity': 'pharmacy', 'name': '益君大药房'}}"
"{'type': 'node', 'id': 12154103941, 'lat': 32.1365236, 'lon': 118.8430032, 'tags': {'amenity': 'pharmacy', 'name': '海王星辰健康药店'}}"
"{'type': 'node', 'id': 12161289496, 'lat': 32.0086147, 'lon': 118.8555619, 'tags': {'healthcare': 'rehabilitation', 'healthcare:speciality': 'dermatology;internal', 'name': '瑞鑫医院'}}"
"{'type': 'node', 'id': 12162176626, 'lat': 32.1277221, 'lon': 118.8320652, 'tags': {'amenity': 'clinic', 'name': '南京市栖霞宜方堂中医诊所'}}"
"{'type': 'node', 'id': 12162749129, 'lat': 32.1242171, 'lon': 118.8315958, 'tags': {'amenity': 'pharmacy', 'name': '老百姓大药房'}}"
"{'type': 'node', 'id': 12220741570, 'lat': 32.3913454, 'lon': 119.3768039, 'tags': {'amenity': 'clinic', 'check_date': '2024-10-03', 'healthcare': 'clinic', 'name': '普惠体检', 'name:en': 'Puhui'}}"
"{'type': 'node', 'id': 12336803807, 'lat': 32.1165162, 'lon': 118.8266042, 'tags': {'amenity': 'hospital', 'name': '奋斗社区卫生服务站'}}"
