OSM_Data
"{'type': 'node', 'id': 546985068, 'lat': 42.6923014, 'lon': 26.3433267, 'tags': {'amenity': 'hospital', 'name': 'АГ ЕВА'}}"
"{'type': 'node', 'id': 619171666, 'lat': 42.47282, 'lon': 26.5221046, 'tags': {'amenity': 'pharmacy', 'name': 'Здравец', 'name:en': 'Zdravets'}}"
"{'type': 'node', 'id': 619171667, 'lat': 42.474634, 'lon': 26.5261905, 'tags': {'amenity': 'pharmacy', 'name': 'Диана', 'name:en': 'Diana', 'opening_hours': '24/7'}}"
"{'type': 'node', 'id': 619174364, 'lat': 42.4810936, 'lon': 26.5141448, 'tags': {'amenity': 'pharmacy', 'name': 'Бакалова', 'name:en': 'Bakalova'}}"
"{'type': 'node', 'id': 621620408, 'lat': 42.481006, 'lon': 26.5154953, 'tags': {'amenity': 'pharmacy', 'name': 'Божилов', 'name:en': 'Bozhilov'}}"
"{'type': 'node', 'id': 634155513, 'lat': 42.4827552, 'lon': 26.5120409, 'tags': {'addr:city': 'Ямбол', 'addr:housenumber': '28', 'addr:postcode': '8600', 'addr:street': 'Стефан Караджа', 'amenity': 'pharmacy', 'drive_through': 'no', 'healthcare': 'pharmacy', 'name': 'Лили 11', 'opening_hours': 'Mo-Fr 08:00-19:00; Sa-Su 09:00-17:00'}}"
"{'type': 'node', 'id': 686250428, 'lat': 42.4829665, 'lon': 26.5131973, 'tags': {'amenity': 'pharmacy', 'name': 'Мултифарм', 'name:en': 'Multipharm'}}"
"{'type': 'node', 'id': 909520055, 'lat': 42.6991107, 'lon': 25.8951074, 'tags': {'amenity': 'pharmacy'}}"
"{'type': 'node', 'id': 1168832505, 'lat': 42.2881219, 'lon': 25.9326287, 'tags': {'amenity': 'pharmacy', 'healthcare': 'pharmacy', 'name': 'Магифарм'}}"
"{'type': 'node', 'id': 1168832508, 'lat': 42.2925766, 'lon': 25.9373577, 'tags': {'amenity': 'pharmacy'}}"
"{'type': 'node', 'id': 1168832516, 'lat': 42.291879, 'lon': 25.9379585, 'tags': {'amenity': 'pharmacy'}}"
"{'type': 'node', 'id': 1168832518, 'lat': 42.2918269, 'lon': 25.9361256, 'tags': {'amenity': 'pharmacy'}}"
"{'type': 'node', 'id': 1399305740, 'lat': 42.7014401, 'lon': 25.8993304, 'tags': {'addr:housenumber': '52', 'addr:postcode': '8890', 'addr:street': 'Княз Борис I', 'amenity': 'pharmacy', 'contact:phone': '+359 454 42 700', 'name': 'Олияна Чорбаджиева ЕТ'}}"
"{'type': 'node', 'id': 2260219791, 'lat': 42.6792707, 'lon': 26.30971, 'tags': {'amenity': 'pharmacy', 'brand': 'Марешки', 'brand:wikidata': 'Q108852051', 'healthcare': 'pharmacy', 'name': 'Марешки', 'name:en': 'Mareshki'}}"
"{'type': 'node', 'id': 2260219807, 'lat': 42.6786745, 'lon': 26.3121797, 'tags': {'amenity': 'pharmacy', 'healthcare': 'pharmacy'}}"
"{'type': 'node', 'id': 2260219815, 'lat': 42.6794492, 'lon': 26.3111254, 'tags': {'amenity': 'pharmacy', 'dispensing': 'no', 'healthcare': 'pharmacy'}}"
"{'type': 'node', 'id': 2343485517, 'lat': 42.6818376, 'lon': 26.3310085, 'tags': {'amenity': 'hospital', 'emergency': 'no', 'healthcare': 'hospital', 'name': 'МБАЛ Д-р ""Иван Селимински"" - инфекциозно отделение'}}"
"{'type': 'node', 'id': 2343485536, 'lat': 42.6817981, 'lon': 26.3313755, 'tags': {'amenity': 'hospital', 'emergency': 'no', 'healthcare': 'hospital', 'name': 'СБАЛ по белодробни болести'}}"
"{'type': 'node', 'id': 2939265250, 'lat': 42.6688632, 'lon': 26.3352476, 'tags': {'amenity': 'pharmacy', 'dispensing': 'yes', 'healthcare': 'pharmacy', 'name': 'АПТЕКА 6'}}"
"{'type': 'node', 'id': 2939277062, 'lat': 42.6755712, 'lon': 26.3239392, 'tags': {'amenity': 'pharmacy', 'healthcare': 'pharmacy', 'name': 'Авицена'}}"
"{'type': 'node', 'id': 2939277569, 'lat': 42.6762073, 'lon': 26.3239437, 'tags': {'amenity': 'clinic', 'healthcare': 'clinic', 'name': 'Център по хемодиализа'}}"
"{'type': 'node', 'id': 2939292943, 'lat': 42.6795389, 'lon': 26.3183638, 'tags': {'amenity': 'clinic', 'healthcare': 'clinic', 'name': 'КЛИНИКА РОСЕН МАНОЛОВ'}}"
"{'type': 'node', 'id': 2939308404, 'lat': 42.6791006, 'lon': 26.3149451, 'tags': {'amenity': 'clinic', 'healthcare': 'clinic', 'name': 'Клиника д-р Котов'}}"
"{'type': 'node', 'id': 2949129450, 'lat': 42.6925078, 'lon': 26.343841, 'tags': {'amenity': 'hospital', 'name': 'Св. Анна'}}"
"{'type': 'node', 'id': 3314878870, 'lat': 42.6847004, 'lon': 26.316727, 'tags': {'addr:city': 'Сливен', 'addr:housenumber': '9', 'addr:postcode': '8800', 'addr:street': 'Чайковски', 'amenity': 'hospital', 'healthcare': 'dentist', 'healthcare:speciality': 'dentist', 'name': 'Д-р. Жечкова', 'name:de': 'Zahnarztpraxis Zhechkova', 'name:en': 'Dental Practice Zhechkova', 'name:fr': 'Dentiste Zhechkova', 'name:nl': 'Tandarts Zhechkova', 'name:ru': 'Дентист Жечкова'}}"
"{'type': 'node', 'id': 3473412983, 'lat': 42.6888796, 'lon': 26.3402839, 'tags': {'amenity': 'pharmacy', 'healthcare': 'pharmacy', 'wheelchair': 'no'}}"
"{'type': 'node', 'id': 3473423002, 'lat': 42.6842376, 'lon': 26.3435466, 'tags': {'amenity': 'pharmacy', 'brand': 'Марешки', 'brand:wikidata': 'Q108852051', 'check_date': '2015-04-23', 'healthcare': 'pharmacy', 'name': 'Марешки', 'name:bg': 'Марешки', 'name:en': 'Mareshki'}}"
"{'type': 'node', 'id': 3473472719, 'lat': 42.669008, 'lon': 26.3344056, 'tags': {'amenity': 'doctors', 'healthcare': 'doctor', 'name': 'Амброаз Паре'}}"
"{'type': 'node', 'id': 3480871674, 'lat': 42.6781473, 'lon': 26.3176016, 'tags': {'amenity': 'hospital', 'healthcare': 'hospital', 'name': 'БОДИЛАБ'}}"
"{'type': 'node', 'id': 3623851997, 'lat': 42.5984925, 'lon': 26.6920078, 'tags': {'amenity': 'pharmacy', 'healthcare': 'pharmacy', 'name': 'Здраве', 'name:en': 'Zdrave'}}"
"{'type': 'node', 'id': 3745051739, 'lat': 42.4797533, 'lon': 26.3970127, 'tags': {'amenity': 'hospital', 'name': 'Здравен дом'}}"
"{'type': 'node', 'id': 3932298359, 'lat': 42.6754297, 'lon': 26.3245044, 'tags': {'amenity': 'clinic', 'emergency': 'yes', 'healthcare': 'clinic', 'name': 'ДКЦ1'}}"
"{'type': 'node', 'id': 3932298362, 'lat': 42.676308, 'lon': 26.3252651, 'tags': {'amenity': 'clinic', 'healthcare': 'clinic', 'name': 'МЦ Миркович'}}"
"{'type': 'node', 'id': 4336774094, 'lat': 42.2917341, 'lon': 25.93706, 'tags': {'addr:city': 'Раднево', 'addr:housenumber': '14', 'addr:street': 'Георги Димитров', 'amenity': 'pharmacy', 'description': 'Аптека Раднево Пенева”Зелени рецепти, Здравна каса, Хранителни добавки', 'name': 'Дани Фарма'}}"
"{'type': 'node', 'id': 4352366388, 'lat': 42.4812565, 'lon': 26.4924331, 'tags': {'amenity': 'pharmacy', 'healthcare': 'pharmacy', 'name': 'Златен рог', 'name:en': 'Zlaten Rog', 'opening_hours': '08:00-17:00'}}"
"{'type': 'node', 'id': 4386938690, 'lat': 42.1729221, 'lon': 26.5678675, 'tags': {'addr:housenumber': '8', 'addr:postcode': '8700', 'addr:street': 'Белград', 'amenity': 'dentist', 'healthcare': 'dentist', 'name': 'Светослав Тричков - стоматолог', 'name:bg': 'Светослав Тричков - стоматолог', 'opening_hours': 'Mo-Sa 08:00-18:00'}}"
"{'type': 'node', 'id': 4465967094, 'lat': 42.4879641, 'lon': 26.5132278, 'tags': {'addr:housenumber': '59', 'addr:postcode': '8600', 'addr:street': 'Янко Сакъзов', 'amenity': 'dentist', 'email': 'st_jivko@abv.bg', 'healthcare': 'dentist', 'internet_access': 'wlan', 'name': 'Д-р Станеви', 'opening_hours': 'Mo-Fr 09:00-18:00', 'phone': '+359 88 777 9353', 'website': 'http://stanevi.free.bg'}}"
"{'type': 'node', 'id': 4530908868, 'lat': 42.4819352, 'lon': 26.5123785, 'tags': {'addr:city': 'Ямбол', 'addr:housenumber': '31', 'addr:postcode': '8600', 'addr:street': 'Търговска', 'amenity': 'pharmacy', 'healthcare': 'pharmacy', 'name': 'Афиа', 'name:bg': 'Афиа', 'name:en': 'Afya', 'opening_hours': 'Mo-Fr 08:00-20:00; Sa-Su 09:00-19:00', 'website': 'https://www.afya-pharmacy.bg/'}}"
"{'type': 'node', 'id': 4531489489, 'lat': 42.4822803, 'lon': 26.5074349, 'tags': {'amenity': 'pharmacy', 'name': 'Здраве', 'name:en': 'Zdrave'}}"
"{'type': 'node', 'id': 4539841301, 'lat': 42.4864485, 'lon': 26.5051539, 'tags': {'amenity': 'pharmacy', 'name': 'Мултифарм', 'name:en': 'Multipharm'}}"
"{'type': 'node', 'id': 4539841302, 'lat': 42.4796738, 'lon': 26.5002561, 'tags': {'amenity': 'pharmacy', 'name': 'Мултифарм', 'name:en': 'Multipharm'}}"
"{'type': 'node', 'id': 4539841303, 'lat': 42.4879975, 'lon': 26.5112882, 'tags': {'amenity': 'pharmacy', 'name': 'Мултифарм', 'name:en': 'Multipharm', 'opening_hours': '24/7'}}"
"{'type': 'node', 'id': 4539842435, 'lat': 42.4830672, 'lon': 26.5160101, 'tags': {'amenity': 'pharmacy', 'name': 'Мултифарм', 'name:en': 'Multipharm'}}"
"{'type': 'node', 'id': 4539842436, 'lat': 42.4999267, 'lon': 26.5273977, 'tags': {'amenity': 'pharmacy', 'name': 'Мултифарм', 'name:en': 'Multipharm'}}"
"{'type': 'node', 'id': 4539842437, 'lat': 42.4764317, 'lon': 26.4993598, 'tags': {'amenity': 'pharmacy', 'name': 'Мултифарм', 'name:en': 'Multipharm'}}"
"{'type': 'node', 'id': 4539857942, 'lat': 42.1719491, 'lon': 26.5685343, 'tags': {'amenity': 'pharmacy', 'healthcare': 'pharmacy', 'name': 'Мултифарм', 'name:en': 'Multipharm'}}"
"{'type': 'node', 'id': 4741963326, 'lat': 42.5798482, 'lon': 26.6053569, 'tags': {'amenity': 'pharmacy', 'healthcare': 'pharmacy', 'name': 'Яна', 'name:en': 'Yana'}}"
"{'type': 'node', 'id': 4795170705, 'lat': 42.4774994, 'lon': 26.5178921, 'tags': {'amenity': 'pharmacy', 'name': 'Ceiba'}}"
"{'type': 'node', 'id': 5062640460, 'lat': 42.6468159, 'lon': 26.9845613, 'tags': {'amenity': 'pharmacy', 'healthcare': 'pharmacy'}}"
"{'type': 'node', 'id': 5159109918, 'lat': 42.6789412, 'lon': 26.3111972, 'tags': {'addr:city': 'Сливен', 'addr:housenumber': '2', 'addr:postcode': '8800', 'addr:street': 'бул. Стефан Караджа', 'addr:unit': 'ет.1', 'contact:facebook': 'https://www.facebook.com/biogeniswater/', 'contact:instagram': 'instagram.com/biogenis/', 'email': 'sales@biogenis.biz', 'healthcare': 'centre', 'healthcare:speciality': 'detox;hydrogen_water;reverse_osmosis', 'name': 'Биогенис', 'operator': 'Biomedis', 'phone': '+359 87 825 7821', 'website': 'https://biogenis.biz/'}}"
"{'type': 'node', 'id': 5303140488, 'lat': 42.1394398, 'lon': 25.8676073, 'tags': {'amenity': 'pharmacy', 'brand': 'Марешки', 'brand:wikidata': 'Q108852051', 'healthcare': 'pharmacy', 'name': 'Марешки', 'name:en': 'Mareshki'}}"
"{'type': 'node', 'id': 5303140496, 'lat': 42.1385666, 'lon': 25.8655366, 'tags': {'amenity': 'pharmacy', 'healthcare': 'pharmacy'}}"
"{'type': 'node', 'id': 5337412135, 'lat': 42.5965182, 'lon': 26.6914971, 'tags': {'amenity': 'pharmacy', 'healthcare': 'pharmacy'}}"
"{'type': 'node', 'id': 5348798611, 'lat': 42.1717678, 'lon': 26.5690834, 'tags': {'amenity': 'pharmacy', 'healthcare': 'pharmacy'}}"
"{'type': 'node', 'id': 5351018989, 'lat': 42.1766801, 'lon': 26.5798134, 'tags': {'amenity': 'pharmacy', 'healthcare': 'pharmacy'}}"
"{'type': 'node', 'id': 5660586828, 'lat': 42.1491282, 'lon': 26.8112413, 'tags': {'amenity': 'pharmacy', 'dispensing': 'yes', 'healthcare': 'pharmacy'}}"
"{'type': 'node', 'id': 6161366544, 'lat': 42.1393622, 'lon': 25.8708152, 'tags': {'amenity': 'pharmacy', 'brand': 'Фрамар', 'brand:wikidata': 'Q108852095', 'healthcare': 'pharmacy', 'name': 'Фрамар', 'name:en': 'Framar', 'opening_hours': '24/7'}}"
"{'type': 'node', 'id': 6968252734, 'lat': 42.4799688, 'lon': 26.5001796, 'tags': {'addr:city': 'Ямбол', 'addr:housenumber': '1', 'addr:street': 'Ивайло', 'amenity': 'doctors', 'description': 'Специалист неврология. Дейности: Обща неврология Остри разтройства на мозъчното кръвообращение Множествена склероза Болест на Паркинсон Съвременна диагностика и лечение на епилепсия ЕЕГ, ЕМГ Доплерова сонография Работи с НЗОК.', 'healthcare': 'doctor', 'name': 'Д-р Димитър Брънков', 'phone': '+359 88 783 1818', 'website': 'https://dr-brynkov.business.site/'}}"
"{'type': 'node', 'id': 8572590173, 'lat': 42.0850229, 'lon': 26.3334342, 'tags': {'amenity': 'pharmacy', 'dispensing': 'yes', 'healthcare': 'pharmacy'}}"
"{'type': 'node', 'id': 9952140148, 'lat': 42.0345009, 'lon': 25.8308927, 'tags': {'amenity': 'clinic', 'healthcare': 'clinic'}}"
"{'type': 'node', 'id': 10293063603, 'lat': 43.0460717, 'lon': 25.8906662, 'tags': {'amenity': 'pharmacy', 'brand': 'Марешки', 'brand:wikidata': 'Q108852051', 'healthcare': 'pharmacy', 'name': 'Марешки', 'name:en': 'Mareshki'}}"
"{'type': 'node', 'id': 10293121186, 'lat': 42.9297836, 'lon': 25.877448, 'tags': {'amenity': 'pharmacy'}}"
"{'type': 'node', 'id': 10293134412, 'lat': 43.0456714, 'lon': 25.8910833, 'tags': {'amenity': 'pharmacy', 'name': 'Бендида'}}"
"{'type': 'node', 'id': 10293139092, 'lat': 42.9298969, 'lon': 25.8803609, 'tags': {'amenity': 'pharmacy', 'brand': 'Марешки', 'brand:wikidata': 'Q108852051', 'healthcare': 'pharmacy', 'name': 'Марешки', 'name:en': 'Mareshki'}}"
"{'type': 'node', 'id': 10293147910, 'lat': 42.9294159, 'lon': 25.8806235, 'tags': {'amenity': 'pharmacy', 'brand': 'SOpharmacy', 'brand:wikidata': 'Q108852081', 'healthcare': 'pharmacy', 'name': 'SOpharmacy'}}"
"{'type': 'node', 'id': 10682700984, 'lat': 41.842949, 'lon': 26.0808764, 'tags': {'amenity': 'pharmacy', 'healthcare': 'pharmacy'}}"
"{'type': 'node', 'id': 10682700985, 'lat': 41.8477512, 'lon': 26.0772465, 'tags': {'healthcare': 'yes'}}"
"{'type': 'node', 'id': 10683407022, 'lat': 41.8403012, 'lon': 26.0854224, 'tags': {'amenity': 'dentist', 'healthcare': 'dentist'}}"
"{'type': 'node', 'id': 10842097319, 'lat': 42.8867526, 'lon': 26.4496804, 'tags': {'amenity': 'pharmacy', 'brand': 'Марешки', 'brand:wikidata': 'Q108852051', 'healthcare': 'pharmacy', 'name': 'Марешки', 'name:en': 'Mareshki'}}"
"{'type': 'node', 'id': 11220948622, 'lat': 42.4824614, 'lon': 26.494072, 'tags': {'addr:city': 'Ямбол', 'addr:postcode': '8600', 'amenity': 'pharmacy', 'dispensing': 'yes', 'drive_through': 'no', 'facebook': 'https://www.facebook.com/orangepharmacy.yambol/', 'healthcare': 'pharmacy', 'name': 'Ориндж', 'opening_hours': 'Mo-Fr 08:00-19:00; Sa-Su 08:00-18:00'}}"
"{'type': 'node', 'id': 11291552030, 'lat': 42.6763724, 'lon': 26.3244132, 'tags': {'amenity': 'clinic', 'healthcare': 'clinic', 'name': 'Клиника по детски болести'}}"
"{'type': 'node', 'id': 11291552050, 'lat': 42.6763503, 'lon': 26.3237755, 'tags': {'amenity': 'clinic', 'healthcare': 'clinic', 'name': 'Център по кардиология'}}"
"{'type': 'node', 'id': 11291552054, 'lat': 42.6746044, 'lon': 26.32645, 'tags': {'amenity': 'clinic', 'healthcare': 'clinic', 'name': 'Отделение по кожни болести'}}"
"{'type': 'node', 'id': 11295650575, 'lat': 42.6689117, 'lon': 26.3340001, 'tags': {'healthcare': 'yes'}}"
"{'type': 'node', 'id': 11296661148, 'lat': 42.6785247, 'lon': 26.3112909, 'tags': {'healthcare': 'yes', 'name': 'ТЕЛК Сливен'}}"
"{'type': 'node', 'id': 11302308986, 'lat': 42.681525, 'lon': 26.3233855, 'tags': {'amenity': 'clinic', 'healthcare': 'clinic', 'name': 'МЦ Медикус'}}"
"{'type': 'node', 'id': 11429081017, 'lat': 42.5795057, 'lon': 26.6063641, 'tags': {'amenity': 'pharmacy'}}"
"{'type': 'node', 'id': 11483500095, 'lat': 42.4868771, 'lon': 26.515973, 'tags': {'addr:city': 'Ямбол', 'addr:housenumber': '35', 'addr:postcode': '8600', 'addr:street': 'Ангел Кънчев', 'amenity': 'clinic', 'fixme': 'verify addr:housenumber', 'healthcare': 'clinic', 'healthcare:speciality': 'cardiology;gynaecology;clinical_laboratory;pneulogy;phthisiology', 'name': 'МЦ ""Европейска здравна грижа""', 'operator': 'Български кардиологичен институт', 'operator:type': 'private', 'phone': '+359 46 662 389'}}"
"{'type': 'node', 'id': 11733513621, 'lat': 42.490442, 'lon': 26.0145897, 'tags': {'amenity': 'doctors', 'brand': 'Bodimed', 'brand:wikidata': 'Q110583446', 'contact:email': 'office@bodimed.com', 'contact:facebook': 'https://www.facebook.com/bodimed.laboratory', 'contact:instagram': 'https://www.instagram.com/bodimed.laboratory', 'contact:linkedin': 'https://bg.linkedin.com/company/bodimed-medical-diagnostic-laboratory', 'contact:phone': '+359 700 70 113', 'contact:website': 'https://bodimed.com', 'healthcare': 'laboratory', 'int_name': 'Bodimed', 'name': 'Bodimed', 'name:bg': 'Бодимед', 'name:en': 'Bodimed', 'opening_hours': 'Mo-Fr 07:30-15:00'}}"
"{'type': 'node', 'id': 11773739770, 'lat': 41.8391429, 'lon': 26.7358287, 'tags': {'amenity': 'pharmacy', 'healthcare': 'pharmacy', 'name': 'Beyhan Eczanesi', 'phone': '+90 284 321 4082'}}"
"{'type': 'node', 'id': 11773739874, 'lat': 41.8392861, 'lon': 26.7329228, 'tags': {'amenity': 'pharmacy', 'healthcare': 'pharmacy', 'name': 'Sevil Eczanesi', 'phone': '+90 284 321 4032'}}"
"{'type': 'node', 'id': 12516405859, 'lat': 42.4869512, 'lon': 26.5056437, 'tags': {'amenity': 'dentist', 'healthcare': 'dentist', 'name': 'Дентален център'}}"
