OSM_Data
"{'type': 'node', 'id': 3393514702, 'lat': 25.0316253, 'lon': 98.5095903, 'tags': {'addr:postcode': '679100', 'amenity': 'hospital', 'emergency': 'yes', 'healthcare': 'hospital', 'name': '腾冲健君医院', 'wheelchair': 'limited'}}"
"{'type': 'node', 'id': 3394718884, 'lat': 25.0189181, 'lon': 98.4970269, 'tags': {'amenity': 'hospital', 'healthcare': 'hospital', 'name': '腾冲市妇幼保健院'}}"
"{'type': 'node', 'id': 4312085290, 'lat': 24.2533132, 'lon': 97.2766736, 'tags': {'addr:city': 'ဗန်းမော်', 'amenity': 'hospital', 'healthcare': 'hospital', 'name': 'မဆရ ၁၁', 'opening_hours': '24/7', 'operator': 'Military'}}"
"{'type': 'node', 'id': 4359972189, 'lat': 24.2498539, 'lon': 97.3460948, 'tags': {'amenity': 'clinic', 'name': 'စွမ်းဆေးခန်း', 'name:en': 'Swan Clinic', 'opening_hours': '15:30-20:00'}}"
"{'type': 'node', 'id': 5016686073, 'lat': 24.1792062, 'lon': 97.7860304, 'tags': {'amenity': 'hospital', 'name': '陇川县卫生防疫站'}}"
"{'type': 'node', 'id': 5016686109, 'lat': 24.1870754, 'lon': 97.7999202, 'tags': {'amenity': 'hospital', 'name': '陇川县第一人民医院'}}"
"{'type': 'node', 'id': 5016686732, 'lat': 24.1737896, 'lon': 97.7973186, 'tags': {'addr:city': '德宏傣族景颇族自治州', 'addr:district': '陇川县', 'addr:postcode': '678700', 'addr:province': '云南省', 'addr:street': '友谊路', 'amenity': 'hospital', 'emergency': 'yes', 'healthcare': 'hospital', 'healthcare:speciality': 'maternal_and_child_health', 'name': '陇川县妇幼保健院', 'phone': '+86 692 717 6661'}}"
"{'type': 'node', 'id': 5018273602, 'lat': 24.8069715, 'lon': 98.2984214, 'tags': {'amenity': 'hospital', 'healthcare': 'hospital', 'name': '梁河县人民医院'}}"
"{'type': 'node', 'id': 5018273654, 'lat': 24.8116859, 'lon': 98.2985462, 'tags': {'amenity': 'hospital', 'healthcare': 'hospital', 'name': '梁河县疾控中心'}}"
"{'type': 'node', 'id': 7120445030, 'lat': 25.3758218, 'lon': 97.3736128, 'tags': {'healthcare': 'rehabilitation', 'name': 'Rebirth Drug Rehabilitation Center', 'operator': 'Myitkyina diocese'}}"
"{'type': 'node', 'id': 7858159682, 'lat': 24.12313, 'lon': 97.29589, 'tags': {'COVID_BED': 'No', 'COVID_ICU': 'No', 'COVID_TEST': 'Yes', 'Comments': '.', 'HF_ID': 'COV0012', 'HF_N_EN': 'Mansi Township Hospital', 'HF_TYPE': 'Township', 'RoadConn': 'Not Connected', 'addr:city': 'မံစီ', 'amenity': 'hospital', 'healthcare': 'hospital', 'name': 'မံစီမြို့နယ်ဆေးရုံ', 'name:en': 'Man Si Township Hospital', 'name:my': 'မံစီမြို့နယ်ဆေးရုံ', 'operator': 'Ministry of Health and Sports', 'operator:type': 'government', 'operator:wikidata': 'Q28954031'}}"
"{'type': 'node', 'id': 7858159683, 'lat': 24.25608, 'lon': 97.34885, 'tags': {'COVID_BED': 'No', 'COVID_ICU': 'No', 'COVID_TEST': 'Yes', 'Comments': '.', 'HF_ID': 'COV0011', 'HF_N_EN': 'Momauk Township Hospital', 'HF_TYPE': 'Township', 'RoadConn': 'Connected', 'addr:city': 'မိုးမောက်', 'amenity': 'hospital', 'emergency': 'yes', 'healthcare': 'hospital', 'name': 'Momauk Township Hospital', 'name:en': 'Momauk Township Hospital', 'name:my': 'မိုးမောက် မြို့နယ်ဆေးရုံ', 'operator': 'Ministry of Health and Sports', 'operator:type': 'government', 'operator:wikidata': 'Q28954031'}}"
"{'type': 'node', 'id': 7858159692, 'lat': 25.34756, 'lon': 97.43428, 'tags': {'COVID_BED': 'No', 'COVID_ICU': 'No', 'COVID_TEST': 'Yes', 'Comments': '.', 'HF_ID': 'COV0002', 'HF_N_EN': 'Waingmaw Township Hospital', 'HF_TYPE': 'Township', 'RoadConn': 'Connected', 'addr:city': 'ဝိုင်းမော်', 'amenity': 'hospital', 'healthcare': 'hospital', 'name': 'Waingmaw Township Hospital', 'name:my': 'ဝိုင်းမော် မြို့နယ်ဆေးရုံ'}}"
"{'type': 'node', 'id': 8707034787, 'lat': 24.0672795, 'lon': 97.7953094, 'tags': {'amenity': 'hospital', 'healthcare': 'hospital', 'name': '勐秀乡卫生院'}}"
"{'type': 'node', 'id': 8714350144, 'lat': 24.1324005, 'lon': 97.7812954, 'tags': {'amenity': 'clinic', 'healthcare': 'clinic', 'name': '侨爱医院'}}"
"{'type': 'node', 'id': 9146781599, 'lat': 25.3761188, 'lon': 97.4004801, 'tags': {'amenity': 'hospital', 'name': 'အေးသုခ'}}"
"{'type': 'node', 'id': 10913861005, 'lat': 24.7544443, 'lon': 97.5597332, 'tags': {'amenity': 'pharmacy', 'name:en': 'MAI'}}"
"{'type': 'node', 'id': 10913861105, 'lat': 24.7541649, 'lon': 97.5616704, 'tags': {'amenity': 'pharmacy', 'name:en': 'mai'}}"
"{'type': 'node', 'id': 11941683999, 'lat': 25.3477363, 'lon': 97.4367315, 'tags': {'addr:city': 'ဝိုင်းမော်', 'healthcare': 'yes', 'name': 'မိခင်နှင့်ကလေးကျန်းမာရေးဌာန'}}"
