OSM_Data
"{'type': 'node', 'id': 2387544833, 'lat': 29.3766691, 'lon': 113.0921211, 'tags': {'amenity': 'hospital', 'name': '岳阳楼区社区医院'}}"
"{'type': 'node', 'id': 2387580866, 'lat': 29.3746731, 'lon': 113.1058669, 'tags': {'amenity': 'hospital', 'emergency': 'yes', 'healthcare': 'hospital', 'name': '岳阳市一人民医院'}}"
"{'type': 'node', 'id': 5055220052, 'lat': 30.0488042, 'lon': 112.4295759, 'tags': {'amenity': 'hospital', 'name': '江陵县人民医院'}}"
"{'type': 'node', 'id': 9684456382, 'lat': 28.7995881, 'lon': 113.0831106, 'tags': {'amenity': 'pharmacy', 'brand': '益丰大药房', 'brand:en': 'Yifeng Pharmacy', 'brand:wikidata': 'Q109766741', 'brand:zh': '益丰大药房', 'dispensing': 'yes', 'healthcare': 'pharmacy', 'name': '益丰大药房', 'name:en': 'Yifeng Pharmacy', 'name:zh': '益丰大药房'}}"
"{'type': 'node', 'id': 9867259344, 'lat': 28.7970281, 'lon': 113.0831879, 'tags': {'amenity': 'pharmacy', 'brand': '益丰大药房', 'brand:en': 'Yifeng Pharmacy', 'brand:wikidata': 'Q109766741', 'brand:zh': '益丰大药房', 'dispensing': 'yes', 'healthcare': 'pharmacy', 'name': '益丰大药房', 'name:en': 'Yifeng Pharmacy', 'name:zh': '益丰大药房'}}"
"{'type': 'node', 'id': 9878710177, 'lat': 28.8042718, 'lon': 113.073246, 'tags': {'amenity': 'pharmacy', 'brand': '益丰大药房', 'brand:en': 'Yifeng Pharmacy', 'brand:wikidata': 'Q109766741', 'brand:zh': '益丰大药房', 'dispensing': 'yes', 'healthcare': 'pharmacy', 'name': '益丰大药房', 'name:en': 'Yifeng Pharmacy', 'name:zh': '益丰大药房'}}"
"{'type': 'node', 'id': 10781367819, 'lat': 28.7856742, 'lon': 113.0835286, 'tags': {'amenity': 'hospital', 'healthcare': 'hospital', 'name': '石桥坝彭艳卫生室', 'phone': '+86 135 1730 8243'}}"
"{'type': 'node', 'id': 11052257952, 'lat': 29.1512443, 'lon': 113.1073536, 'tags': {'addr:city': '岳阳市', 'addr:housenumber': '1', 'addr:street': '贺坪西路', 'amenity': 'hospital', 'healthcare': 'hospital', 'name': '岳阳县妇幼保健院(新院区)'}}"
"{'type': 'node', 'id': 11065123723, 'lat': 28.8056471, 'lon': 113.0819714, 'tags': {'amenity': 'pharmacy', 'brand': '益丰大药房', 'brand:en': 'Yifeng Pharmacy', 'brand:wikidata': 'Q109766741', 'brand:zh': '益丰大药房', 'healthcare': 'pharmacy', 'name': '益丰大药房', 'name:en': 'Yifeng Pharmacy', 'name:zh': '益丰大药房', 'payment:alipay': 'yes', 'payment:cash': 'yes', 'payment:credit_cards': 'no', 'payment:debit_cards': 'no', 'payment:unionpay': 'yes', 'payment:wechat': 'yes'}}"
"{'type': 'node', 'id': 11134167299, 'lat': 28.7177806, 'lon': 113.583848, 'tags': {'addr:city': '岳阳', 'addr:district': '平江', 'addr:housenumber': '35', 'addr:province': '湖南', 'addr:street': '首家坪路', 'amenity': 'hospital', 'healthcare': 'hospital', 'name': '四医院'}}"
"{'type': 'node', 'id': 11519074435, 'lat': 28.8053355, 'lon': 113.0866119, 'tags': {'amenity': 'pharmacy', 'healthcare': 'pharmacy', 'name': '智祥大药房', 'phone': '+86 730 525 2222'}}"
"{'type': 'node', 'id': 11549280093, 'lat': 28.8000871, 'lon': 113.0794291, 'tags': {'amenity': 'pharmacy', 'brand': '益丰大药房', 'brand:en': 'Yifeng Pharmacy', 'brand:wikidata': 'Q109766741', 'brand:zh': '益丰大药房', 'healthcare': 'pharmacy', 'name': '益丰大药房', 'name:en': 'Yifeng Pharmacy', 'name:zh': '益丰大药房'}}"
