OSM_Data
"{'type': 'node', 'id': 3261092199, 'lat': 21.2504876, 'lon': 110.4494333, 'tags': {'amenity': 'hospital', 'healthcare': 'hospital', 'name': '湛江南油医院', 'name:en': 'Nanhai Petroleum Hospital'}}"
"{'type': 'node', 'id': 3403145178, 'lat': 21.2269207, 'lon': 110.4132093, 'tags': {'amenity': 'hospital', 'name': '422'}}"
"{'type': 'node', 'id': 3405000079, 'lat': 21.1657736, 'lon': 110.3561039, 'tags': {'amenity': 'hospital', 'name': '第三人民医院'}}"
"{'type': 'node', 'id': 3415421650, 'lat': 21.1955086, 'lon': 110.3975877, 'tags': {'amenity': 'hospital', 'name': '妇幼保健医院'}}"
"{'type': 'node', 'id': 3415421652, 'lat': 21.195015, 'lon': 110.3955029, 'tags': {'amenity': 'hospital', 'name': '中医二院'}}"
"{'type': 'node', 'id': 4470114672, 'lat': 21.2746623, 'lon': 110.3399971, 'tags': {'amenity': 'clinic', 'healthcare': 'clinic', 'name': '医务室'}}"
"{'type': 'node', 'id': 5251599690, 'lat': 21.1857099, 'lon': 110.403338, 'tags': {'amenity': 'hospital', 'name': '第四人民医院'}}"
"{'type': 'node', 'id': 5252044781, 'lat': 21.2529604, 'lon': 110.349162, 'tags': {'amenity': 'hospital', 'healthcare': 'hospital', 'name': '湛江中心人民医院'}}"
"{'type': 'node', 'id': 8467618148, 'lat': 21.6669021, 'lon': 110.9456168, 'tags': {'amenity': 'pharmacy', 'brand': '万宁', 'brand:en': 'Mannings', 'brand:wikidata': 'Q13646560', 'brand:wikipedia': 'en:Mannings', 'brand:zh': '万宁', 'dispensing': 'no', 'drive_through': 'no', 'healthcare': 'pharmacy', 'name': '万宁', 'name:en': 'Mannings', 'name:zh': '万宁', 'shop': 'chemist'}}"
"{'type': 'node', 'id': 8514747717, 'lat': 21.6723479, 'lon': 110.9060346, 'tags': {'addr:housenumber': '305号', 'addr:street': '官山一路', 'amenity': 'pharmacy', 'healthcare': 'pharmacy', 'name': '多健康连锁药店'}}"
"{'type': 'node', 'id': 8697280324, 'lat': 21.8974954, 'lon': 110.8426938, 'tags': {'access': 'private', 'amenity': 'doctors', 'healthcare': 'doctor', 'name': '校医室'}}"
"{'type': 'node', 'id': 8705314789, 'lat': 21.8261409, 'lon': 110.7625797, 'tags': {'amenity': 'pharmacy', 'dispensing': 'no', 'healthcare': 'pharmacy', 'name': '爱健药店'}}"
"{'type': 'node', 'id': 8708129512, 'lat': 21.8244288, 'lon': 110.7694848, 'tags': {'amenity': 'pharmacy', 'dispensing': 'yes', 'healthcare': 'pharmacy', 'name': '二号药房'}}"
"{'type': 'node', 'id': 8708351161, 'lat': 21.8239309, 'lon': 110.7672607, 'tags': {'amenity': 'pharmacy', 'healthcare': 'pharmacy', 'name': '南北药行'}}"
"{'type': 'node', 'id': 8708709263, 'lat': 21.8234226, 'lon': 110.7698279, 'tags': {'amenity': 'dentist', 'healthcare': 'dentist'}}"
"{'type': 'node', 'id': 8823545797, 'lat': 21.9055937, 'lon': 110.8540965, 'tags': {'amenity': 'pharmacy', 'dispensing': 'yes', 'healthcare': 'pharmacy', 'name': '南北药行'}}"
"{'type': 'node', 'id': 8869040337, 'lat': 21.9071436, 'lon': 110.8551042, 'tags': {'amenity': 'dentist', 'healthcare': 'dentist', 'name': '博泰口腔'}}"
"{'type': 'node', 'id': 8869292239, 'lat': 21.897725, 'lon': 110.8480945, 'tags': {'access': 'private', 'amenity': 'doctors', 'healthcare': 'doctor', 'name': '校医室'}}"
"{'type': 'node', 'id': 9832880099, 'lat': 21.2786747, 'lon': 110.351576, 'tags': {'amenity': 'pharmacy', 'brand': '大参林', 'brand:en': 'dashenlin', 'brand:wikidata': 'Q106239645', 'brand:zh': '大参林', 'dispensing': 'yes', 'healthcare': 'pharmacy', 'name': '大参林', 'name:en': 'dashenlin', 'name:zh': '大参林'}}"
"{'type': 'node', 'id': 9832880100, 'lat': 21.2786913, 'lon': 110.3513843, 'tags': {'amenity': 'pharmacy', 'dispensing': 'yes', 'healthcare': 'pharmacy', 'name': '康益药房'}}"
"{'type': 'node', 'id': 9832880103, 'lat': 21.2787459, 'lon': 110.3528326, 'tags': {'amenity': 'pharmacy', 'dispensing': 'yes', 'healthcare': 'pharmacy', 'name': '戴海草药店'}}"
"{'type': 'node', 'id': 9832880107, 'lat': 21.2785792, 'lon': 110.3518869, 'tags': {'healthcare': 'alternative', 'name': '光辉推拿'}}"
"{'type': 'node', 'id': 9832880109, 'lat': 21.2783995, 'lon': 110.3529213, 'tags': {'amenity': 'dentist', 'healthcare': 'dentist', 'name': '王永浩口腔诊所'}}"
"{'type': 'node', 'id': 9832986819, 'lat': 21.277725, 'lon': 110.3545059, 'tags': {'amenity': 'pharmacy', 'brand': '大参林', 'brand:en': 'dashenlin', 'brand:wikidata': 'Q106239645', 'brand:zh': '大参林', 'dispensing': 'yes', 'healthcare': 'pharmacy', 'name': '大参林', 'name:en': 'dashenlin', 'name:zh': '大参林'}}"
"{'type': 'node', 'id': 9835864504, 'lat': 21.2788526, 'lon': 110.3548212, 'tags': {'amenity': 'dentist', 'healthcare': 'dentist', 'name': '叶钟岳牙科'}}"
"{'type': 'node', 'id': 11074481488, 'lat': 21.9040004, 'lon': 110.8673309, 'tags': {'amenity': 'pharmacy', 'brand': '万宁', 'brand:en': 'Mannings', 'brand:wikidata': 'Q13646560', 'brand:zh': '万宁', 'healthcare': 'pharmacy', 'name': '万宁', 'name:en': 'Mannings', 'name:zh': '万宁', 'shop': 'chemist'}}"
"{'type': 'node', 'id': 12435013266, 'lat': 21.637005, 'lon': 110.9296272, 'tags': {'amenity': 'hospital', 'healthcare': 'hospital', 'name': '茂名油城医院'}}"
