OSM_Data
"{'type': 'node', 'id': 1762865122, 'lat': 24.4464898, 'lon': 118.0669718, 'tags': {'amenity': 'hospital', 'healthcare': 'hospital'}}"
"{'type': 'node', 'id': 3049800607, 'lat': 24.5255475, 'lon': 117.665254, 'tags': {'amenity': 'hospital', 'healthcare': 'hospital', 'name': '中國人民解放軍聯勤保障部隊第九〇九醫院'}}"
"{'type': 'node', 'id': 3447936677, 'lat': 24.4327963, 'lon': 118.3200691, 'tags': {'amenity': 'pharmacy', 'healthcare': 'pharmacy', 'name': '大賀藥局', 'name:en': 'pharmacy', 'name:zh': '大賀藥局'}}"
"{'type': 'node', 'id': 3496906482, 'lat': 24.4361337, 'lon': 118.3187353, 'tags': {'addr:city': '金門縣', 'addr:country': 'TW', 'addr:district': '金城鎮', 'addr:housenumber': '61', 'addr:postcode': '893', 'addr:province': '福建省', 'addr:street': '民生路', 'amenity': 'clinic', 'healthcare': 'clinic', 'name': '陳耳鼻喉專科診所', 'name:en': 'Dr Chen Otorhinolaryngal Clinic', 'name:zh': '陳耳鼻喉專科診所', 'opening_hours': 'Mo-Fr 09:00-12:00, 14:00-17:00, 18:30-21:00; Sa 09:00-12:00', 'phone': '+886 82 325 199'}}"
"{'type': 'node', 'id': 4118786828, 'lat': 24.4827602, 'lon': 118.1745271, 'tags': {'amenity': 'pharmacy', 'healthcare': 'pharmacy', 'name': '莲福堂药店'}}"
"{'type': 'node', 'id': 4123078505, 'lat': 24.6070964, 'lon': 118.0829603, 'tags': {'amenity': 'hospital', 'healthcare': 'hospital', 'name': '华侨大学校医院'}}"
"{'type': 'node', 'id': 4393700483, 'lat': 24.5016155, 'lon': 118.1309115, 'tags': {'amenity': 'hospital', 'healthcare': 'hospital', 'name': '厦门中医院南区'}}"
"{'type': 'node', 'id': 4393707418, 'lat': 24.5016165, 'lon': 118.1236028, 'tags': {'amenity': 'hospital', 'healthcare': 'hospital', 'name': '仁德医院住院部'}}"
"{'type': 'node', 'id': 4414870175, 'lat': 24.4345108, 'lon': 118.3162694, 'tags': {'addr:city': '金門縣', 'addr:country': 'TW', 'addr:district': '金城鎮', 'addr:full': '89345金門縣金城鎮民權路137號', 'addr:housenumber': '137', 'addr:postcode': '89345', 'addr:province': '福建省', 'addr:street': '民權路', 'amenity': 'dentist', 'healthcare': 'dentist', 'name': '金凱牙醫診所', 'phone': '+886 82 311 649', 'ref': '3790011178'}}"
"{'type': 'node', 'id': 4452629989, 'lat': 24.4329053, 'lon': 118.3199962, 'tags': {'addr:city': '金門縣', 'addr:country': 'TW', 'addr:district': '金城鎮', 'addr:housenumber': '13', 'addr:postcode': '893', 'addr:province': '福建省', 'addr:street': '珠浦北路5巷12弄', 'amenity': 'clinic', 'healthcare': 'clinic', 'name': '陳毅書皮膚科診所', 'opening_hours': 'Mo-Tu, Th-Fr 08:00-11:30, 15:30-17:30, 18:00-20:00; We, Sa 08:00-11:30', 'phone': '+886 82 326 787'}}"
"{'type': 'node', 'id': 4490730290, 'lat': 24.6075179, 'lon': 118.2364226, 'tags': {'amenity': 'pharmacy', 'name': '仁心红', 'name:en': ""The Ren xin hong chemist's shop"", 'name:zh': '仁心红'}}"
"{'type': 'node', 'id': 4582123808, 'lat': 24.4345214, 'lon': 118.3198475, 'tags': {'addr:city': '金門縣', 'addr:country': 'TW', 'addr:district': '金城鎮', 'addr:housenumber': '20', 'addr:province': '福建省', 'addr:street': '民生路', 'amenity': 'clinic', 'healthcare': 'clinic', 'name': '惠明眼科', 'opening_hours': 'Tu-Fr 09:00-11:30, 15:00-17:30, 19:00-21:00; Mo 15:00-17:30, 19:00-21:00; Sa 09:00-11:30', 'phone': '+886 82 320 200'}}"
"{'type': 'node', 'id': 4683489791, 'lat': 24.4333694, 'lon': 118.319571, 'tags': {'healthcare': 'optometrist'}}"
"{'type': 'node', 'id': 4683503025, 'lat': 24.4335561, 'lon': 118.3163561, 'tags': {'amenity': 'pharmacy', 'healthcare': 'pharmacy'}}"
"{'type': 'node', 'id': 5106207107, 'lat': 24.4980787, 'lon': 118.0284619, 'tags': {'amenity': 'hospital', 'healthcare': 'hospital', 'healthcare:speciality': 'dental_oral_maxillo_facial_surgery', 'name': '厦门海沧玉山口腔门诊部'}}"
"{'type': 'node', 'id': 5241146045, 'lat': 24.4895483, 'lon': 118.0916824, 'tags': {'amenity': 'pharmacy', 'healthcare': 'pharmacy', 'name': '文灶药店'}}"
"{'type': 'node', 'id': 6440325780, 'lat': 24.5284694, 'lon': 118.0448036, 'tags': {'amenity': 'clinic', 'healthcare': 'clinic', 'name': '东方高尔夫'}}"
"{'type': 'node', 'id': 7434894103, 'lat': 24.4505565, 'lon': 118.0762004, 'tags': {'amenity': 'hospital', 'healthcare': 'hospital', 'name': '海军医院', 'name:zh': '海军医院', 'name:zh-Hans': '海军医院', 'name:zh-Hant': '海軍醫院'}}"
"{'type': 'node', 'id': 7961191052, 'lat': 24.6625155, 'lon': 118.2425381, 'tags': {'amenity': 'hospital', 'healthcare': 'hospital', 'name': '厦门市第五医院'}}"
"{'type': 'node', 'id': 8389902204, 'lat': 24.4468389, 'lon': 118.0659766, 'tags': {'amenity': 'pharmacy', 'healthcare': 'pharmacy'}}"
"{'type': 'node', 'id': 8411038418, 'lat': 24.5335405, 'lon': 118.1224218, 'tags': {'healthcare': 'yes', 'name': '航空港医疗急救中心'}}"
"{'type': 'node', 'id': 8542988317, 'lat': 24.4622768, 'lon': 118.0749077, 'tags': {'amenity': 'pharmacy', 'healthcare': 'pharmacy'}}"
"{'type': 'node', 'id': 9561883587, 'lat': 24.4724927, 'lon': 118.1057057, 'tags': {'amenity': 'doctors', 'healthcare': 'doctor', 'name': '白雪口腔'}}"
"{'type': 'node', 'id': 9561883596, 'lat': 24.4726101, 'lon': 118.1061483, 'tags': {'healthcare': 'alternative', 'name': '雪芙'}}"
"{'type': 'node', 'id': 9565441063, 'lat': 24.4760387, 'lon': 118.1045322, 'tags': {'amenity': 'dentist', 'healthcare': 'dentist', 'name': '惠玲口腔'}}"
"{'type': 'node', 'id': 9565441068, 'lat': 24.4759698, 'lon': 118.1042942, 'tags': {'healthcare': 'audiologist', 'name': '助听器配验'}}"
"{'type': 'node', 'id': 9565441069, 'lat': 24.475955, 'lon': 118.1042468, 'tags': {'amenity': 'pharmacy', 'dispensing': 'yes', 'healthcare': 'pharmacy', 'name': '春草堂药店'}}"
"{'type': 'node', 'id': 9567789183, 'lat': 24.473023, 'lon': 118.1044197, 'tags': {'healthcare': 'alternative', 'name': '豪都商务休闲会所'}}"
"{'type': 'node', 'id': 9567789193, 'lat': 24.4730605, 'lon': 118.1048259, 'tags': {'amenity': 'pharmacy', 'dispensing': 'yes', 'healthcare': 'pharmacy', 'name': '湖滨药店禾祥东店'}}"
"{'type': 'node', 'id': 9577199979, 'lat': 24.4725366, 'lon': 118.1037971, 'tags': {'amenity': 'clinic', 'healthcare': 'clinic', 'name': '厦门思明信光中医诊所'}}"
"{'type': 'node', 'id': 9667398485, 'lat': 24.4727442, 'lon': 118.1022434, 'tags': {'amenity': 'pharmacy', 'dispensing': 'yes', 'healthcare': 'pharmacy', 'name': '国大药房'}}"
"{'type': 'node', 'id': 9696994210, 'lat': 24.4734461, 'lon': 118.1015837, 'tags': {'healthcare': 'alternative', 'name': '仁艾堂'}}"
"{'type': 'node', 'id': 9697044120, 'lat': 24.4754545, 'lon': 118.1022525, 'tags': {'amenity': 'pharmacy', 'dispensing': 'yes', 'healthcare': 'pharmacy', 'name': '健康99医药连锁'}}"
"{'type': 'node', 'id': 9697044131, 'lat': 24.4743552, 'lon': 118.1014841, 'tags': {'amenity': 'doctors', 'healthcare': 'doctor', 'name': '金榜口腔'}}"
"{'type': 'node', 'id': 9697044135, 'lat': 24.4742681, 'lon': 118.1011838, 'tags': {'amenity': 'pharmacy', 'dispensing': 'yes', 'healthcare': 'pharmacy', 'name': '鹭燕大药房'}}"
"{'type': 'node', 'id': 9887979699, 'lat': 25.0528228, 'lon': 118.1768644, 'tags': {'amenity': 'hospital', 'healthcare': 'hospital', 'name': '铭选医院'}}"
"{'type': 'node', 'id': 9909435865, 'lat': 24.6057596, 'lon': 118.0305096, 'tags': {'amenity': 'hospital', 'healthcare': 'hospital'}}"
"{'type': 'node', 'id': 9930808505, 'lat': 24.4933134, 'lon': 118.0340055, 'tags': {'addr:city': '厦门市', 'addr:district': '海沧区', 'addr:housenumber': '89', 'addr:province': '福建省', 'addr:street': '海裕路', 'amenity': 'hospital', 'emergency': 'yes', 'healthcare': 'hospital', 'name': '海沧医院'}}"
"{'type': 'node', 'id': 9966755284, 'lat': 24.5176007, 'lon': 117.6884172, 'tags': {'amenity': 'hospital', 'healthcare': 'hospital'}}"
"{'type': 'node', 'id': 9966755289, 'lat': 24.5154723, 'lon': 117.6404894, 'tags': {'amenity': 'hospital', 'healthcare': 'hospital'}}"
"{'type': 'node', 'id': 9966755291, 'lat': 24.5170785, 'lon': 117.6495145, 'tags': {'amenity': 'hospital', 'healthcare': 'hospital'}}"
"{'type': 'node', 'id': 9991310922, 'lat': 23.9501664, 'lon': 117.6079386, 'tags': {'amenity': 'hospital', 'healthcare': 'hospital'}}"
"{'type': 'node', 'id': 10006204229, 'lat': 24.5669127, 'lon': 118.3300291, 'tags': {'amenity': 'hospital', 'healthcare': 'hospital'}}"
"{'type': 'node', 'id': 10048463411, 'lat': 25.1013591, 'lon': 117.0438895, 'tags': {'amenity': 'hospital', 'healthcare': 'hospital', 'name': '一七五醫院'}}"
"{'type': 'node', 'id': 10048463412, 'lat': 25.101968, 'lon': 117.0246142, 'tags': {'amenity': 'hospital', 'healthcare': 'hospital', 'name': '龍岩市第一醫院'}}"
"{'type': 'node', 'id': 10092413942, 'lat': 24.6704998, 'lon': 118.1597688, 'tags': {'amenity': 'hospital', 'healthcare': 'hospital'}}"
"{'type': 'node', 'id': 10092469421, 'lat': 24.5171738, 'lon': 117.3790713, 'tags': {'amenity': 'hospital', 'healthcare': 'hospital'}}"
"{'type': 'node', 'id': 10114949785, 'lat': 24.441537, 'lon': 117.8041417, 'tags': {'amenity': 'hospital', 'healthcare': 'hospital'}}"
"{'type': 'node', 'id': 10157544412, 'lat': 24.5052812, 'lon': 118.1018521, 'tags': {'addr:city': '湖里街道', 'addr:district': '湖里区', 'addr:housenumber': '121-123', 'addr:province': '厦门市', 'addr:street': '南山路', 'amenity': 'hospital', 'emergency': 'no', 'healthcare': 'hospital', 'name': '仙岳医院北区', 'wikidata': 'Q117457892', 'wikipedia': 'zh:仙岳医院'}}"
"{'type': 'node', 'id': 10171618363, 'lat': 24.563679, 'lon': 118.0426699, 'tags': {'amenity': 'hospital', 'healthcare': 'hospital', 'name': '厦门大学附属第一医院杏林院区'}}"
"{'type': 'node', 'id': 10184587251, 'lat': 23.9583254, 'lon': 117.3306012, 'tags': {'amenity': 'hospital', 'healthcare': 'hospital'}}"
"{'type': 'node', 'id': 10184594156, 'lat': 24.1216923, 'lon': 117.5991323, 'tags': {'amenity': 'hospital', 'healthcare': 'hospital'}}"
"{'type': 'node', 'id': 10197131673, 'lat': 24.5109729, 'lon': 118.1660509, 'tags': {'amenity': 'hospital', 'healthcare': 'hospital'}}"
"{'type': 'node', 'id': 10218246555, 'lat': 24.5235241, 'lon': 117.8937939, 'tags': {'amenity': 'hospital', 'healthcare': 'hospital'}}"
"{'type': 'node', 'id': 10218298449, 'lat': 24.3664692, 'lon': 117.3160181, 'tags': {'amenity': 'hospital', 'healthcare': 'hospital'}}"
"{'type': 'node', 'id': 10271672634, 'lat': 24.3823154, 'lon': 118.0436482, 'tags': {'amenity': 'hospital', 'healthcare': 'hospital', 'name': '第一医院'}}"
"{'type': 'node', 'id': 10293187190, 'lat': 24.4940746, 'lon': 117.9277211, 'tags': {'amenity': 'hospital', 'healthcare': 'hospital'}}"
"{'type': 'node', 'id': 10303326503, 'lat': 24.624059, 'lon': 117.7542004, 'tags': {'amenity': 'hospital', 'healthcare': 'hospital'}}"
"{'type': 'node', 'id': 10811236806, 'lat': 24.6146056, 'lon': 118.3146156, 'tags': {'amenity': 'clinic', 'name': '厦门大学翔安校区医务室', 'operator': '厦门大学'}}"
"{'type': 'node', 'id': 10830866381, 'lat': 23.959069, 'lon': 117.3385647, 'tags': {'amenity': 'hospital', 'healthcare': 'hospital'}}"
"{'type': 'node', 'id': 11064243773, 'lat': 24.9732447, 'lon': 118.2491766, 'tags': {'amenity': 'hospital', 'healthcare': 'hospital'}}"
"{'type': 'node', 'id': 11153489938, 'lat': 24.7375624, 'lon': 118.1446714, 'tags': {'amenity': 'hospital', 'healthcare': 'hospital'}}"
"{'type': 'node', 'id': 11163123306, 'lat': 24.513261, 'lon': 118.1562294, 'tags': {'amenity': 'hospital', 'name': '如心妇婴医院'}}"
"{'type': 'node', 'id': 11381157963, 'lat': 24.5092565, 'lon': 117.6551001, 'tags': {'amenity': 'hospital', 'healthcare': 'hospital'}}"
"{'type': 'node', 'id': 11561836437, 'lat': 24.4445218, 'lon': 118.0637406, 'tags': {'healthcare': 'yes', 'name': '红十字救护站'}}"
"{'type': 'node', 'id': 11568664608, 'lat': 24.4478233, 'lon': 118.0677233, 'tags': {'healthcare': 'yes', 'name': '片仔癀体验馆'}}"
"{'type': 'node', 'id': 11583779795, 'lat': 24.4113729, 'lon': 117.8515814, 'tags': {'amenity': 'hospital', 'healthcare': 'hospital'}}"
"{'type': 'node', 'id': 11915141466, 'lat': 24.5150931, 'lon': 118.158924, 'tags': {'addr:city': '厦门市', 'addr:district': '湖里区', 'addr:housenumber': '668', 'addr:province': '福建省', 'addr:street': '金湖路', 'amenity': 'hospital', 'healthcare': 'hospital', 'name': '复旦大学附属中山医院厦门医院'}}"
"{'type': 'node', 'id': 12450480435, 'lat': 24.4735419, 'lon': 118.1207806, 'tags': {'amenity': 'hospital', 'healthcare': 'hospital', 'name': '梧村骨科医院'}}"
