OSM_Data
"{'type': 'node', 'id': 306064433, 'lat': 52.3700306, 'lon': 30.3910891, 'tags': {'addr:housenumber': '37', 'addr:street': 'Савецкая вуліца', 'alt_name': 'Дежурная аптека', 'amenity': 'pharmacy', 'contact:phone': '+375 29 1926148', 'contact:website': 'http://ostrovzdorovya.by/', 'dispensing': 'yes', 'healthcare': 'pharmacy', 'name': 'Остров здоровья', 'name:be': 'Востраў здароўя', 'name:ru': 'Остров здоровья', 'opening_hours': '24/7'}}"
"{'type': 'node', 'id': 622327342, 'lat': 53.083165, 'lon': 30.0532169, 'tags': {'amenity': 'pharmacy', 'healthcare': 'pharmacy', 'int_name': 'Apteka №17', 'name': 'Аптека №17', 'name:be': 'Аптэка №17', 'name:ru': 'Аптека №17'}}"
"{'type': 'node', 'id': 1088523523, 'lat': 52.9068373, 'lon': 30.0464487, 'tags': {'amenity': 'pharmacy', 'healthcare': 'pharmacy', 'int_name': 'Apteka №21', 'name': 'Аптека №21', 'name:be': 'Аптэка №21', 'name:ru': 'Аптека №21', 'opening_hours': 'Mo-Fr 8:00-20:00'}}"
"{'type': 'node', 'id': 1264730995, 'lat': 52.8911923, 'lon': 30.0358567, 'tags': {'amenity': 'pharmacy', 'dispensing': 'yes', 'healthcare': 'pharmacy', 'int_name': 'Apteka №30', 'name': 'Аптека №30', 'name:be': 'Аптэка №30', 'name:ru': 'Аптека №30', 'opening_hours': 'Mo-Fr 08:00-20:00'}}"
"{'type': 'node', 'id': 1465838173, 'lat': 52.6366194, 'lon': 29.7294769, 'tags': {'addr:housenumber': '13А', 'addr:place': 'мікрараён Палессе', 'amenity': 'pharmacy', 'healthcare': 'pharmacy', 'int_name': 'Iskamied', 'name': 'Іскамед № 15', 'name:be': 'Іскамед № 15', 'name:ru': 'Искамед № 15'}}"
"{'type': 'node', 'id': 1537037766, 'lat': 52.6394419, 'lon': 29.7285377, 'tags': {'amenity': 'pharmacy', 'healthcare': 'pharmacy'}}"
"{'type': 'node', 'id': 1537088693, 'lat': 52.6232938, 'lon': 29.7466765, 'tags': {'addr:city': 'Светлагорск', 'addr:housenumber': '8', 'addr:street': 'вуліца Свярдлова', 'amenity': 'dentist', 'healthcare': 'dentist'}}"
"{'type': 'node', 'id': 1537109952, 'lat': 52.6212431, 'lon': 29.7262244, 'tags': {'amenity': 'dentist', 'healthcare': 'dentist', 'name': 'Светладэнт', 'name:be': 'Светладэнт', 'name:ru': 'Светлодент'}}"
"{'type': 'node', 'id': 1724705473, 'lat': 52.8931777, 'lon': 30.0314135, 'tags': {'amenity': 'pharmacy', 'healthcare': 'pharmacy', 'name': 'Аптека №2', 'name:be': 'Аптэка №2', 'name:ru': 'Аптека №2', 'opening_hours': 'Mo-Fr 8:00-19:00; Sa-Su 8:00-16:00'}}"
"{'type': 'node', 'id': 1728358959, 'lat': 52.8932593, 'lon': 30.0438323, 'tags': {'addr:housenumber': '49', 'addr:street': 'Першамайская вуліца', 'amenity': 'pharmacy', 'healthcare': 'pharmacy', 'name': 'Дежурная аптека', 'name:be': 'Дзяжурная аптэка', 'name:ru': 'Дежурная аптека', 'opening_hours': '24/7', 'operator': 'ООО ""Артисфарма""'}}"
"{'type': 'node', 'id': 1754246012, 'lat': 52.9040323, 'lon': 30.0474834, 'tags': {'amenity': 'pharmacy', 'healthcare': 'pharmacy', 'name': 'Аптека №30', 'name:be': 'Аптэка №30', 'name:ru': 'Аптека №30', 'opening_hours': 'Mo-Fr 08:00-20:00; Sa-Su 09:00-18:00', 'operator': 'OOO «Искамед»'}}"
"{'type': 'node', 'id': 1754247266, 'lat': 52.8931387, 'lon': 30.0395559, 'tags': {'amenity': 'pharmacy', 'healthcare': 'pharmacy', 'name': 'Аптека №4', 'name:be': 'Аптэка №4', 'name:ru': 'Аптека №4', 'opening_hours': 'Mo-Fr 08:00-22:00; Sa-Su 08:00-20:00', 'operator': 'ООО ""Комфарм""'}}"
"{'type': 'node', 'id': 2099810535, 'lat': 52.769399, 'lon': 29.8883637, 'tags': {'amenity': 'pharmacy', 'dispensing': 'yes', 'healthcare': 'pharmacy'}}"
"{'type': 'node', 'id': 2165306109, 'lat': 52.6317783, 'lon': 29.7472084, 'tags': {'addr:housenumber': '11-66', 'addr:street': 'вуліца 50 год Кастрычніка', 'amenity': 'pharmacy', 'healthcare': 'pharmacy', 'name': 'Аптэка №107', 'name:be': 'Аптэка №107', 'name:ru': 'Аптека №107', 'opening_hours': 'Mo-Sa 08:00-20:00; Su,PH 08:30-13:00,13:30-17:00', 'operator': 'Гомельское УП Фармация', 'phone': '+375 2342 56217', 'wheelchair': 'yes'}}"
"{'type': 'node', 'id': 2212895998, 'lat': 52.6231519, 'lon': 29.7465539, 'tags': {'amenity': 'pharmacy', 'healthcare': 'pharmacy', 'name': 'Фармацыя #107/3', 'name:be': 'Фармацыя #107/3', 'name:ru': 'Фармация #107/3', 'opening_hours': 'Mo-Fr 08:00-18:00', 'phone': '+375 2342 73695', 'website': 'https://gomelpharm.by/'}}"
"{'type': 'node', 'id': 2680008618, 'lat': 52.3690541, 'lon': 30.3933953, 'tags': {'amenity': 'pharmacy', 'dispensing': 'yes', 'healthcare': 'pharmacy', 'int_name': 'Apteka №9', 'name': 'Аптэка №40', 'name:be': 'Аптэка №40', 'name:ru': 'ADEL №40 / Медфарм', 'operator': 'ООО «Радикс-С»'}}"
"{'type': 'node', 'id': 2706374314, 'lat': 52.9003764, 'lon': 30.0512097, 'tags': {'amenity': 'pharmacy', 'healthcare': 'pharmacy', 'name': 'Аптэка №37', 'name:be': 'Аптэка №37', 'name:ru': 'Аптека №37', 'opening_hours': 'Mo-Su 09:00-22:00'}}"
"{'type': 'node', 'id': 2708778291, 'lat': 52.8936304, 'lon': 30.0446081, 'tags': {'amenity': 'pharmacy', 'healthcare': 'pharmacy'}}"
"{'type': 'node', 'id': 2741640535, 'lat': 52.358199, 'lon': 30.4194257, 'tags': {'amenity': 'pharmacy', 'healthcare': 'pharmacy', 'int_name': 'Apteka', 'name': 'Аптэка', 'name:be': 'Аптэка'}}"
"{'type': 'node', 'id': 2760519223, 'lat': 52.7892439, 'lon': 30.3306326, 'tags': {'amenity': 'hospital', 'name': 'Амбулаторыя', 'name:be': 'Амбулаторыя', 'name:ru': 'Амбулатория'}}"
"{'type': 'node', 'id': 2869847329, 'lat': 52.902167, 'lon': 30.0487432, 'tags': {'amenity': 'pharmacy', 'healthcare': 'pharmacy', 'name': 'Аптека №199/8', 'name:be': 'Аптэка №199/8', 'name:ru': 'Аптека №199/8', 'opening_hours': 'Mo-Fr 09:00-20:00; Sa-Su 10:00-13:30,14:00-18:30'}}"
"{'type': 'node', 'id': 2982770434, 'lat': 52.8942284, 'lon': 30.0388042, 'tags': {'amenity': 'dentist', 'healthcare': 'dentist', 'name': 'Ліслада ТДА', 'name:be': 'Ліслада ТДА', 'name:ru': 'Лислада ОДО'}}"
"{'type': 'node', 'id': 3041379727, 'lat': 53.074273, 'lon': 30.0536811, 'tags': {'amenity': 'pharmacy', 'dispensing': 'no', 'healthcare': 'pharmacy', 'int_name': '24 hadziny', 'name': '24 часа', 'name:be': '24 гадзіны', 'name:ru': '24 часа', 'opening_hours': '24/7'}}"
"{'type': 'node', 'id': 3047106230, 'lat': 53.1169848, 'lon': 29.9610694, 'tags': {'amenity': 'hospital', 'name': 'ФАП', 'name:be': 'ФАП', 'name:ru': 'ФАП'}}"
"{'type': 'node', 'id': 3108903663, 'lat': 53.0870839, 'lon': 30.0546762, 'tags': {'amenity': 'pharmacy', 'dispensing': 'no', 'healthcare': 'pharmacy'}}"
"{'type': 'node', 'id': 3126990811, 'lat': 52.3841393, 'lon': 30.3460715, 'tags': {'amenity': 'clinic', 'contact:phone': '+375 (2340) 4-45-45', 'healthcare': 'clinic', 'healthcare:speciality': 'gynaecology', 'name': 'Жаночая кансультацыя', 'name:be': 'Жаночая кансультацыя', 'name:ru': 'Женская консультация', 'opening_hours': 'Mo-Fr 08:00-20:00; Sa 09:00-15:00'}}"
"{'type': 'node', 'id': 3202594073, 'lat': 53.097993, 'lon': 30.0437802, 'tags': {'amenity': 'pharmacy', 'dispensing': 'no', 'healthcare': 'pharmacy'}}"
"{'type': 'node', 'id': 3907098335, 'lat': 53.0914939, 'lon': 30.0567313, 'tags': {'amenity': 'pharmacy', 'healthcare': 'pharmacy', 'name': 'Аптека №3 Эхинацея', 'name:be': 'Аптэка №3 Эхінацыя', 'name:ru': 'Аптека №3 Эхинацея'}}"
"{'type': 'node', 'id': 3907098340, 'lat': 53.0920903, 'lon': 30.0560119, 'tags': {'amenity': 'dentist', 'healthcare': 'dentist', 'name': 'Лінія ўсмешкі', 'name:be': 'Лінія ўсмешкі', 'name:ru': 'Линия улыбки'}}"
"{'type': 'node', 'id': 3907098355, 'lat': 53.0876609, 'lon': 30.0523302, 'tags': {'amenity': 'pharmacy', 'healthcare': 'pharmacy'}}"
"{'type': 'node', 'id': 3912878256, 'lat': 53.0860682, 'lon': 30.0534374, 'tags': {'amenity': 'pharmacy', 'healthcare': 'pharmacy', 'name': 'Аптека Эхинацея', 'name:be': 'Аптэка Эхінацыя', 'name:ru': 'Аптека Эхинацея'}}"
"{'type': 'node', 'id': 3912878326, 'lat': 53.0811215, 'lon': 30.0520655, 'tags': {'amenity': 'dentist', 'healthcare': 'dentist', 'name': '32 дэнт', 'name:be': '32 дэнт', 'name:ru': '32 дент'}}"
"{'type': 'node', 'id': 3950052613, 'lat': 52.6400927, 'lon': 29.7293526, 'tags': {'addr:housenumber': '80/1', 'addr:street': 'Сацыялістычная вуліца', 'amenity': 'pharmacy', 'healthcare': 'pharmacy', 'name': 'Аптэка №41', 'name:be': 'Аптэка №41', 'name:ru': 'Аптека №41', 'opening_hours': 'Mo-Fr 09:00-20:00; Sa-Su 10:00-18:00', 'operator': 'ООО ""Доктор время""'}}"
"{'type': 'node', 'id': 3950178399, 'lat': 52.6284371, 'lon': 29.7467563, 'tags': {'amenity': 'pharmacy', 'healthcare': 'pharmacy'}}"
"{'type': 'node', 'id': 3950223701, 'lat': 52.6288051, 'lon': 29.718121, 'tags': {'amenity': 'pharmacy', 'healthcare': 'pharmacy'}}"
"{'type': 'node', 'id': 3950229654, 'lat': 52.6262001, 'lon': 29.7152242, 'tags': {'amenity': 'pharmacy', 'healthcare': 'pharmacy'}}"
"{'type': 'node', 'id': 3950310185, 'lat': 52.6306666, 'lon': 29.718496, 'tags': {'amenity': 'pharmacy', 'healthcare': 'pharmacy'}}"
"{'type': 'node', 'id': 3950324657, 'lat': 52.6262373, 'lon': 29.7329313, 'tags': {'amenity': 'pharmacy', 'healthcare': 'pharmacy'}}"
"{'type': 'node', 'id': 3953508920, 'lat': 53.155859, 'lon': 30.4655279, 'tags': {'amenity': 'pharmacy', 'healthcare': 'pharmacy', 'name': 'Аптека №14', 'name:be': 'Аптэка №14', 'name:ru': 'Аптека №14', 'opening_hours': 'Mo-Fr 08:00-18:00; Sa,Su 09:00-14:30'}}"
"{'type': 'node', 'id': 3953510649, 'lat': 53.1562192, 'lon': 30.4662939, 'tags': {'amenity': 'dentist', 'healthcare': 'dentist', 'name': 'Стаматалогія', 'name:be': 'Стаматалогія', 'name:ru': 'Стамотология'}}"
"{'type': 'node', 'id': 3959619171, 'lat': 52.8916618, 'lon': 30.0403058, 'tags': {'amenity': 'clinic'}}"
"{'type': 'node', 'id': 4129499489, 'lat': 52.8850901, 'lon': 30.0299528, 'tags': {'amenity': 'pharmacy', 'description': 'Аптека V категории', 'healthcare': 'pharmacy', 'name': 'Аптека №201/10', 'name:be': 'Аптэка №201/10', 'name:ru': 'Аптека №201/10', 'opening_hours': 'Tu-Fr 10:00-13:30,14:00-18:30; Sa 08:30-12:30,13:00-17:00', 'operator': 'Фармация', 'ref': '201/10'}}"
"{'type': 'node', 'id': 4267921799, 'lat': 53.0876398, 'lon': 30.0520105, 'tags': {'amenity': 'dentist', 'healthcare': 'dentist', 'name': 'ІП Слінко Кірыл Вітальевіч', 'name:be': 'ІП Слінко Кірыл Вітальевіч', 'name:ru': 'ИП Слинко Кирилл Витальевич', 'opening_hours': 'Mo-Fr 09:00-13:00, 15:00-17:00', 'phone': '+375293407279'}}"
"{'type': 'node', 'id': 4286429918, 'lat': 53.0750108, 'lon': 30.0509603, 'tags': {'amenity': 'pharmacy', 'healthcare': 'pharmacy'}}"
"{'type': 'node', 'id': 4339658407, 'lat': 52.9088906, 'lon': 30.0402575, 'tags': {'amenity': 'pharmacy', 'healthcare': 'pharmacy', 'name': 'Искамед', 'name:be': 'Іскамед', 'name:ru': 'Искамед', 'ref': '54'}}"
"{'type': 'node', 'id': 4401038494, 'lat': 52.7184213, 'lon': 30.5745371, 'tags': {'amenity': 'clinic', 'name': 'Паліклініка', 'name:be': 'Паліклініка', 'name:ru': 'поликлиника', 'name:uk': 'Поліклініка'}}"
"{'type': 'node', 'id': 4401070695, 'lat': 52.7188097, 'lon': 30.5746858, 'tags': {'amenity': 'hospital', 'name': 'бальніца', 'name:be': 'бальніца', 'name:ru': 'Больница'}}"
"{'type': 'node', 'id': 4406332390, 'lat': 52.5468984, 'lon': 29.8464453, 'tags': {'amenity': 'hospital', 'name': 'ФАП', 'name:be': 'ФАП', 'name:ru': 'ФАП'}}"
"{'type': 'node', 'id': 4511623489, 'lat': 52.3825805, 'lon': 30.3635103, 'tags': {'amenity': 'pharmacy', 'healthcare': 'pharmacy'}}"
"{'type': 'node', 'id': 4551008657, 'lat': 52.6338272, 'lon': 29.7381045, 'tags': {'amenity': 'pharmacy', 'healthcare': 'pharmacy', 'name': 'Фармацыя № 39', 'name:be': 'Фармацыя № 39', 'name:en': 'Drugstore №39', 'name:ru': 'Фармация № 39', 'opening_hours': 'Mo-Fr 08:00-20:00; Sa-Su 09:00-17:00'}}"
"{'type': 'node', 'id': 4626997535, 'lat': 52.3835794, 'lon': 30.3502756, 'tags': {'addr:housenumber': '117', 'addr:street': 'вуліца Трыфанава', 'amenity': 'clinic', 'building:levels': '5', 'healthcare': 'clinic', 'name': 'Прыёмны пакой', 'name:be': 'Прыёмны пакой', 'name:ru': 'Приемный покой', 'operator': 'УЗ ""Речицкая центральная районная больница""'}}"
"{'type': 'node', 'id': 4626997540, 'lat': 52.3836258, 'lon': 30.3496288, 'tags': {'addr:housenumber': '117', 'addr:street': 'вуліца Трыфанава', 'amenity': 'clinic', 'building:levels': '5', 'healthcare': 'clinic', 'name': 'Бальніца', 'name:be': 'Бальніца', 'name:ru': 'Больница', 'operator': 'УЗ ""Речицкая центральная районная больница""'}}"
"{'type': 'node', 'id': 4815441223, 'lat': 53.5171511, 'lon': 30.2375572, 'tags': {'addr:city': 'Быхаў', 'addr:housenumber': '15А', 'addr:postcode': '213352', 'addr:street': 'вуліца Леніна', 'amenity': 'pharmacy', 'dispensing': 'yes', 'drive_through': 'no', 'email': 'aptbhv036@mogpharm.by', 'healthcare': 'pharmacy', 'image': 'https://mogpharm.by/i/shops/796/461.jpg', 'name': 'Цэнтральная раённая аптэка №36', 'name:be': 'Цэнтральная раённая аптэка №36', 'name:ru': 'Центральная районная аптека №36', 'official_name': 'Быховская центральная районная аптека №\xa036', 'opening_hours': 'Mo-Fr 08:00-22:00; Sa 09:00-13:40, 14:00-17:20; Su 08:00-21:00', 'operator': 'Могилёвское РУП «Фармация»', 'payment:cash': 'yes', 'payment:coins': 'yes', 'payment:contactless': 'yes', 'payment:credit_cards': 'yes', 'payment:debit_cards': 'yes', 'payment:maestro': 'yes', 'payment:mastercard': 'yes', 'payment:notes': 'yes', 'payment:visa': 'yes', 'payment:visa_electron': 'yes', 'phone': '+375 2231 49-488;+375 2231 49-251;+375 2231 49-530', 'website': 'https://mogpharm.by/', 'wheelchair': 'limited'}}"
"{'type': 'node', 'id': 4815441224, 'lat': 53.5265622, 'lon': 30.2187229, 'tags': {'addr:city': 'Быхаў', 'addr:housenumber': '11', 'addr:postcode': '213353', 'addr:street': 'вуліца Грышына', 'amenity': 'pharmacy', 'dispensing': 'yes', 'drive_through': 'no', 'email': 'aptbhv124@mogpharm.by', 'healthcare': 'pharmacy', 'image': 'https://mogpharm.by/i/shops/796/456.jpg', 'name': 'Аптэка №124', 'name:be': 'Аптэка №124', 'name:ru': 'Аптека №124', 'opening_hours': 'Mo-Su 08:00-21:00', 'operator': 'Могилёвское РУП «Фармация»', 'payment:cash': 'yes', 'payment:coins': 'yes', 'payment:contactless': 'yes', 'payment:credit_cards': 'yes', 'payment:debit_cards': 'yes', 'payment:maestro': 'yes', 'payment:mastercard': 'yes', 'payment:notes': 'yes', 'payment:visa': 'yes', 'payment:visa_electron': 'yes', 'phone': '+375 2231 78055', 'website': 'https://mogpharm.by/'}}"
"{'type': 'node', 'id': 4815441227, 'lat': 53.3897563, 'lon': 30.3924651, 'tags': {'amenity': 'pharmacy', 'healthcare': 'pharmacy', 'name': 'Могилёвское РУП «Фармация» Аптека № 152', 'name:be': 'Магілёўскае РУП «Фармацыя» Аптэка № 152', 'name:ru': 'Могилёвское РУП «Фармация» Аптека № 152', 'operator': 'Могилёвское РУП «Фармация»', 'phone': '+375223139538'}}"
"{'type': 'node', 'id': 4815463721, 'lat': 53.5204406, 'lon': 30.255771, 'tags': {'addr:city': 'Быхаў', 'addr:housenumber': '2', 'addr:postcode': '213352', 'addr:street': 'Савецкая вуліца', 'amenity': 'pharmacy', 'dispensing': 'yes', 'drive_through': 'no', 'email': 'aptbhv138@mogpharm.by', 'healthcare': 'pharmacy', 'image': 'https://mogpharm.by/i/shops/796/458.jpg', 'name': 'Аптэка №138', 'name:be': 'Аптэка №138', 'name:ru': 'Аптека №138', 'official_name': 'Аптека №\xa0138', 'opening_hours': 'Mo-Sa 08:00-12:00, 13:00-17:00', 'operator': 'Могилёвское РУП «Фармация»', 'payment:cash': 'yes', 'payment:coins': 'yes', 'payment:contactless': 'yes', 'payment:credit_cards': 'yes', 'payment:debit_cards': 'yes', 'payment:maestro': 'yes', 'payment:mastercard': 'yes', 'payment:notes': 'yes', 'payment:visa': 'yes', 'payment:visa_electron': 'yes', 'phone': '+375 2231 71-012', 'website': 'https://mogpharm.by/'}}"
"{'type': 'node', 'id': 4853376521, 'lat': 52.6340938, 'lon': 29.7480173, 'tags': {'amenity': 'clinic', 'healthcare': 'clinic', 'name': 'Invitro', 'name:be': 'Інвітра', 'name:ru': 'Инвитро', 'opening_hours': 'Mo,We,Fr 07:00-14:00'}}"
"{'type': 'node', 'id': 4853413325, 'lat': 52.6346531, 'lon': 29.7423391, 'tags': {'amenity': 'pharmacy', 'healthcare': 'pharmacy', 'name': 'Фармацыя # 168/9', 'name:be': 'Фармацыя # 168/9', 'name:ru': 'Фармация # 168/9', 'opening_hours': 'Mo-Fr 09:00-19:00; Sa-Su 09:00-17:30'}}"
"{'type': 'node', 'id': 4940226821, 'lat': 52.6276192, 'lon': 29.7346761, 'tags': {'amenity': 'pharmacy', 'healthcare': 'pharmacy', 'name': 'Мая аптэка #37', 'name:be': 'Мая аптэка #37', 'name:ru': 'Моя аптека #37', 'opening_hours': '09:00-21:00', 'phone': '+375 2342 35533'}}"
"{'type': 'node', 'id': 4940311823, 'lat': 52.6299562, 'lon': 29.7452783, 'tags': {'amenity': 'pharmacy', 'healthcare': 'pharmacy', 'name': 'Доктар час № 24', 'name:be': 'Доктар час № 24', 'name:ru': 'Доктор время # 24'}}"
"{'type': 'node', 'id': 4940548421, 'lat': 52.6268161, 'lon': 29.7233802, 'tags': {'amenity': 'pharmacy', 'contact:email': 'info@d-leki.by', 'contact:instagram': 'https://www.instagram.com/apteka_adel', 'contact:phone': '+375 25 5355757;+375 29 5355757;+375 44 5355757', 'contact:vk': 'https://vk.com/apteka_adel', 'contact:website': 'https://d-leki.by/', 'healthcare': 'pharmacy', 'name': 'Добрыя лекі', 'name:be': 'Добрыя лекі', 'name:ru': 'Добрыя леки', 'opening_hours': 'Mo-Su 09:00-21:00', 'operator': '""Медфарм""'}}"
"{'type': 'node', 'id': 4940667721, 'lat': 52.6279509, 'lon': 29.7418843, 'tags': {'amenity': 'pharmacy', 'contact:email': 'info@d-leki.by', 'contact:instagram': 'https://www.instagram.com/apteka_adel', 'contact:phone': '+375 25 5355757;+375 29 5355757;+375 44 5355757', 'contact:vk': 'https://vk.com/apteka_adel', 'contact:website': 'https://d-leki.by/', 'healthcare': 'pharmacy', 'name': 'Добрыя лекі', 'name:be': 'Добрыя лекі', 'name:ru': 'Добрыя леки', 'opening_hours': 'Mo-Su 09:00-20:00', 'operator': '""Медфарм""'}}"
"{'type': 'node', 'id': 4941720422, 'lat': 52.3682635, 'lon': 30.3802957, 'tags': {'amenity': 'pharmacy', 'healthcare': 'pharmacy', 'name': 'Іскамед №55', 'name:be': 'Іскамед №55', 'name:ru': 'Искамед  №55'}}"
"{'type': 'node', 'id': 4941861921, 'lat': 52.3668035, 'lon': 30.3943822, 'tags': {'amenity': 'pharmacy', 'healthcare': 'pharmacy', 'name': 'Добрыя Лекі Аптэка №43 ЗАТ Медфарм', 'name:be': 'Добрыя Лекі Аптэка №43 ЗАТ Медфарм', 'name:ru': 'Добрыя Леки Аптека №43 ЗАО Медфарм', 'opening_hours': 'Mo-Fr 08:00-20:00; Sa-Su 09:00-19:00', 'phone': '+375295355757', 'website': 'http://d-leki.by'}}"
"{'type': 'node', 'id': 4941927722, 'lat': 52.3645984, 'lon': 30.4049083, 'tags': {'amenity': 'pharmacy', 'healthcare': 'pharmacy', 'name': 'Доктар час №23', 'name:be': 'Доктар час №23', 'name:ru': 'Доктор время №23'}}"
"{'type': 'node', 'id': 4941943221, 'lat': 52.3637874, 'lon': 30.4257098, 'tags': {'amenity': 'pharmacy', 'healthcare': 'pharmacy', 'name': 'ADEL №17', 'name:be': 'Адэль №17', 'name:ru': 'Адель №17'}}"
"{'type': 'node', 'id': 4941965322, 'lat': 52.3564547, 'lon': 30.4181141, 'tags': {'amenity': 'pharmacy', 'contact:email': 'info@d-leki.by', 'contact:instagram': 'https://www.instagram.com/apteka_adel', 'contact:phone': '+375 25 5355757;+375 29 5355757;+375 44 5355757', 'contact:vk': 'https://vk.com/apteka_adel', 'contact:website': 'https://d-leki.by/', 'healthcare': 'pharmacy', 'name': 'Добрыя лекі', 'name:be': 'Добрыя лекі', 'name:ru': 'Добрыя леки', 'opening_hours': 'Mo-Su 08:00-20:00', 'operator': '""Медфарм""'}}"
"{'type': 'node', 'id': 4942004921, 'lat': 52.3545301, 'lon': 30.4218301, 'tags': {'amenity': 'pharmacy', 'healthcare': 'pharmacy', 'name': 'Клапатлiвая аптэка №21', 'name:be': 'Клапатлiвая аптэка №21', 'name:ru': 'Заботливая аптека №21'}}"
"{'type': 'node', 'id': 4942033523, 'lat': 52.3521642, 'lon': 30.4043418, 'tags': {'amenity': 'pharmacy', 'healthcare': 'pharmacy', 'name': 'Клапатлiвая аптэка № 14', 'name:be': 'Клапатлiвая аптэка № 14', 'name:ru': 'Заботливая аптека # 14'}}"
"{'type': 'node', 'id': 4942040221, 'lat': 52.3525668, 'lon': 30.4033201, 'tags': {'amenity': 'pharmacy', 'healthcare': 'pharmacy', 'name': 'Доктар час №2', 'name:be': 'Доктар час №2', 'name:ru': 'Доктор время №2'}}"
"{'type': 'node', 'id': 4952641428, 'lat': 52.8988663, 'lon': 30.0415583, 'tags': {'addr:housenumber': '1А', 'addr:place': '1-ы мікрараён', 'amenity': 'pharmacy', 'healthcare': 'pharmacy', 'name': 'Искамед # 8', 'name:be': 'Іскамед # 8', 'name:ru': 'Искамед # 8', 'opening_hours': 'Mo-Fr 08:00-20:00; Sa-Su 08:00-18:00'}}"
"{'type': 'node', 'id': 4954409322, 'lat': 53.0990695, 'lon': 30.0623729, 'tags': {'amenity': 'pharmacy', 'healthcare': 'pharmacy', 'name': 'Фармация # 188', 'name:be': 'Фармацыя # 188', 'name:ru': 'Фармация # 188'}}"
"{'type': 'node', 'id': 4954497122, 'lat': 53.1029773, 'lon': 30.0667964, 'tags': {'amenity': 'pharmacy', 'healthcare': 'pharmacy', 'name': 'Искамед # 46', 'name:be': 'Іскамед # 46', 'name:ru': 'Искамед # 46'}}"
"{'type': 'node', 'id': 4954502921, 'lat': 53.1110365, 'lon': 30.0648838, 'tags': {'amenity': 'pharmacy', 'healthcare': 'pharmacy', 'name': 'Планета Здоровья # 22', 'name:be': 'Планета Здароўя # 22', 'name:ru': 'Планета Здоровья # 22'}}"
"{'type': 'node', 'id': 4955006021, 'lat': 53.0691284, 'lon': 30.0126135, 'tags': {'amenity': 'pharmacy', 'healthcare': 'pharmacy', 'name': 'Фармация # 210', 'name:be': 'Фармацыя # 210', 'name:ru': 'Фармация # 210'}}"
"{'type': 'node', 'id': 4990092727, 'lat': 52.372521, 'lon': 30.3486872, 'tags': {'amenity': 'pharmacy', 'healthcare': 'pharmacy', 'name': '№6', 'name:be': '№6', 'opening_hours': 'Mo-Fr 09:00-20:00, Sa-Su 09:00-19:00', 'operator': 'ООО Аптекарь'}}"
"{'type': 'node', 'id': 5010990622, 'lat': 52.625653, 'lon': 29.7300463, 'tags': {'amenity': 'pharmacy', 'healthcare': 'pharmacy', 'name': 'Доктар час №32', 'name:be': 'Доктар час №32', 'name:ru': 'Доктор время #32', 'operator': 'Доктор время'}}"
"{'type': 'node', 'id': 5013839621, 'lat': 52.6222071, 'lon': 29.7273151, 'tags': {'amenity': 'pharmacy', 'healthcare': 'pharmacy', 'name': 'Планета Здароўя # 9', 'name:be': 'Планета Здароўя # 9', 'name:ru': 'Планета Здоровья # 9'}}"
"{'type': 'node', 'id': 5458191131, 'lat': 53.0561905, 'lon': 29.4762726, 'tags': {'addr:street': 'Шасэйная вуліца', 'amenity': 'clinic', 'name': 'Фельчарска-акушэрскі пункт', 'name:be': 'Фельчарска-акушэрскі пункт', 'name:ru': 'Фельдшерско-акушерский пункт', 'name:uk': 'Фельдшерсько-акушерський пункт', 'opening_hours': 'Mo-Sa 08:00-15:00', 'operator': 'УЗ ""Бобруйская городская поликлиника 2""', 'website': 'http://www.bobcrp.by'}}"
"{'type': 'node', 'id': 5554587222, 'lat': 52.9045837, 'lon': 30.0340292, 'tags': {'amenity': 'pharmacy', 'healthcare': 'pharmacy', 'name': 'Планета здоровья', 'name:be': 'Планета здароўя', 'name:ru': 'Планета здоровья', 'opening_hours': 'Mo-Su 09:00-22:00', 'operator': 'ООО ""КосмоФарма""'}}"
"{'type': 'node', 'id': 5562894375, 'lat': 52.8946418, 'lon': 30.0310394, 'tags': {'amenity': 'pharmacy', 'healthcare': 'pharmacy', 'name': 'Аптека №201/12', 'name:be': 'Аптэка №201/12', 'name:ru': 'Аптека №201/12', 'opening_hours': 'Mo-Su 07:30-15:30'}}"
"{'type': 'node', 'id': 5567901080, 'lat': 52.8930783, 'lon': 30.035172, 'tags': {'amenity': 'pharmacy', 'contact:email': 'info@d-leki.by', 'contact:instagram': 'https://www.instagram.com/apteka_adel', 'contact:phone': '+375 25 5355757;+375 29 5355757;+375 44 5355757', 'contact:vk': 'https://vk.com/apteka_adel', 'contact:website': 'https://d-leki.by/', 'healthcare': 'pharmacy', 'name': 'Добрыя леки', 'name:be': 'Добрыя лекі', 'name:ru': 'Добрыя леки', 'opening_hours': 'Mo-Fr 08:00-20:00;Sa-Su 09:00-19:00', 'operator': '""Амадей""'}}"
"{'type': 'node', 'id': 6194605980, 'lat': 52.9119074, 'lon': 30.0345772, 'tags': {'amenity': 'pharmacy', 'healthcare': 'pharmacy'}}"
"{'type': 'node', 'id': 6217351544, 'lat': 52.6363635, 'lon': 29.7428346, 'tags': {'amenity': 'pharmacy', 'dispensing': 'yes', 'healthcare': 'pharmacy', 'name': 'Фармацыя Аптэка №168', 'name:be': 'Фармацыя Аптэка №168', 'name:ru': 'Фармация Аптека №168'}}"
"{'type': 'node', 'id': 6217479793, 'lat': 52.6273374, 'lon': 29.7251826, 'tags': {'amenity': 'pharmacy', 'dispensing': 'yes', 'healthcare': 'pharmacy', 'name': 'Фармацыя Аптэка № 168/6', 'name:be': 'Фармацыя Аптэка № 168/6', 'name:ru': 'Фармация Аптека № 168/6'}}"
"{'type': 'node', 'id': 6233222086, 'lat': 52.9079158, 'lon': 30.0428872, 'tags': {'amenity': 'pharmacy', 'healthcare': 'pharmacy', 'opening_hours': 'Mo-Su 09:00-21:00'}}"
"{'type': 'node', 'id': 6339845181, 'lat': 52.9103619, 'lon': 30.0360133, 'tags': {'amenity': 'pharmacy', 'contact:email': 'info@d-leki.by', 'contact:instagram': 'https://www.instagram.com/apteka_adel', 'contact:phone': '+375 25 5355757;+375 29 5355757;+375 44 5355757', 'contact:vk': 'https://vk.com/apteka_adel', 'contact:website': 'https://d-leki.by/', 'healthcare': 'pharmacy', 'name': 'Добрыя леки', 'name:be': 'Добрыя лекі', 'name:ru': 'Добрыя леки', 'opening_hours': 'Mo-Fr 09:00-21:00;Sa-Su 10:00-20:00', 'operator': '""Амадей""'}}"
"{'type': 'node', 'id': 6389644492, 'lat': 52.8994696, 'lon': 30.0435358, 'tags': {'amenity': 'pharmacy', 'contact:email': 'info@d-leki.by', 'contact:instagram': 'https://www.instagram.com/apteka_adel', 'contact:phone': '+375 25 5355757;+375 29 5355757;+375 44 5355757', 'contact:vk': 'https://vk.com/apteka_adel', 'contact:website': 'https://d-leki.by/', 'healthcare': 'pharmacy', 'name': 'Добрыя леки', 'name:be': 'Добрыя лекі', 'name:ru': 'Добрыя леки', 'opening_hours': 'Mo-Sa 09:00-21:00;Su 09:00-20:00', 'operator': '""Амадей""'}}"
"{'type': 'node', 'id': 6389644505, 'lat': 52.8933177, 'lon': 30.0444759, 'tags': {'healthcare': 'yes', 'name': 'Кабінет УГД', 'name:be': 'Кабінет УГД', 'name:ru': 'Кабинет УЗИ', 'opening_hours': 'Tu-Fr 08:00-15:00; Mo,We 13:00-18:00', 'operator': 'ИП Гулевич Н.В.', 'phone': '+375 29 6330342'}}"
"{'type': 'node', 'id': 6507255092, 'lat': 52.8938954, 'lon': 30.0301657, 'tags': {'amenity': 'pharmacy', 'healthcare': 'pharmacy', 'name': 'Искамед', 'name:be': 'Іскамед', 'name:ru': 'Искамед', 'opening_hours': 'Tu-Su 08:00-16:00', 'ref': '17'}}"
"{'type': 'node', 'id': 6533864085, 'lat': 52.9103643, 'lon': 30.045, 'tags': {'amenity': 'pharmacy', 'healthcare': 'pharmacy', 'name': 'Аптека #58', 'name:be': 'Аптэка #58', 'name:ru': 'Аптека #58', 'opening_hours': 'Mo-Su 09:00-20:00', 'operator': 'ООО ""Доктор время""'}}"
"{'type': 'node', 'id': 6638712888, 'lat': 52.6801401, 'lon': 29.65109, 'tags': {'amenity': 'pharmacy', 'healthcare': 'pharmacy'}}"
"{'type': 'node', 'id': 6737605387, 'lat': 53.0923728, 'lon': 30.0561599, 'tags': {'amenity': 'dentist', 'email': 'anolia@list.ru', 'healthcare': 'dentist', 'internet_access': 'wlan', 'name': 'Майстэрня ўсмешак', 'name:be': 'Майстэрня ўсмешак', 'name:ru': 'Мастерская улыбок', 'opening_hours': 'Mo-Fr 09:00-18:00', 'phone': '+375291914188', 'website': 'https://m.vk.com/workshopsmiles'}}"
"{'type': 'node', 'id': 6946506085, 'lat': 52.3537038, 'lon': 30.4154077, 'tags': {'addr:postcode': '247500', 'amenity': 'pharmacy', 'brand': 'Планета Здоровья', 'brand:be': 'Планета Здароўя', 'brand:be-tarask': 'Плянэта Здароўя', 'brand:en': 'Health Planet', 'brand:ru': 'Планета Здоровья', 'brand:wikidata': 'Q107231230', 'healthcare': 'pharmacy', 'name': 'Планета здароўя', 'name:be': 'Планета здароўя', 'name:be-tarask': 'Плянэта Здароўя', 'name:en': 'Health Planet', 'name:ru': 'Планета Здоровья', 'opening_hours': 'Mo-Su 09:00-21:00', 'phone': '+375234078033'}}"
"{'type': 'node', 'id': 6980349586, 'lat': 52.3661645, 'lon': 30.4007396, 'tags': {'addr:postcode': '247500', 'amenity': 'doctors', 'healthcare': 'doctor', 'name': 'Сямʼя і здароўе', 'name:be': 'Сямʼя і здароўе', 'name:ru': 'Семья и здоровье', 'opening_hours': 'Mo-Sa 08:00-20:00; Su 08:00-18:00', 'phone': '+375234041006'}}"
"{'type': 'node', 'id': 7214667626, 'lat': 52.8985012, 'lon': 30.0303856, 'tags': {'amenity': 'pharmacy', 'healthcare': 'pharmacy'}}"
"{'type': 'node', 'id': 7328193285, 'lat': 52.3668287, 'lon': 30.3976428, 'tags': {'addr:postcode': '247500', 'amenity': 'pharmacy', 'healthcare': 'pharmacy', 'name': 'Іскамед ТАА Аптэка №79', 'name:be': 'Іскамед ТАА Аптэка №79', 'name:ru': 'Искамед ООО Аптека №79', 'opening_hours': 'Mo-Su 09:00-20:00', 'phone': '+375234037179'}}"
"{'type': 'node', 'id': 7610209019, 'lat': 52.3665342, 'lon': 30.401518, 'tags': {'addr:city': 'Рэчыца', 'addr:housenumber': '93А', 'addr:street': 'Савецкая вуліца', 'alt_name': 'Центральная аптека', 'amenity': 'pharmacy', 'dispensing': 'yes', 'drive_through': 'no', 'healthcare': 'pharmacy', 'name': 'Цэнтральная аптэка', 'name:be': 'Цэнтральная аптэка', 'name:ru': 'Центральная аптека', 'official_name': 'Аптека №53', 'opening_hours': 'Mo-Sa 08:00-20:00; Su 08:00-14:00,15:00-20:00; PH off', 'operator': 'Гомельское УП Фармация', 'phone': '+375 2340 5-43-63', 'website': 'https://gomelpharm.by/'}}"
"{'type': 'node', 'id': 7611029385, 'lat': 53.1043092, 'lon': 30.0634384, 'tags': {'amenity': 'pharmacy', 'brand': 'Планета Здоровья', 'brand:be': 'Планета Здароўя', 'brand:be-tarask': 'Плянэта Здароўя', 'brand:en': 'Health Planet', 'brand:ru': 'Планета Здоровья', 'brand:wikidata': 'Q107231230', 'healthcare': 'pharmacy', 'name': 'Планета здоровья', 'name:be': 'Планета здароўя', 'name:be-tarask': 'Плянэта Здароўя', 'name:en': 'Health Planet', 'name:ru': 'Планета здоровья'}}"
"{'type': 'node', 'id': 7643176115, 'lat': 52.3825694, 'lon': 30.3636853, 'tags': {'amenity': 'doctors', 'healthcare': 'doctor', 'name': 'Кабінет УГД', 'name:be': 'Кабінет УГД', 'name:ru': 'Кабинет УЗИ'}}"
"{'type': 'node', 'id': 7671645192, 'lat': 52.3661348, 'lon': 30.4040773, 'tags': {'amenity': 'doctors', 'healthcare': 'doctor', 'healthcare:speciality': 'diagnostic_radiology', 'name': 'Ультрасонэкс', 'name:be': 'Ультрасонэкс', 'name:ru': 'Ультрасонекс'}}"
"{'type': 'node', 'id': 7716402875, 'lat': 52.882899, 'lon': 30.009282, 'tags': {'amenity': 'pharmacy', 'contact:email': 'info@d-leki.by', 'contact:instagram': 'https://www.instagram.com/apteka_adel', 'contact:phone': '+375 25 5355757;+375 29 5355757;+375 44 5355757', 'contact:vk': 'https://vk.com/apteka_adel', 'contact:website': 'https://d-leki.by/', 'healthcare': 'pharmacy', 'name': 'Добрыя леки', 'name:be': 'Добрыя лекі', 'name:ru': 'Добрыя леки', 'opening_hours': 'Mo-Fr 09:00-19:00', 'operator': '""Амадей""'}}"
"{'type': 'node', 'id': 7716402881, 'lat': 52.725377, 'lon': 30.57382, 'tags': {'amenity': 'pharmacy', 'contact:email': 'info@d-leki.by', 'contact:instagram': 'https://www.instagram.com/apteka_adel', 'contact:phone': '+375 25 5355757;+375 29 5355757;+375 44 5355757', 'contact:vk': 'https://vk.com/apteka_adel', 'contact:website': 'https://d-leki.by/', 'healthcare': 'pharmacy', 'name': 'Добрыя леки', 'name:be': 'Добрыя лекі', 'name:ru': 'Добрыя леки', 'opening_hours': 'Mo-Fr 09:00-21:00;Sa-Su 09:00-20:00', 'operator': '""Амадей""'}}"
"{'type': 'node', 'id': 7716402883, 'lat': 53.074379, 'lon': 30.05089, 'tags': {'amenity': 'pharmacy', 'contact:email': 'info@d-leki.by', 'contact:instagram': 'https://www.instagram.com/apteka_adel', 'contact:phone': '+375 25 5355757;+375 29 5355757;+375 44 5355757', 'contact:vk': 'https://vk.com/apteka_adel', 'contact:website': 'https://d-leki.by/', 'healthcare': 'pharmacy', 'name': 'Добрыя леки', 'name:be': 'Добрыя лекі', 'name:ru': 'Добрыя леки', 'opening_hours': 'Mo-Fr 08:00-19:00;Sa-Su 08:00-16:00', 'operator': '""Амадей""'}}"
"{'type': 'node', 'id': 7716402884, 'lat': 53.075484, 'lon': 30.051062, 'tags': {'amenity': 'pharmacy', 'contact:email': 'info@d-leki.by', 'contact:instagram': 'https://www.instagram.com/apteka_adel', 'contact:phone': '+375 25 5355757;+375 29 5355757;+375 44 5355757', 'contact:vk': 'https://vk.com/apteka_adel', 'contact:website': 'https://d-leki.by/', 'healthcare': 'pharmacy', 'name': 'Добрыя леки', 'name:be': 'Добрыя лекі', 'name:ru': 'Добрыя леки', 'opening_hours': 'Mo-Fr 08:00-19:00;Sa-Su 08:00-17:00', 'operator': '""Амадей""'}}"
"{'type': 'node', 'id': 7716411095, 'lat': 52.630498, 'lon': 29.753262, 'tags': {'amenity': 'pharmacy', 'contact:email': 'info@d-leki.by', 'contact:instagram': 'https://www.instagram.com/apteka_adel', 'contact:phone': '+375 25 5355757;+375 29 5355757;+375 44 5355757', 'contact:vk': 'https://vk.com/apteka_adel', 'contact:website': 'https://d-leki.by/', 'healthcare': 'pharmacy', 'name': 'Добрыя леки', 'name:be': 'Добрыя лекі', 'name:ru': 'Добрыя леки', 'opening_hours': 'Mo-Fr 08:00-20:00;Sa-Su 09:00-19:00', 'operator': '""Медфарм""'}}"
"{'type': 'node', 'id': 7716411101, 'lat': 52.352066, 'lon': 30.404711, 'tags': {'amenity': 'pharmacy', 'contact:email': 'info@d-leki.by', 'contact:instagram': 'https://www.instagram.com/apteka_adel', 'contact:phone': '+375 25 5355757;+375 29 5355757;+375 44 5355757', 'contact:vk': 'https://vk.com/apteka_adel', 'contact:website': 'https://d-leki.by/', 'healthcare': 'pharmacy', 'name': 'Добрыя лекі', 'name:be': 'Добрыя лекі', 'name:ru': 'Добрыя леки', 'opening_hours': 'Mo-Su 09:00-21:00', 'operator': '""Медфарм""'}}"
"{'type': 'node', 'id': 7716411104, 'lat': 53.086956, 'lon': 30.052907, 'tags': {'amenity': 'pharmacy', 'contact:email': 'info@d-leki.by', 'contact:instagram': 'https://www.instagram.com/apteka_adel', 'contact:phone': '+375 25 5355757;+375 29 5355757;+375 44 5355757', 'contact:vk': 'https://vk.com/apteka_adel', 'contact:website': 'https://d-leki.by/', 'healthcare': 'pharmacy', 'name': 'Добрыя леки', 'name:be': 'Добрыя лекі', 'name:ru': 'Добрыя леки', 'opening_hours': 'Mo-Fr 08:00-20:00;Sa-Su 09:00-20:00', 'operator': '""Медфарм""'}}"
"{'type': 'node', 'id': 7716411106, 'lat': 52.35442, 'lon': 30.422121, 'tags': {'amenity': 'pharmacy', 'contact:email': 'info@d-leki.by', 'contact:instagram': 'https://www.instagram.com/apteka_adel', 'contact:phone': '+375 25 5355757;+375 29 5355757;+375 44 5355757', 'contact:vk': 'https://vk.com/apteka_adel', 'contact:website': 'https://d-leki.by/', 'healthcare': 'pharmacy', 'name': 'Добрыя лекі', 'name:be': 'Добрыя лекі', 'name:ru': 'Добрыя леки', 'opening_hours': 'Mo-Fr 09:00-21:00;Sa-Su 09:00-20:00', 'operator': '""Медфарм""'}}"
"{'type': 'node', 'id': 7716411128, 'lat': 53.5220464, 'lon': 30.2302614, 'tags': {'addr:city': 'Быхаў', 'addr:housenumber': '32', 'addr:postcode': '213353', 'addr:street': 'Чырвонаармейская вуліца', 'amenity': 'pharmacy', 'contact:email': 'info@d-leki.by', 'contact:instagram': 'https://www.instagram.com/apteka_adel', 'contact:phone': '+375 25 5355757;+375 29 5355757;+375 44 5355757', 'contact:vk': 'https://vk.com/apteka_adel', 'contact:website': 'https://d-leki.by/', 'dispensing': 'yes', 'drive_through': 'no', 'healthcare': 'pharmacy', 'name': 'Аптэка №69 Добрыя лекі', 'name:be': 'Аптэка №69 Добрыя лекі', 'name:ru': 'Аптека №69 Добрыя леки', 'opening_hours': 'Mo-Su 08:00-21:00', 'operator': 'ООО «Управляющая компания холдинга «Аптека групп»', 'website': 'https://d-leki.by/'}}"
"{'type': 'node', 'id': 7716411132, 'lat': 52.8907998, 'lon': 30.0426113, 'tags': {'addr:housenumber': '35', 'addr:street': 'вуліца Барташова', 'amenity': 'pharmacy', 'check_date': '2022-06-14', 'contact:email': 'info@d-leki.by', 'contact:instagram': 'https://www.instagram.com/apteka_adel', 'contact:phone': '+375 25 5355757;+375 29 5355757;+375 44 5355757', 'contact:vk': 'https://vk.com/apteka_adel', 'contact:website': 'https://d-leki.by/', 'healthcare': 'pharmacy', 'name': 'Добрыя леки', 'name:be': 'Добрыя лекі', 'name:ru': 'Добрыя леки', 'opening_hours': 'Mo-Fr 09:00-20:00', 'operator': '""Медфарм""'}}"
"{'type': 'node', 'id': 7716426889, 'lat': 53.086096, 'lon': 30.053461, 'tags': {'amenity': 'pharmacy', 'contact:email': 'info@d-leki.by', 'contact:instagram': 'https://www.instagram.com/apteka_adel', 'contact:phone': '+375 25 5355757;+375 29 5355757;+375 44 5355757', 'contact:vk': 'https://vk.com/apteka_adel', 'contact:website': 'https://d-leki.by/', 'healthcare': 'pharmacy', 'name': 'Добрыя леки', 'name:be': 'Добрыя лекі', 'name:ru': 'Добрыя леки', 'opening_hours': 'Mo-Fr 08:00-20:00;Sa-Su 09:00-17:00', 'operator': '""Амадей""'}}"
"{'type': 'node', 'id': 7760354089, 'lat': 52.369033, 'lon': 30.393425, 'tags': {'amenity': 'pharmacy', 'contact:email': 'info@d-leki.by', 'contact:instagram': 'https://www.instagram.com/apteka_adel', 'contact:phone': '+375 25 5355757;+375 29 5355757;+375 44 5355757', 'contact:vk': 'https://vk.com/apteka_adel', 'contact:website': 'https://d-leki.by/', 'healthcare': 'pharmacy', 'name': 'Добрыя лекі', 'name:be': 'Добрыя лекі', 'name:ru': 'Добрыя леки', 'opening_hours': 'Mo-Su 09:00-21:00', 'operator': '""Медфарм""'}}"
"{'type': 'node', 'id': 7760354090, 'lat': 52.3664972, 'lon': 30.3942695, 'tags': {'amenity': 'pharmacy', 'contact:email': 'info@d-leki.by', 'contact:instagram': 'https://www.instagram.com/apteka_adel', 'contact:phone': '+375 25 5355757;+375 29 5355757;+375 44 5355757', 'contact:vk': 'https://vk.com/apteka_adel', 'contact:website': 'https://d-leki.by/', 'healthcare': 'pharmacy', 'name': 'Добрыя лекі', 'name:be': 'Добрыя лекі', 'name:ru': 'Добрыя леки', 'opening_hours': 'Mo-Fr 08:00-20:00;Sa-Su 09:00-19:00', 'operator': '""Медфарм""'}}"
"{'type': 'node', 'id': 7798150124, 'lat': 52.6885043, 'lon': 29.7277786, 'tags': {'healthcare': 'doctor'}}"
"{'type': 'node', 'id': 8114356360, 'lat': 52.6353705, 'lon': 29.7509666, 'tags': {'amenity': 'pharmacy', 'healthcare': 'pharmacy', 'name': 'Аптэка №12', 'name:be': 'Аптэка №12', 'name:ru': 'Аптека №12', 'opening_hours': 'Mo-Su 09:00-20:00', 'operator': 'ЗАО «Оффицина»'}}"
"{'type': 'node', 'id': 8514078517, 'lat': 52.8916582, 'lon': 30.0364721, 'tags': {'amenity': 'pharmacy', 'healthcare': 'pharmacy', 'name': 'Аптека №33', 'name:be': 'Аптэка №33', 'name:ru': 'Аптека №33', 'opening_hours': 'Mo-Fr 09:00-22:00; Sa 09:00-21:00; Su 09:00-20:00'}}"
"{'type': 'node', 'id': 8693440758, 'lat': 52.6321628, 'lon': 29.7493056, 'tags': {'amenity': 'pharmacy', 'contact:instagram': 'https://www.instagram.com/pharmostrov.by/', 'contact:phone': '+375 2342 29982;+375 29 1832118', 'contact:vk': 'https://vk.com/public175933183', 'contact:website': 'https://www.xn--80ae3aiajchjo.xn--90ais/', 'healthcare': 'pharmacy', 'name': 'Аптека №17 ФармОстров', 'name:be': 'Аптэка №17 ФармВостраў', 'name:ru': 'Аптека №17 ФармОстров', 'opening_hours': 'Mo-Su 8:00-21:00', 'operator': 'ФармОстров'}}"
"{'type': 'node', 'id': 8693440766, 'lat': 52.6257528, 'lon': 29.7222232, 'tags': {'amenity': 'dentist', 'contact:email': 'voskobovich67@mail.ru', 'contact:phone': '+375 2342 36555;+375 29 3096555;+375 33 3533655', 'healthcare': 'dentist', 'name': 'Смайл', 'name:be': 'Смайл', 'name:ru': 'Смайл', 'opening_hours': 'Mo-Fr 09:00-21:00; Sa-Su 09:00-15:00', 'operator': 'СмайСветДент'}}"
"{'type': 'node', 'id': 8693440771, 'lat': 52.366111, 'lon': 30.397958, 'tags': {'amenity': 'pharmacy', 'contact:instagram': 'https://www.instagram.com/pharmostrov.by/', 'contact:phone': '+375 2340 96754;+375 44 7972118', 'contact:vk': 'https://vk.com/public175933189', 'contact:website': 'https://www.xn--80ae3aiajchjo.xn--90ais/', 'healthcare': 'pharmacy', 'name': 'Аптэка №23 ФармВостраў', 'name:be': 'Аптэка №23 ФармВостраў', 'name:ru': 'Аптека №23 ФармОстров', 'opening_hours': 'Mo-Su 8:00-20:00', 'operator': 'ФармОстров'}}"
"{'type': 'node', 'id': 8693440773, 'lat': 52.372377, 'lon': 30.348546, 'tags': {'amenity': 'pharmacy', 'contact:instagram': 'https://www.instagram.com/pharmostrov.by/', 'contact:phone': '+375 2340 48816;+375 29 1762118', 'contact:vk': 'https://vk.com/public175933181', 'contact:website': 'https://www.xn--80ae3aiajchjo.xn--90ais/', 'healthcare': 'pharmacy', 'name': '№14 ФармВостраў', 'name:be': '№14 ФармВостраў', 'name:ru': '№14 ФармОстров', 'opening_hours': 'Mo-Su 9:00-21:00', 'operator': 'ФармОстров'}}"
"{'type': 'node', 'id': 8749163812, 'lat': 52.3533702, 'lon': 30.4133319, 'tags': {'amenity': 'pharmacy', 'contact:phone': '+375 2340 99568', 'contact:website': 'https://alfaapteka.by', 'healthcare': 'pharmacy', 'name': 'Альфа Аптека №18', 'name:be': 'Альфа Аптэка №18', 'name:ru': 'Альфа Аптека №18', 'opening_hours': 'Mo-Fr 09:00-21:00; Sa-Su 09:00-20:00'}}"
"{'type': 'node', 'id': 9063704120, 'lat': 53.1593148, 'lon': 29.6869287, 'tags': {'addr:city': 'Жылічы', 'addr:housenumber': '2', 'addr:street': 'вуліца Міру', 'amenity': 'hospital', 'emergency': 'yes', 'healthcare': 'hospital', 'name': 'Жыліцкі АДАП', 'name:be': 'Жыліцкі АДАП', 'name:en': 'Žyličy ambulant clinic', 'name:ru': 'Жиличская АВОП', 'opening_hours': 'Mo-Fr 09:00-18:00; Sa 08:00-15:00', 'phone': '+375-2237-71-5-88'}}"
"{'type': 'node', 'id': 9063711817, 'lat': 53.1593436, 'lon': 29.6871044, 'tags': {'addr:city': 'Жылічы', 'addr:housenumber': '2', 'addr:postcode': '213948', 'addr:street': 'вуліца Міру', 'amenity': 'pharmacy', 'healthcare': 'pharmacy', 'name': 'Аптэка №118', 'name:be': 'Аптэка №118', 'name:en': 'Pharmacy No118', 'name:ru': 'Аптека №118', 'opening_hours': 'Mo-Fr 08:00 - 12:30, 13:30 - 17:00', 'phone': '+375-2237-73-5-96', 'website': 'https://mogpharm.by/shopview/492'}}"
"{'type': 'node', 'id': 9116967861, 'lat': 53.531114, 'lon': 30.2285475, 'tags': {'addr:city': 'Быхаў', 'addr:housenumber': '1', 'addr:postcode': '213312', 'addr:street': 'вуліца Максіма Багдановіча', 'air_conditioning': 'yes', 'amenity': 'clinic', 'email': 'info@bcrb.by', 'healthcare': 'clinic', 'healthcare:speciality': 'general;ophthalmology;dermatology;psychiatry;vaccination;covid19;radiology;urology;surgery;otolaryngology;physiotherapy;neurology;cardiology', 'name': 'Паліклініка', 'name:be': 'Паліклініка', 'name:ru': 'Поликлиника', 'opening_hours': 'Mo-Sa 08:00-20:00', 'operator': 'УЗ «Быховская центральная районная больница»', 'operator:type': 'government', 'phone': '+375 2231 77-074', 'website': 'https://www.bcrb.by/', 'wheelchair': 'yes'}}"
"{'type': 'node', 'id': 9116967863, 'lat': 53.530995, 'lon': 30.228185, 'tags': {'addr:city': 'Быхаў', 'addr:housenumber': '1', 'addr:postcode': '213312', 'addr:street': 'вуліца Максіма Багдановіча', 'air_conditioning': 'yes', 'amenity': 'clinic', 'email': 'info@bcrb.by', 'healthcare': 'clinic', 'healthcare:speciality': 'general;vaccination', 'name': 'Дзіцячая кансультацыя', 'name:be': 'Дзіцячая кансультацыя', 'name:ru': 'Детская консультация', 'opening_hours': 'Mo-Fr 08:00-18:00, Sa 08:00-14:00', 'operator': 'УЗ «Быховская центральная районная больница»', 'operator:type': 'government', 'phone': '+375 2231 77-093', 'website': 'https://www.bcrb.by/', 'wheelchair': 'yes'}}"
"{'type': 'node', 'id': 9116967864, 'lat': 53.5310484, 'lon': 30.2286442, 'tags': {'addr:city': 'Быхаў', 'addr:housenumber': '1', 'addr:postcode': '213312', 'addr:street': 'вуліца Максіма Багдановіча', 'air_conditioning': 'yes', 'amenity': 'clinic', 'email': 'info@bcrb.by', 'healthcare': 'clinic', 'healthcare:speciality': 'general', 'level': '0', 'name': 'Жаночая кансультацыя', 'name:be': 'Жаночая кансультацыя', 'name:ru': 'Женская консультация', 'opening_hours': 'Mo-Fr 08:00-20:00', 'operator': 'УЗ «Быховская центральная районная больница»', 'operator:type': 'government', 'phone': '+375 2231 77-074;+375 2231 77-091', 'website': 'https://www.bcrb.by/', 'wheelchair': 'yes'}}"
"{'type': 'node', 'id': 9116967869, 'lat': 53.5302145, 'lon': 30.2290172, 'tags': {'addr:city': 'Быхаў', 'addr:housenumber': '1', 'addr:postcode': '213312', 'addr:street': 'вуліца Максіма Багдановіча', 'air_conditioning': 'yes', 'amenity': 'clinic', 'email': 'info@bcrb.by', 'healthcare': 'clinic', 'healthcare:speciality': 'dentist;orthodontics;surgery;orthopaedics', 'name': 'Стаматалагічная паліклініка', 'name:be': 'Стаматалагічная паліклініка', 'name:ru': 'Стоматологическая поликлиника', 'opening_hours': 'Mo-Fr 07:30-20:00, Sa 09:00-15:00', 'operator': 'УЗ «Быховская центральная районная больница»', 'operator:type': 'government', 'phone': '+375 2231 77-232', 'website': 'https://www.bcrb.by/', 'wheelchair': 'yes'}}"
"{'type': 'node', 'id': 9116967871, 'lat': 53.5311163, 'lon': 30.2286431, 'tags': {'addr:city': 'Быхаў', 'addr:housenumber': '1', 'addr:postcode': '213352', 'addr:street': 'вуліца Максіма Багдановіча', 'amenity': 'pharmacy', 'dispensing': 'yes', 'drive_through': 'no', 'email': 'aptbhv132@mogpharm.by', 'healthcare': 'pharmacy', 'image': 'https://mogpharm.by/i/shops/796/457.jpg', 'level': '0', 'name': 'Аптэка №132', 'name:be': 'Аптэка №132', 'name:ru': 'Аптека №132', 'opening_hours': 'Mo-Fr 07:30-19:00, Sa 08:00-14:00', 'operator': 'Могилёвское РУП «Фармация»', 'payment:cash': 'yes', 'payment:coins': 'yes', 'payment:contactless': 'yes', 'payment:credit_cards': 'yes', 'payment:debit_cards': 'yes', 'payment:maestro': 'yes', 'payment:mastercard': 'yes', 'payment:notes': 'yes', 'payment:visa': 'yes', 'payment:visa_electron': 'yes', 'phone': '+375 2231 76-922', 'website': 'https://mogpharm.by/', 'wheelchair': 'yes'}}"
"{'type': 'node', 'id': 9116967898, 'lat': 53.5334383, 'lon': 30.220543, 'tags': {'addr:city': 'Быхаў', 'addr:housenumber': '9', 'addr:postcode': '213353', 'addr:street': 'вуліца Касманаўтаў', 'amenity': 'pharmacy', 'dispensing': 'yes', 'drive_through': 'no', 'email': 'aptbhv217@mogpharm.by', 'healthcare': 'pharmacy', 'image': 'https://mogpharm.by/i/shops/796/460.jpg', 'name': 'Аптэка №217', 'name:be': 'Аптэка №217', 'name:ru': 'Аптека №217', 'opening_hours': 'Mo-Th 11:00-15:00, 16:00-20:00; Fr-Su 09:00-22:00; ', 'operator': 'Могилёвское РУП «Фармация»', 'payment:cash': 'yes', 'payment:coins': 'yes', 'payment:contactless': 'yes', 'payment:credit_cards': 'yes', 'payment:debit_cards': 'yes', 'payment:maestro': 'yes', 'payment:mastercard': 'yes', 'payment:notes': 'yes', 'payment:visa': 'yes', 'payment:visa_electron': 'yes', 'phone': '+375 2231 78-527', 'website': 'https://mogpharm.by/', 'wheelchair': 'yes'}}"
"{'type': 'node', 'id': 9143918017, 'lat': 52.3673773, 'lon': 30.3835864, 'tags': {'amenity': 'doctors', 'healthcare': 'doctor', 'name': 'Наркалагічная клініка ТАА «Здравы лад»', 'name:be': 'Наркалагічная клініка ТАА «Здравы лад»', 'name:ru': 'Наркологическая клиника ООО «Здравый лад»', 'name:uk': 'Наркологічна клініка ТОВ «Здоровий лад»'}}"
"{'type': 'node', 'id': 9471085599, 'lat': 52.8842315, 'lon': 30.0297627, 'tags': {'amenity': 'pharmacy', 'contact:phone': '+375 29 6255424', 'contact:website': 'http://ostrovzdorovya.by/', 'healthcare': 'pharmacy', 'name': 'Остров здоровья', 'name:be': 'Востраў здароўя', 'name:ru': 'Остров здоровья', 'opening_hours': 'Mo-Su 09:00-21:00'}}"
"{'type': 'node', 'id': 9471085600, 'lat': 53.0878708, 'lon': 30.0542164, 'tags': {'amenity': 'pharmacy', 'contact:phone': '+375 44 7801886', 'contact:website': 'http://ostrovzdorovya.by/', 'healthcare': 'pharmacy', 'name': 'Остров здоровья', 'name:be': 'Востраў здароўя', 'name:ru': 'Остров здоровья', 'opening_hours': 'Mo-Su 09:00-21:00'}}"
"{'type': 'node', 'id': 9471102918, 'lat': 53.5297798, 'lon': 30.2257947, 'tags': {'addr:city': 'Быхаў', 'addr:housenumber': '3Б', 'addr:street': 'вуліца Максіма Багдановіча', 'amenity': 'pharmacy', 'contact:phone': '+375 44 7640250', 'contact:website': 'http://ostrovzdorovya.by/', 'dispensing': 'yes', 'drive_through': 'no', 'healthcare': 'pharmacy', 'name': 'Остров здоровья', 'name:be': 'Востраў здароўя', 'name:ru': 'Остров здоровья', 'opening_hours': 'Mo-Su 09:00-21:00', 'operator': 'ООО «Остров здоровья»'}}"
"{'type': 'node', 'id': 9599845990, 'lat': 52.8557275, 'lon': 29.9963806, 'tags': {'amenity': 'doctors', 'contact:email': 'mzrb@belcmt.by', 'contact:phone': '+375 2334 54422;+375 2334 56694', 'contact:website': 'http://minzdrav.gov.by/dlya-belorusskikh-grazhdan/vaktsinatsiya/', 'healthcare': 'doctor', 'name': 'Пункт вакцынацыі ад COVID-19', 'name:be': 'Пункт вакцынацыі ад COVID-19', 'name:ru': 'Пункт вакцинации от COVID-19', 'opening_hours': 'Mo-Fr 08:00-18:00'}}"
"{'type': 'node', 'id': 9599998609, 'lat': 52.7184251, 'lon': 30.5743296, 'tags': {'addr:housenumber': '29', 'addr:street': 'вуліца 50 год Кастрычніка', 'amenity': 'doctors', 'contact:email': 'mzrb@belcmt.by', 'contact:phone': '+375 2336 72210', 'contact:website': 'http://minzdrav.gov.by/dlya-belorusskikh-grazhdan/vaktsinatsiya/', 'healthcare': 'doctor', 'name': 'Пункт вакцынацыі ад COVID-19', 'name:be': 'Пункт вакцынацыі ад COVID-19', 'name:ru': 'Пункт вакцинации от COVID-19', 'opening_hours': 'Mo-Fr 08:00-20:00; Sa 08:00-14:00'}}"
"{'type': 'node', 'id': 9600023447, 'lat': 52.6408163, 'lon': 30.6503407, 'tags': {'addr:city': 'Пянчын', 'addr:housenumber': '3', 'addr:street': 'Юбілейная вуліца', 'amenity': 'doctors', 'contact:email': 'mzrb@belcmt.by', 'contact:phone': '+375 17 2224627;+375 17 2226547', 'contact:website': 'http://minzdrav.gov.by/dlya-belorusskikh-grazhdan/vaktsinatsiya/', 'healthcare': 'doctor', 'name': 'Пункт вакцынацыі ад COVID-19', 'name:be': 'Пункт вакцынацыі ад COVID-19', 'name:ru': 'Пункт вакцинации от COVID-19', 'opening_hours': 'Mo-Fr 08:00-16:00'}}"
"{'type': 'node', 'id': 9602683933, 'lat': 52.8977318, 'lon': 30.0312739, 'tags': {'amenity': 'doctors', 'contact:email': 'mzrb@belcmt.by', 'contact:phone': '+375 2334 35893', 'contact:website': 'http://minzdrav.gov.by/dlya-belorusskikh-grazhdan/vaktsinatsiya/', 'healthcare': 'doctor', 'name': 'Пункт вакцынацыі ад COVID-19', 'name:be': 'Пункт вакцынацыі ад COVID-19', 'name:ru': 'Пункт вакцинации от COVID-19', 'opening_hours': 'Mo-Fr 08:00-20:00'}}"
"{'type': 'node', 'id': 9602700949, 'lat': 52.9048835, 'lon': 30.0331647, 'tags': {'amenity': 'doctors', 'contact:email': 'mzrb@belcmt.by', 'contact:phone': '+375 44 5005484', 'contact:website': 'http://minzdrav.gov.by/dlya-belorusskikh-grazhdan/vaktsinatsiya/', 'healthcare': 'doctor', 'name': 'Пункт вакцынацыі ад COVID-19', 'name:be': 'Пункт вакцынацыі ад COVID-19', 'name:ru': 'Пункт вакцинации от COVID-19', 'opening_hours': 'Mo-Fr 10:00-19:00'}}"
"{'type': 'node', 'id': 9602715516, 'lat': 52.8904987, 'lon': 30.0369276, 'tags': {'amenity': 'doctors', 'contact:email': 'mzrb@belcmt.by', 'contact:phone': '+375 2334 62469', 'contact:website': 'http://minzdrav.gov.by/dlya-belorusskikh-grazhdan/vaktsinatsiya/', 'healthcare': 'doctor', 'name': 'Пункт вакцынацыі ад COVID-19', 'name:be': 'Пункт вакцынацыі ад COVID-19', 'name:ru': 'Пункт вакцинации от COVID-19', 'opening_hours': 'Mo-Fr 07:00-21:00'}}"
"{'type': 'node', 'id': 9602722213, 'lat': 52.2778269, 'lon': 29.3798876, 'tags': {'amenity': 'doctors', 'contact:email': 'mzrb@belcmt.by', 'contact:phone': '+375 2345 57737', 'contact:website': 'http://minzdrav.gov.by/dlya-belorusskikh-grazhdan/vaktsinatsiya/', 'healthcare': 'doctor', 'name': 'Пункт вакцынацыі ад COVID-19', 'name:be': 'Пункт вакцынацыі ад COVID-19', 'name:ru': 'Пункт вакцинации от COVID-19', 'opening_hours': 'Mo-Fr 08:00-15:00; Sa 08:00-14:30'}}"
"{'type': 'node', 'id': 9602746921, 'lat': 52.361123, 'lon': 29.5669266, 'tags': {'amenity': 'doctors', 'contact:email': 'mzrb@belcmt.by', 'contact:phone': '+375 2345 79167', 'contact:website': 'http://minzdrav.gov.by/dlya-belorusskikh-grazhdan/vaktsinatsiya/', 'healthcare': 'doctor', 'name': 'Пункт вакцынацыі ад COVID-19', 'name:be': 'Пункт вакцынацыі ад COVID-19', 'name:ru': 'Пункт вакцинации от COVID-19', 'opening_hours': 'Mo-Fr 08:00-15:00; Sa 08:00-14:30'}}"
"{'type': 'node', 'id': 9602959293, 'lat': 53.1561599, 'lon': 30.4662134, 'tags': {'addr:city': 'Доўск', 'addr:housenumber': '4', 'addr:street': 'Савецкая вуліца', 'amenity': 'doctors', 'contact:email': 'mzrb@belcmt.by', 'contact:phone': '+375 2339 77583', 'contact:website': 'http://minzdrav.gov.by/dlya-belorusskikh-grazhdan/vaktsinatsiya/', 'healthcare': 'doctor', 'name': 'Пункт вакцынацыі ад COVID-19', 'name:be': 'Пункт вакцынацыі ад COVID-19', 'name:ru': 'Пункт вакцинации от COVID-19', 'opening_hours': 'Mo-Sa 08:00-18:00'}}"
"{'type': 'node', 'id': 9602960112, 'lat': 52.3708739, 'lon': 30.3768059, 'tags': {'amenity': 'doctors', 'contact:email': 'mzrb@belcmt.by', 'contact:phone': '+375 2340 99336', 'contact:website': 'http://minzdrav.gov.by/dlya-belorusskikh-grazhdan/vaktsinatsiya/', 'healthcare': 'doctor', 'name': 'Пункт вакцынацыі ад COVID-19', 'name:be': 'Пункт вакцынацыі ад COVID-19', 'name:ru': 'Пункт вакцинации от COVID-19', 'opening_hours': 'Mo-Fr 08:00-15:30'}}"
"{'type': 'node', 'id': 9602968479, 'lat': 52.3840968, 'lon': 30.3483996, 'tags': {'amenity': 'doctors', 'contact:email': 'mzrb@belcmt.by', 'contact:phone': '+375 2340 62840;+375 2340 64551;+375 2340 65475', 'contact:website': 'http://minzdrav.gov.by/dlya-belorusskikh-grazhdan/vaktsinatsiya/', 'healthcare': 'doctor', 'name': 'Пункт вакцынацыі ад COVID-19', 'name:be': 'Пункт вакцынацыі ад COVID-19', 'name:ru': 'Пункт вакцинации от COVID-19', 'opening_hours': 'Mo-Fr 08:00-19:30; Sa 09:00-14:30'}}"
"{'type': 'node', 'id': 9602974977, 'lat': 53.0128765, 'lon': 29.7787961, 'tags': {'addr:city': 'Побалава', 'addr:housenumber': '3', 'addr:street': 'вуліца Леніна', 'amenity': 'doctors', 'contact:email': 'mzrb@belcmt.by', 'contact:phone': '+375 2339 53739', 'contact:website': 'http://minzdrav.gov.by/dlya-belorusskikh-grazhdan/vaktsinatsiya/', 'healthcare': 'doctor', 'name': 'Пункт вакцынацыі ад COVID-19', 'name:be': 'Пункт вакцынацыі ад COVID-19', 'name:ru': 'Пункт вакцинации от COVID-19', 'opening_hours': 'Mo-Sa 08:00-17:00'}}"
"{'type': 'node', 'id': 9602986225, 'lat': 52.3545453, 'lon': 30.4151286, 'tags': {'addr:housenumber': '36', 'addr:street': 'вуліца Сняжкова', 'amenity': 'doctors', 'contact:email': 'mzrb@belcmt.by', 'contact:phone': '+375 2340 78440', 'contact:website': 'http://minzdrav.gov.by/dlya-belorusskikh-grazhdan/vaktsinatsiya/', 'healthcare': 'doctor', 'name': 'Пункт вакцынацыі ад COVID-19', 'name:be': 'Пункт вакцынацыі ад COVID-19', 'name:ru': 'Пункт вакцинации от COVID-19', 'opening_hours': 'Mo-Fr 08:00-19:30; Sa 09:00-14:30'}}"
"{'type': 'node', 'id': 9602986321, 'lat': 53.0806454, 'lon': 30.0450125, 'tags': {'addr:housenumber': '17', 'addr:street': 'вуліца Фелікса Дзяржынскага', 'amenity': 'doctors', 'contact:email': 'mzrb@belcmt.by', 'contact:phone': '+375 2339 20828', 'contact:website': 'http://minzdrav.gov.by/dlya-belorusskikh-grazhdan/vaktsinatsiya/', 'healthcare': 'doctor', 'name': 'Пункт вакцынацыі ад COVID-19', 'name:be': 'Пункт вакцынацыі ад COVID-19', 'name:ru': 'Пункт вакцинации от COVID-19', 'opening_hours': 'Mo-Fr 08:00-20:00; Sa 08:00-18:00'}}"
"{'type': 'node', 'id': 9603003133, 'lat': 53.2560015, 'lon': 30.5425373, 'tags': {'addr:city': 'Журавічы', 'addr:housenumber': '61', 'addr:street': 'Савецкая вуліца', 'amenity': 'doctors', 'contact:email': 'mzrb@belcmt.by', 'contact:phone': '+375 2339 94624', 'contact:website': 'http://minzdrav.gov.by/dlya-belorusskikh-grazhdan/vaktsinatsiya/', 'healthcare': 'doctor', 'name': 'Пункт вакцынацыі ад COVID-19', 'name:be': 'Пункт вакцынацыі ад COVID-19', 'name:ru': 'Пункт вакцинации от COVID-19', 'opening_hours': 'Mo-Sa 08:00-17:00'}}"
"{'type': 'node', 'id': 9603003150, 'lat': 52.9365668, 'lon': 30.4114649, 'tags': {'addr:city': 'Беліцк', 'addr:housenumber': '1', 'addr:street': 'вуліца Леніна', 'amenity': 'doctors', 'contact:email': 'mzrb@belcmt.by', 'contact:phone': '+375 2339 56231', 'contact:website': 'http://minzdrav.gov.by/dlya-belorusskikh-grazhdan/vaktsinatsiya/', 'healthcare': 'doctor', 'name': 'Пункт вакцынацыі ад COVID-19', 'name:be': 'Пункт вакцынацыі ад COVID-19', 'name:ru': 'Пункт вакцинации от COVID-19', 'opening_hours': 'Mo-Sa 08:00-16:00'}}"
"{'type': 'node', 'id': 9603010201, 'lat': 53.0979776, 'lon': 29.7281105, 'tags': {'addr:housenumber': '8', 'addr:street': 'вуліца Пушкіна', 'amenity': 'doctors', 'contact:email': 'mzrb@belcmt.by', 'contact:phone': '+375 2339 98240', 'contact:website': 'http://minzdrav.gov.by/dlya-belorusskikh-grazhdan/vaktsinatsiya/', 'healthcare': 'doctor', 'name': 'Пункт вакцынацыі ад COVID-19', 'name:be': 'Пункт вакцынацыі ад COVID-19', 'name:ru': 'Пункт вакцинации от COVID-19', 'opening_hours': 'Mo-Sa 08:00-15:30'}}"
"{'type': 'node', 'id': 9603010202, 'lat': 53.1530742, 'lon': 29.8605115, 'tags': {'addr:city': 'Ціхінічы', 'addr:housenumber': '2А', 'addr:street': 'вуліца Якуба Коласа', 'amenity': 'doctors', 'contact:email': 'mzrb@belcmt.by', 'contact:phone': '+375 2339 78464', 'contact:website': 'http://minzdrav.gov.by/dlya-belorusskikh-grazhdan/vaktsinatsiya/', 'healthcare': 'doctor', 'name': 'Пункт вакцынацыі ад COVID-19', 'name:be': 'Пункт вакцынацыі ад COVID-19', 'name:ru': 'Пункт вакцинации от COVID-19', 'opening_hours': 'Mo-Sa 08:00-17:00'}}"
"{'type': 'node', 'id': 9603039675, 'lat': 53.2607958, 'lon': 30.4186157, 'tags': {'addr:city': 'Ільіч', 'addr:housenumber': '2', 'addr:street': 'Партызанская вуліца', 'amenity': 'doctors', 'contact:email': 'mzrb@belcmt.by', 'contact:phone': '+375 2339 72442', 'contact:website': 'http://minzdrav.gov.by/dlya-belorusskikh-grazhdan/vaktsinatsiya/', 'healthcare': 'doctor', 'name': 'Пункт вакцынацыі ад COVID-19', 'name:be': 'Пункт вакцынацыі ад COVID-19', 'name:ru': 'Пункт вакцинации от COVID-19', 'opening_hours': 'Mo-Sa 08:00-17:00'}}"
"{'type': 'node', 'id': 9603045595, 'lat': 52.6276021, 'lon': 29.7357424, 'tags': {'amenity': 'doctors', 'contact:email': 'mzrb@belcmt.by', 'contact:phone': '+375 29 1170651', 'contact:website': 'http://minzdrav.gov.by/dlya-belorusskikh-grazhdan/vaktsinatsiya/', 'healthcare': 'doctor', 'name': 'Пункт вакцынацыі ад COVID-19', 'name:be': 'Пункт вакцынацыі ад COVID-19', 'name:ru': 'Пункт вакцинации от COVID-19', 'opening_hours': 'Mo-Fr 08:00-19:00'}}"
"{'type': 'node', 'id': 9603049816, 'lat': 53.2158507, 'lon': 30.0456147, 'tags': {'addr:city': 'Зарэчча', 'addr:housenumber': '15А', 'addr:street': 'Каштанавая вуліца', 'amenity': 'doctors', 'contact:email': 'mzrb@belcmt.by', 'contact:phone': '+375 2339 91315', 'contact:website': 'http://minzdrav.gov.by/dlya-belorusskikh-grazhdan/vaktsinatsiya/', 'healthcare': 'doctor', 'name': 'Пункт вакцынацыі ад COVID-19', 'name:be': 'Пункт вакцынацыі ад COVID-19', 'name:ru': 'Пункт вакцинации от COVID-19', 'opening_hours': 'Mo-Sa 08:00-17:00'}}"
"{'type': 'node', 'id': 9603057655, 'lat': 52.6232484, 'lon': 29.7466208, 'tags': {'addr:city': 'Светлагорск', 'addr:housenumber': '8', 'addr:street': 'вуліца Свярдлова', 'amenity': 'doctors', 'contact:email': 'mzrb@belcmt.by', 'contact:phone': '+375 29 3238889', 'contact:website': 'http://minzdrav.gov.by/dlya-belorusskikh-grazhdan/vaktsinatsiya/', 'healthcare': 'doctor', 'name': 'Пункт вакцынацыі ад COVID-19', 'name:be': 'Пункт вакцынацыі ад COVID-19', 'name:ru': 'Пункт вакцинации от COVID-19', 'opening_hours': 'Mo-Fr 08:00-19:00'}}"
"{'type': 'node', 'id': 9603060946, 'lat': 53.16824, 'lon': 30.2397722, 'tags': {'amenity': 'doctors', 'contact:email': 'mzrb@belcmt.by', 'contact:phone': '+375 2339 50773', 'contact:website': 'http://minzdrav.gov.by/dlya-belorusskikh-grazhdan/vaktsinatsiya/', 'healthcare': 'doctor', 'name': 'Пункт вакцынацыі ад COVID-19', 'name:be': 'Пункт вакцынацыі ад COVID-19', 'name:ru': 'Пункт вакцинации от COVID-19', 'opening_hours': 'Mo-Sa 08:00-17:00'}}"
"{'type': 'node', 'id': 9603075793, 'lat': 52.8026257, 'lon': 29.4109483, 'tags': {'addr:city': 'Парычы', 'addr:housenumber': '2', 'addr:street': 'Бальнічная вуліца', 'amenity': 'doctors', 'contact:email': 'mzrb@belcmt.by', 'contact:phone': '+375 2342 73293', 'contact:website': 'http://minzdrav.gov.by/dlya-belorusskikh-grazhdan/vaktsinatsiya/', 'healthcare': 'doctor', 'name': 'Пункт вакцынацыі ад COVID-19', 'name:be': 'Пункт вакцынацыі ад COVID-19', 'name:ru': 'Пункт вакцинации от COVID-19', 'opening_hours': 'Mo-Fr 08:00-19:00'}}"
"{'type': 'node', 'id': 9603081098, 'lat': 52.5166239, 'lon': 29.5954677, 'tags': {'addr:city': 'Сасновы Бор', 'addr:housenumber': '4', 'addr:street': 'Піянерская вуліца', 'amenity': 'doctors', 'contact:email': 'mzrb@belcmt.by', 'contact:phone': '+375 2342 76258', 'contact:website': 'http://minzdrav.gov.by/dlya-belorusskikh-grazhdan/vaktsinatsiya/', 'healthcare': 'doctor', 'name': 'Пункт вакцынацыі ад COVID-19', 'name:be': 'Пункт вакцынацыі ад COVID-19', 'name:ru': 'Пункт вакцинации от COVID-19', 'opening_hours': 'Mo-Fr 08:00-19:00'}}"
"{'type': 'node', 'id': 9603089183, 'lat': 52.733656, 'lon': 29.5267063, 'tags': {'addr:city': 'Судавіца', 'addr:housenumber': '8', 'addr:street': 'Маладзёжная вуліца', 'amenity': 'doctors', 'contact:email': 'mzrb@belcmt.by', 'contact:phone': '+375 2342 71549', 'contact:website': 'http://minzdrav.gov.by/dlya-belorusskikh-grazhdan/vaktsinatsiya/', 'healthcare': 'doctor', 'name': 'Пункт вакцынацыі ад COVID-19', 'name:be': 'Пункт вакцынацыі ад COVID-19', 'name:ru': 'Пункт вакцинации от COVID-19', 'opening_hours': 'Mo-Fr 08:00-15:00'}}"
"{'type': 'node', 'id': 9603092298, 'lat': 52.6314102, 'lon': 29.3826837, 'tags': {'addr:city': 'Дуброва', 'addr:housenumber': '9А', 'addr:street': 'Садовая вуліца', 'amenity': 'doctors', 'contact:email': 'mzrb@belcmt.by', 'contact:phone': '+375 2342 52849', 'contact:website': 'http://minzdrav.gov.by/dlya-belorusskikh-grazhdan/vaktsinatsiya/', 'healthcare': 'doctor', 'name': 'Пункт вакцынацыі ад COVID-19', 'name:be': 'Пункт вакцынацыі ад COVID-19', 'name:ru': 'Пункт вакцинации от COVID-19', 'opening_hours': 'Mo-Fr 08:00-15:00'}}"
"{'type': 'node', 'id': 9603096577, 'lat': 52.5005102, 'lon': 29.7558998, 'tags': {'addr:city': 'Хутар', 'addr:housenumber': '4', 'addr:street': 'вуліца Кірава', 'amenity': 'doctors', 'contact:email': 'mzrb@belcmt.by', 'contact:phone': '+375 2342 71759', 'contact:website': 'http://minzdrav.gov.by/dlya-belorusskikh-grazhdan/vaktsinatsiya/', 'healthcare': 'doctor', 'name': 'Пункт вакцынацыі ад COVID-19', 'name:be': 'Пункт вакцынацыі ад COVID-19', 'name:ru': 'Пункт вакцинации от COVID-19', 'opening_hours': 'Mo-Fr 08:00-15:00'}}"
"{'type': 'node', 'id': 9603099489, 'lat': 52.9774778, 'lon': 30.6028334, 'tags': {'addr:city': 'Меркулавічы', 'addr:housenumber': '25', 'addr:street': 'Савецкая вуліца', 'amenity': 'doctors', 'contact:email': 'mzrb@belcmt.by', 'contact:phone': '+375 2332 22147', 'contact:website': 'http://minzdrav.gov.by/dlya-belorusskikh-grazhdan/vaktsinatsiya/', 'healthcare': 'doctor', 'name': 'Пункт вакцынацыі ад COVID-19', 'name:be': 'Пункт вакцынацыі ад COVID-19', 'name:ru': 'Пункт вакцинации от COVID-19', 'opening_hours': 'Mo-Fr 08:30-16:30'}}"
"{'type': 'node', 'id': 9605778880, 'lat': 53.5303289, 'lon': 30.2290175, 'tags': {'addr:city': 'Быхаў', 'addr:housenumber': '1', 'addr:postcode': '213312', 'addr:street': 'вуліца Максіма Багдановіча', 'amenity': 'doctors', 'contact:email': 'mzrb@belcmt.by', 'contact:phone': '+375 2231 77074;+375 44 5304007;+375 44 7425317', 'contact:website': 'http://minzdrav.gov.by/dlya-belorusskikh-grazhdan/vaktsinatsiya/', 'healthcare': 'doctor', 'name': 'Пункт вакцынацыі ад COVID-19', 'name:be': 'Пункт вакцынацыі ад COVID-19', 'name:ru': 'Пункт вакцинации от COVID-19', 'opening_hours': 'Mo-Fr 08:00-19:00; Sa 08:00-15:00'}}"
"{'type': 'node', 'id': 9605893179, 'lat': 53.2573558, 'lon': 29.4794467, 'tags': {'addr:city': 'Кіраўск', 'amenity': 'doctors', 'contact:email': 'mzrb@belcmt.by', 'contact:phone': '+375 2237 77399;+375 2237 77410;+375 29 1012803', 'contact:website': 'http://minzdrav.gov.by/dlya-belorusskikh-grazhdan/vaktsinatsiya/', 'healthcare': 'doctor', 'name': 'Пункт вакцынацыі ад COVID-19', 'name:be': 'Пункт вакцынацыі ад COVID-19', 'name:ru': 'Пункт вакцинации от COVID-19', 'opening_hours': 'Mo-Fr 08:00-18:00; Sa 08:00-15:30'}}"
"{'type': 'node', 'id': 9731966945, 'lat': 52.8978088, 'lon': 30.0374928, 'tags': {'amenity': 'clinic', 'contact:email': 'info@helix.by', 'contact:phone': '+375 17 3388888;+375 29 6285428', 'contact:website': 'https://helix.by', 'healthcare': 'clinic', 'name': 'Helix', 'name:be': 'Хелікс', 'name:en': 'Helix', 'name:ru': 'Хеликс', 'name:uk': 'Хелікс', 'opening_hours': 'Mo-Fr 07:00-17:00; Sa 07:30-14:00'}}"
"{'type': 'node', 'id': 9731966950, 'lat': 52.6238725, 'lon': 29.7440001, 'tags': {'amenity': 'clinic', 'contact:email': 'info@helix.by', 'contact:phone': '+375 17 3388888;+375 29 6285428', 'contact:website': 'https://helix.by', 'healthcare': 'clinic', 'name': 'Helix', 'name:be': 'Хелікс', 'name:en': 'Helix', 'name:ru': 'Хеликс', 'name:uk': 'Хелікс', 'opening_hours': 'Mo-Fr 07:00-17:00; Sa 07:30-14:00'}}"
"{'type': 'node', 'id': 9851052829, 'lat': 52.8932166, 'lon': 30.0434285, 'tags': {'amenity': 'pharmacy', 'contact:phone': '+375 2334 52239;+375 29 6142167', 'contact:website': 'http://ostrovzdorovya.by/', 'healthcare': 'pharmacy', 'name': 'Остров здоровья', 'name:be': 'Востраў здароўя', 'name:ru': 'Остров здоровья', 'opening_hours': '24/7'}}"
"{'type': 'node', 'id': 10045192650, 'lat': 53.5219799, 'lon': 30.2444284, 'tags': {'addr:city': 'Быхаў', 'addr:housenumber': '56', 'addr:street': 'Сацыялістычная вуліца', 'amenity': 'pharmacy', 'dispensing': 'yes', 'drive_through': 'no', 'healthcare': 'pharmacy', 'name': 'Аптэка №227', 'name:be': 'Аптэка №227', 'name:ru': 'Аптека №227', 'opening_hours': 'Mo-Su 08:00-11:40,12:00-17:00', 'operator': 'Могилёвское РУП ""Фармация""'}}"
"{'type': 'node', 'id': 10046845209, 'lat': 53.5227542, 'lon': 30.2449288, 'tags': {'healthcare': 'laboratory', 'name': 'Лабараторыя ветэрынарна-санітарнай экспертызы', 'name:be': 'Лабараторыя ветэрынарна-санітарнай экспертызы', 'name:ru': 'Лаборатория ветеринарно-санитарной экспертизы', 'opening_hours': 'Mo-Tu 08:00-14:30; Th-Fr 07:30-14:30; Sa 07:00-14:00; Su 06:30-14:00', 'operator': 'ВСУ ""Быховская райветстанция""'}}"
"{'type': 'node', 'id': 10111440017, 'lat': 53.0883269, 'lon': 30.0554141, 'tags': {'addr:housenumber': '107', 'addr:street': 'вуліца Карла Лібкнехта', 'amenity': 'dentist', 'healthcare': 'dentist', 'name': 'Стаматалагічная паліклініка', 'name:be': 'Стаматалагічная паліклініка', 'name:ru': 'Стоматологическая поликлиника'}}"
"{'type': 'node', 'id': 10130304500, 'lat': 53.0810756, 'lon': 30.0468186, 'tags': {'addr:housenumber': '44А', 'addr:street': 'вуліца Віліса Цымермана', 'alt_name': 'Роддом', 'amenity': 'hospital', 'healthcare': 'birthing_centre', 'name': 'Радзільня', 'name:be': 'Радзільня', 'name:ru': 'Родильный дом'}}"
"{'type': 'node', 'id': 10130304501, 'lat': 53.081169, 'lon': 30.0461762, 'tags': {'amenity': 'clinic', 'healthcare': 'clinic', 'name': 'Жаночая кансультацыя', 'name:be': 'Жаночая кансультацыя', 'name:ru': 'Женская консультация'}}"
"{'type': 'node', 'id': 10822157972, 'lat': 52.3704819, 'lon': 30.3619264, 'tags': {'amenity': 'pharmacy', 'contact:phone': '+375 2340 77102', 'contact:website': 'https://alfaapteka.by', 'healthcare': 'pharmacy', 'name': 'Любимая аптека', 'name:be': 'Любімая аптэка', 'name:ru': 'Любимая аптека', 'opening_hours': 'Mo-Fr 09:00-20:00; Sa 10:00-19:00; Su 10:00-18:00'}}"
"{'type': 'node', 'id': 10932203437, 'lat': 52.26106, 'lon': 29.4291034, 'tags': {'amenity': 'clinic', 'healthcare': 'clinic', 'name': 'АСП «Гарачыцкая амбулаторыя ўрача агульнай практыкі»', 'name:be': 'АСП «Гарачыцкая амбулаторыя ўрача агульнай практыкі»', 'name:ru': 'ОСП «Горочичская амбулатория врача общей практики»'}}"
"{'type': 'node', 'id': 11364962069, 'lat': 52.3840197, 'lon': 30.345385, 'tags': {'amenity': 'hospital', 'name': 'Гінекалогія', 'name:be': 'Гінекалогія', 'name:ru': 'Гинекология', 'opening_hours': '24/7'}}"
"{'type': 'node', 'id': 11789502505, 'lat': 52.2516777, 'lon': 29.8301554, 'tags': {'amenity': 'pharmacy', 'drive_through': 'no', 'healthcare': 'pharmacy', 'name': 'Аптэка №76', 'name:be': 'Аптэка №76', 'name:ru': 'Аптека №76', 'name:uk': 'Аптека №76', 'operator': 'Гомельское РУП Фармация'}}"
"{'type': 'node', 'id': 12014934737, 'lat': 52.3495242, 'lon': 30.3933908, 'tags': {'addr:housenumber': '9', 'addr:street': 'Прывакзальная вуліца', 'amenity': 'pharmacy', 'check_date': '2024-06-26', 'healthcare': 'pharmacy', 'level': '0', 'name': 'Гомельская фармацыя № 53/4', 'name:be': 'Гомельская фармацыя № 53/4', 'name:ru': 'Гомельская фармация № 53/4', 'opening_hours': 'Mo-Fr 08:30-12:30,13:00-17:00', 'website': 'https://gomelpharm.by/'}}"
"{'type': 'node', 'id': 12407026784, 'lat': 52.3581637, 'lon': 30.4269718, 'tags': {'amenity': 'clinic', 'healthcare': 'clinic', 'name': 'Миромед'}}"
"{'type': 'node', 'id': 12407101429, 'lat': 52.3825517, 'lon': 30.3639295, 'tags': {'amenity': 'dentist', 'healthcare': 'dentist', 'name': 'ГОЛЛИВУД СМАЙЛ'}}"
